{"type":"FeatureCollection","features":[{"type":"Feature","geometry":{"type":"Point","coordinates":[-80.226312,34.197587]},"properties":{"NCESSCH":"450000100063","LEAID":"4500001","NAME":"Lee High","STATE":"SC","CITY":"Bishopville","ZIP":"29010","CNTY":"45061","NMCNTY":"Lee County","LOCALE":"42","SCHOOLYEAR":"2024-2025"}},{"type":"Feature","geometry":{"type":"Point","coordinates":[-81.841657,33.714379]},"properties":{"NCESSCH":"450000100148","LEAID":"4500001","NAME":"Trenton High","STATE":"SC","CITY":"Trenton","ZIP":"29847","CNTY":"45037","NMCNTY":"Edgefield County","LOCALE":"42","SCHOOLYEAR":"2024-2025"}},{"type":"Feature","geometry":{"type":"Point","coordinates":[-80.079983,33.886351]},"properties":{"NCESSCH":"450000100238","LEAID":"4500001","NAME":"Turbeville High","STATE":"SC","CITY":"Turbeville","ZIP":"29162","CNTY":"45027","NMCNTY":"Clarendon County","LOCALE":"42","SCHOOLYEAR":"2024-2025"}},{"type":"Feature","geometry":{"type":"Point","coordinates":[-81.827048,34.712488]},"properties":{"NCESSCH":"450000100255","LEAID":"4500001","NAME":"Tyger River High","STATE":"SC","CITY":"Enoree","ZIP":"29335","CNTY":"45083","NMCNTY":"Spartanburg County","LOCALE":"42","SCHOOLYEAR":"2024-2025"}},{"type":"Feature","geometry":{"type":"Point","coordinates":[-80.966678,32.494194]},"properties":{"NCESSCH":"450000100266","LEAID":"4500001","NAME":"Ridgeland High","STATE":"SC","CITY":"Ridgeland","ZIP":"29936","CNTY":"45053","NMCNTY":"Jasper County","LOCALE":"42","SCHOOLYEAR":"2024-2025"}},{"type":"Feature","geometry":{"type":"Point","coordinates":[-80.989831,34.081094]},"properties":{"NCESSCH":"450000100939","LEAID":"4500001","NAME":"Manning High","STATE":"SC","CITY":"Columbia","ZIP":"29203","CNTY":"45079","NMCNTY":"Richland County","LOCALE":"12","SCHOOLYEAR":"2024-2025"}},{"type":"Feature","geometry":{"type":"Point","coordinates":[-80.291006,33.169113]},"properties":{"NCESSCH":"450000101376","LEAID":"4500001","NAME":"MacDougall High","STATE":"SC","CITY":"Ridgeville","ZIP":"29472","CNTY":"45015","NMCNTY":"Berkeley County","LOCALE":"42","SCHOOLYEAR":"2024-2025"}},{"type":"Feature","geometry":{"type":"Point","coordinates":[-81.104134,34.075765]},"properties":{"NCESSCH":"450000101378","LEAID":"4500001","NAME":"Sara Babb High","STATE":"SC","CITY":"Columbia","ZIP":"29210","CNTY":"45079","NMCNTY":"Richland County","LOCALE":"41","SCHOOLYEAR":"2024-2025"}},{"type":"Feature","geometry":{"type":"Point","coordinates":[-80.588453,34.081372]},"properties":{"NCESSCH":"450000101423","LEAID":"4500001","NAME":"Lewis High","STATE":"SC","CITY":"Rembert","ZIP":"29128","CNTY":"45085","NMCNTY":"Sumter County","LOCALE":"42","SCHOOLYEAR":"2024-2025"}},{"type":"Feature","geometry":{"type":"Point","coordinates":[-81.098039,34.073733]},"properties":{"NCESSCH":"450000101721","LEAID":"4500001","NAME":"Broad River High","STATE":"SC","CITY":"Columbia","ZIP":"29210","CNTY":"45079","NMCNTY":"Richland County","LOCALE":"12","SCHOOLYEAR":"2024-2025"}},{"type":"Feature","geometry":{"type":"Point","coordinates":[-81.268233,32.96823]},"properties":{"NCESSCH":"450000101730","LEAID":"4500001","NAME":"Allendale High","STATE":"SC","CITY":"Fairfax","ZIP":"29827","CNTY":"45005","NMCNTY":"Allendale County","LOCALE":"43","SCHOOLYEAR":"2024-2025"}},{"type":"Feature","geometry":{"type":"Point","coordinates":[-81.098039,34.073733]},"properties":{"NCESSCH":"450000101731","LEAID":"4500001","NAME":"Kirkland High","STATE":"SC","CITY":"Columbia","ZIP":"29210","CNTY":"45079","NMCNTY":"Richland County","LOCALE":"12","SCHOOLYEAR":"2024-2025"}},{"type":"Feature","geometry":{"type":"Point","coordinates":[-80.379036,33.154295]},"properties":{"NCESSCH":"450000200435","LEAID":"4500002","NAME":"Harleyville Elementary","STATE":"SC","CITY":"Dorchester","ZIP":"29437","CNTY":"45035","NMCNTY":"Dorchester County","LOCALE":"42","SCHOOLYEAR":"2024-2025"}},{"type":"Feature","geometry":{"type":"Point","coordinates":[-80.577543,33.19486]},"properties":{"NCESSCH":"450000200439","LEAID":"4500002","NAME":"St. George Middle","STATE":"SC","CITY":"St. George","ZIP":"29477","CNTY":"45035","NMCNTY":"Dorchester County","LOCALE":"42","SCHOOLYEAR":"2024-2025"}},{"type":"Feature","geometry":{"type":"Point","coordinates":[-80.589468,33.183155]},"properties":{"NCESSCH":"450000200444","LEAID":"4500002","NAME":"Williams Memorial Elementary","STATE":"SC","CITY":"St. George","ZIP":"29477","CNTY":"45035","NMCNTY":"Dorchester County","LOCALE":"42","SCHOOLYEAR":"2024-2025"}},{"type":"Feature","geometry":{"type":"Point","coordinates":[-80.492451,33.167572]},"properties":{"NCESSCH":"450000200445","LEAID":"4500002","NAME":"Woodland High","STATE":"SC","CITY":"Dorchester","ZIP":"29437","CNTY":"45035","NMCNTY":"Dorchester County","LOCALE":"42","SCHOOLYEAR":"2024-2025"}},{"type":"Feature","geometry":{"type":"Point","coordinates":[-80.379036,33.154295]},"properties":{"NCESSCH":"450000201597","LEAID":"4500002","NAME":"Harleyville-Ridgeville Middle","STATE":"SC","CITY":"Dorchester","ZIP":"29437","CNTY":"45035","NMCNTY":"Dorchester County","LOCALE":"42","SCHOOLYEAR":"2024-2025"}},{"type":"Feature","geometry":{"type":"Point","coordinates":[-80.312634,33.092604]},"properties":{"NCESSCH":"450000201600","LEAID":"4500002","NAME":"Clay Hill Elementary","STATE":"SC","CITY":"Ridgeville","ZIP":"29472","CNTY":"45035","NMCNTY":"Dorchester County","LOCALE":"41","SCHOOLYEAR":"2024-2025"}},{"type":"Feature","geometry":{"type":"Point","coordinates":[-80.485175,33.163869]},"properties":{"NCESSCH":"450000201794","LEAID":"4500002","NAME":"Woodland Middle School","STATE":"SC","CITY":"Dorchester","ZIP":"29437","CNTY":"45035","NMCNTY":"Dorchester County","LOCALE":"42","SCHOOLYEAR":"2024-2025"}},{"type":"Feature","geometry":{"type":"Point","coordinates":[-81.882361,34.911561]},"properties":{"NCESSCH":"450000401226","LEAID":"4500004","NAME":"SC School for the Blind High","STATE":"SC","CITY":"Spartanburg","ZIP":"29302","CNTY":"45083","NMCNTY":"Spartanburg County","LOCALE":"22","SCHOOLYEAR":"2024-2025"}},{"type":"Feature","geometry":{"type":"Point","coordinates":[-81.882361,34.911561]},"properties":{"NCESSCH":"450000401227","LEAID":"4500004","NAME":"SC School for the Deaf High","STATE":"SC","CITY":"Spartanburg","ZIP":"29302","CNTY":"45083","NMCNTY":"Spartanburg County","LOCALE":"22","SCHOOLYEAR":"2024-2025"}},{"type":"Feature","geometry":{"type":"Point","coordinates":[-81.882361,34.911561]},"properties":{"NCESSCH":"450000401228","LEAID":"4500004","NAME":"SC School for the Deaf Elementary/Middle","STATE":"SC","CITY":"Spartanburg","ZIP":"29302","CNTY":"45083","NMCNTY":"Spartanburg County","LOCALE":"22","SCHOOLYEAR":"2024-2025"}},{"type":"Feature","geometry":{"type":"Point","coordinates":[-81.882361,34.911561]},"properties":{"NCESSCH":"450000401246","LEAID":"4500004","NAME":"SC School for the Blind Elementary/Middle","STATE":"SC","CITY":"Spartanburg","ZIP":"29302","CNTY":"45083","NMCNTY":"Spartanburg County","LOCALE":"22","SCHOOLYEAR":"2024-2025"}},{"type":"Feature","geometry":{"type":"Point","coordinates":[-81.882361,34.911561]},"properties":{"NCESSCH":"450000401402","LEAID":"4500004","NAME":"Cedar Springs Academy","STATE":"SC","CITY":"Spartanburg","ZIP":"29302","CNTY":"45083","NMCNTY":"Spartanburg County","LOCALE":"22","SCHOOLYEAR":"2024-2025"}},{"type":"Feature","geometry":{"type":"Point","coordinates":[-82.165427,34.233982]},"properties":{"NCESSCH":"450000700597","LEAID":"4500007","NAME":"G. Frank Russell Technology Center","STATE":"SC","CITY":"Greenwood","ZIP":"29649","CNTY":"45047","NMCNTY":"Greenwood County","LOCALE":"32","SCHOOLYEAR":"2024-2025"}},{"type":"Feature","geometry":{"type":"Point","coordinates":[-81.005836,33.374155]},"properties":{"NCESSCH":"450000800863","LEAID":"4500008","NAME":"Cope Area Career Center","STATE":"SC","CITY":"Cope","ZIP":"29038","CNTY":"45075","NMCNTY":"Orangeburg County","LOCALE":"42","SCHOOLYEAR":"2024-2025"}},{"type":"Feature","geometry":{"type":"Point","coordinates":[-81.997754,34.836239]},"properties":{"NCESSCH":"450001001039","LEAID":"4500010","NAME":"R. D. Anderson Applied Technology Center","STATE":"SC","CITY":"Moore","ZIP":"29369","CNTY":"45083","NMCNTY":"Spartanburg County","LOCALE":"41","SCHOOLYEAR":"2024-2025"}},{"type":"Feature","geometry":{"type":"Point","coordinates":[-82.022382,35.123033]},"properties":{"NCESSCH":"450001100991","LEAID":"4500011","NAME":"H. B. Swofford Career Center","STATE":"SC","CITY":"Inman","ZIP":"29349","CNTY":"45083","NMCNTY":"Spartanburg County","LOCALE":"41","SCHOOLYEAR":"2024-2025"}},{"type":"Feature","geometry":{"type":"Point","coordinates":[-82.597752,34.103701]},"properties":{"NCESSCH":"450069000002","LEAID":"4500690","NAME":"John C. Calhoun Elementary","STATE":"SC","CITY":"Calhoun Falls","ZIP":"29628","CNTY":"45001","NMCNTY":"Abbeville County","LOCALE":"42","SCHOOLYEAR":"2024-2025"}},{"type":"Feature","geometry":{"type":"Point","coordinates":[-82.40279,34.186493]},"properties":{"NCESSCH":"450069000010","LEAID":"4500690","NAME":"Wright Middle","STATE":"SC","CITY":"Abbeville","ZIP":"29620","CNTY":"45001","NMCNTY":"Abbeville County","LOCALE":"32","SCHOOLYEAR":"2024-2025"}},{"type":"Feature","geometry":{"type":"Point","coordinates":[-82.374457,34.187425]},"properties":{"NCESSCH":"450069000011","LEAID":"4500690","NAME":"Abbeville High","STATE":"SC","CITY":"Abbeville","ZIP":"29620","CNTY":"45001","NMCNTY":"Abbeville County","LOCALE":"32","SCHOOLYEAR":"2024-2025"}},{"type":"Feature","geometry":{"type":"Point","coordinates":[-82.388343,34.327491]},"properties":{"NCESSCH":"450069000012","LEAID":"4500690","NAME":"Dixie High","STATE":"SC","CITY":"Due West","ZIP":"29639","CNTY":"45001","NMCNTY":"Abbeville County","LOCALE":"42","SCHOOLYEAR":"2024-2025"}},{"type":"Feature","geometry":{"type":"Point","coordinates":[-82.355559,34.364107]},"properties":{"NCESSCH":"450069000065","LEAID":"4500690","NAME":"Cherokee Trail Elementary","STATE":"SC","CITY":"Donalds","ZIP":"29638","CNTY":"45001","NMCNTY":"Abbeville County","LOCALE":"42","SCHOOLYEAR":"2024-2025"}},{"type":"Feature","geometry":{"type":"Point","coordinates":[-82.564823,34.255882]},"properties":{"NCESSCH":"450069000066","LEAID":"4500690","NAME":"Diamond Hill Elementary","STATE":"SC","CITY":"Abbeville","ZIP":"29620","CNTY":"45001","NMCNTY":"Abbeville County","LOCALE":"42","SCHOOLYEAR":"2024-2025"}},{"type":"Feature","geometry":{"type":"Point","coordinates":[-82.351847,34.187266]},"properties":{"NCESSCH":"450069000071","LEAID":"4500690","NAME":"Long Cane Primary","STATE":"SC","CITY":"Abbeville","ZIP":"29620","CNTY":"45001","NMCNTY":"Abbeville County","LOCALE":"32","SCHOOLYEAR":"2024-2025"}},{"type":"Feature","geometry":{"type":"Point","coordinates":[-82.41277,34.166861]},"properties":{"NCESSCH":"450069001188","LEAID":"4500690","NAME":"Abbeville County Career Center","STATE":"SC","CITY":"Abbeville","ZIP":"29620","CNTY":"45001","NMCNTY":"Abbeville County","LOCALE":"41","SCHOOLYEAR":"2024-2025"}},{"type":"Feature","geometry":{"type":"Point","coordinates":[-82.398414,34.158269]},"properties":{"NCESSCH":"450069001379","LEAID":"4500690","NAME":"Westwood Elementary","STATE":"SC","CITY":"Abbeville","ZIP":"29620","CNTY":"45001","NMCNTY":"Abbeville County","LOCALE":"41","SCHOOLYEAR":"2024-2025"}},{"type":"Feature","geometry":{"type":"Point","coordinates":[-81.937441,33.527735]},"properties":{"NCESSCH":"450072000016","LEAID":"4500720","NAME":"Belvedere Elementary","STATE":"SC","CITY":"Belvedere","ZIP":"29841","CNTY":"45003","NMCNTY":"Aiken County","LOCALE":"21","SCHOOLYEAR":"2024-2025"}},{"type":"Feature","geometry":{"type":"Point","coordinates":[-81.829298,33.583283]},"properties":{"NCESSCH":"450072000018","LEAID":"4500720","NAME":"Byrd Elementary","STATE":"SC","CITY":"Graniteville","ZIP":"29829","CNTY":"45003","NMCNTY":"Aiken County","LOCALE":"41","SCHOOLYEAR":"2024-2025"}},{"type":"Feature","geometry":{"type":"Point","coordinates":[-81.67462,33.645648]},"properties":{"NCESSCH":"450072000019","LEAID":"4500720","NAME":"J. D. Lever Elementary","STATE":"SC","CITY":"Aiken","ZIP":"29801","CNTY":"45003","NMCNTY":"Aiken County","LOCALE":"41","SCHOOLYEAR":"2024-2025"}},{"type":"Feature","geometry":{"type":"Point","coordinates":[-81.896333,33.495691]},"properties":{"NCESSCH":"450072000020","LEAID":"4500720","NAME":"Clearwater Elementary","STATE":"SC","CITY":"Clearwater","ZIP":"29822","CNTY":"45003","NMCNTY":"Aiken County","LOCALE":"21","SCHOOLYEAR":"2024-2025"}},{"type":"Feature","geometry":{"type":"Point","coordinates":[-81.674386,33.55185]},"properties":{"NCESSCH":"450072000023","LEAID":"4500720","NAME":"East Aiken School of the Arts","STATE":"SC","CITY":"Aiken","ZIP":"29801","CNTY":"45003","NMCNTY":"Aiken County","LOCALE":"21","SCHOOLYEAR":"2024-2025"}},{"type":"Feature","geometry":{"type":"Point","coordinates":[-81.825199,33.523614]},"properties":{"NCESSCH":"450072000025","LEAID":"4500720","NAME":"Gloverville Elementary","STATE":"SC","CITY":"Gloverville","ZIP":"29828","CNTY":"45003","NMCNTY":"Aiken County","LOCALE":"21","SCHOOLYEAR":"2024-2025"}},{"type":"Feature","geometry":{"type":"Point","coordinates":[-81.677179,33.40759]},"properties":{"NCESSCH":"450072000026","LEAID":"4500720","NAME":"Greendale Elementary","STATE":"SC","CITY":"New Ellenton","ZIP":"29809","CNTY":"45003","NMCNTY":"Aiken County","LOCALE":"41","SCHOOLYEAR":"2024-2025"}},{"type":"Feature","geometry":{"type":"Point","coordinates":[-81.981257,33.510769]},"properties":{"NCESSCH":"450072000027","LEAID":"4500720","NAME":"Hammond Hill Elementary","STATE":"SC","CITY":"North Augusta","ZIP":"29841","CNTY":"45003","NMCNTY":"Aiken County","LOCALE":"21","SCHOOLYEAR":"2024-2025"}},{"type":"Feature","geometry":{"type":"Point","coordinates":[-81.714125,33.526747]},"properties":{"NCESSCH":"450072000030","LEAID":"4500720","NAME":"Millbrook Elementary","STATE":"SC","CITY":"Aiken","ZIP":"29803","CNTY":"45003","NMCNTY":"Aiken County","LOCALE":"21","SCHOOLYEAR":"2024-2025"}},{"type":"Feature","geometry":{"type":"Point","coordinates":[-81.69491,33.578973]},"properties":{"NCESSCH":"450072000031","LEAID":"4500720","NAME":"North Aiken Elementary","STATE":"SC","CITY":"Aiken","ZIP":"29801","CNTY":"45003","NMCNTY":"Aiken County","LOCALE":"21","SCHOOLYEAR":"2024-2025"}},{"type":"Feature","geometry":{"type":"Point","coordinates":[-81.96388,33.492819]},"properties":{"NCESSCH":"450072000032","LEAID":"4500720","NAME":"North Augusta Elementary","STATE":"SC","CITY":"North Augusta","ZIP":"29841","CNTY":"45003","NMCNTY":"Aiken County","LOCALE":"21","SCHOOLYEAR":"2024-2025"}},{"type":"Feature","geometry":{"type":"Point","coordinates":[-81.657571,33.851471]},"properties":{"NCESSCH":"450072000034","LEAID":"4500720","NAME":"Ridge Spring-Monetta Elementary","STATE":"SC","CITY":"Ridge Spring","ZIP":"29129","CNTY":"45081","NMCNTY":"Saluda County","LOCALE":"42","SCHOOLYEAR":"2024-2025"}},{"type":"Feature","geometry":{"type":"Point","coordinates":[-81.785725,33.524494]},"properties":{"NCESSCH":"450072000040","LEAID":"4500720","NAME":"Warrenville Elementary","STATE":"SC","CITY":"Warrenville","ZIP":"29851","CNTY":"45003","NMCNTY":"Aiken County","LOCALE":"21","SCHOOLYEAR":"2024-2025"}},{"type":"Feature","geometry":{"type":"Point","coordinates":[-81.713521,33.484897]},"properties":{"NCESSCH":"450072000045","LEAID":"4500720","NAME":"Chukker Creek Elementary","STATE":"SC","CITY":"Aiken","ZIP":"29803","CNTY":"45003","NMCNTY":"Aiken County","LOCALE":"21","SCHOOLYEAR":"2024-2025"}},{"type":"Feature","geometry":{"type":"Point","coordinates":[-81.713103,33.577682]},"properties":{"NCESSCH":"450072000046","LEAID":"4500720","NAME":"Aiken High","STATE":"SC","CITY":"Aiken","ZIP":"29801","CNTY":"45003","NMCNTY":"Aiken County","LOCALE":"21","SCHOOLYEAR":"2024-2025"}},{"type":"Feature","geometry":{"type":"Point","coordinates":[-81.970213,33.528766]},"properties":{"NCESSCH":"450072000050","LEAID":"4500720","NAME":"Paul Knox Middle","STATE":"SC","CITY":"North Augusta","ZIP":"29841","CNTY":"45003","NMCNTY":"Aiken County","LOCALE":"21","SCHOOLYEAR":"2024-2025"}},{"type":"Feature","geometry":{"type":"Point","coordinates":[-81.950208,33.499579]},"properties":{"NCESSCH":"450072000054","LEAID":"4500720","NAME":"North Augusta Middle","STATE":"SC","CITY":"North Augusta","ZIP":"29841","CNTY":"45003","NMCNTY":"Aiken County","LOCALE":"21","SCHOOLYEAR":"2024-2025"}},{"type":"Feature","geometry":{"type":"Point","coordinates":[-81.973389,33.536356]},"properties":{"NCESSCH":"450072000055","LEAID":"4500720","NAME":"North Augusta High","STATE":"SC","CITY":"North Augusta","ZIP":"29841","CNTY":"45003","NMCNTY":"Aiken County","LOCALE":"21","SCHOOLYEAR":"2024-2025"}},{"type":"Feature","geometry":{"type":"Point","coordinates":[-81.62361,33.823235]},"properties":{"NCESSCH":"450072000056","LEAID":"4500720","NAME":"Ridge Spring-Monetta Middle/ High","STATE":"SC","CITY":"Monetta","ZIP":"29105","CNTY":"45003","NMCNTY":"Aiken County","LOCALE":"42","SCHOOLYEAR":"2024-2025"}},{"type":"Feature","geometry":{"type":"Point","coordinates":[-81.369403,33.658011]},"properties":{"NCESSCH":"450072000057","LEAID":"4500720","NAME":"Wagener-Salley High","STATE":"SC","CITY":"Wagener","ZIP":"29164","CNTY":"45003","NMCNTY":"Aiken County","LOCALE":"42","SCHOOLYEAR":"2024-2025"}},{"type":"Feature","geometry":{"type":"Point","coordinates":[-81.843496,33.528246]},"properties":{"NCESSCH":"450072000058","LEAID":"4500720","NAME":"Aiken County Career Center","STATE":"SC","CITY":"Warrenville","ZIP":"29851","CNTY":"45003","NMCNTY":"Aiken County","LOCALE":"21","SCHOOLYEAR":"2024-2025"}},{"type":"Feature","geometry":{"type":"Point","coordinates":[-81.959762,33.541652]},"properties":{"NCESSCH":"450072001007","LEAID":"4500720","NAME":"Mossy Creek Elementary","STATE":"SC","CITY":"North Augusta","ZIP":"29841","CNTY":"45003","NMCNTY":"Aiken County","LOCALE":"21","SCHOOLYEAR":"2024-2025"}},{"type":"Feature","geometry":{"type":"Point","coordinates":[-81.76501,33.527753]},"properties":{"NCESSCH":"450072001189","LEAID":"4500720","NAME":"Aiken Elementary","STATE":"SC","CITY":"Aiken","ZIP":"29803","CNTY":"45003","NMCNTY":"Aiken County","LOCALE":"21","SCHOOLYEAR":"2024-2025"}},{"type":"Feature","geometry":{"type":"Point","coordinates":[-81.363963,33.659675]},"properties":{"NCESSCH":"450072001191","LEAID":"4500720","NAME":"Cyril B. Busbee Elementary","STATE":"SC","CITY":"Wagener","ZIP":"29164","CNTY":"45003","NMCNTY":"Aiken County","LOCALE":"42","SCHOOLYEAR":"2024-2025"}},{"type":"Feature","geometry":{"type":"Point","coordinates":[-81.864185,33.496455]},"properties":{"NCESSCH":"450072001193","LEAID":"4500720","NAME":"Jefferson Elementary","STATE":"SC","CITY":"Warrenville","ZIP":"29851","CNTY":"45003","NMCNTY":"Aiken County","LOCALE":"41","SCHOOLYEAR":"2024-2025"}},{"type":"Feature","geometry":{"type":"Point","coordinates":[-81.865897,33.503114]},"properties":{"NCESSCH":"450072001194","LEAID":"4500720","NAME":"Langley-Bath-Clearwater Middle","STATE":"SC","CITY":"Warrenville","ZIP":"29851","CNTY":"45003","NMCNTY":"Aiken County","LOCALE":"41","SCHOOLYEAR":"2024-2025"}},{"type":"Feature","geometry":{"type":"Point","coordinates":[-81.833564,33.582733]},"properties":{"NCESSCH":"450072001196","LEAID":"4500720","NAME":"Leavelle McCampbell Middle","STATE":"SC","CITY":"Graniteville","ZIP":"29829","CNTY":"45003","NMCNTY":"Aiken County","LOCALE":"41","SCHOOLYEAR":"2024-2025"}},{"type":"Feature","geometry":{"type":"Point","coordinates":[-81.714374,33.524498]},"properties":{"NCESSCH":"450072001197","LEAID":"4500720","NAME":"M. B. Kennedy Middle","STATE":"SC","CITY":"Aiken","ZIP":"29803","CNTY":"45003","NMCNTY":"Aiken County","LOCALE":"21","SCHOOLYEAR":"2024-2025"}},{"type":"Feature","geometry":{"type":"Point","coordinates":[-81.86587,33.525529]},"properties":{"NCESSCH":"450072001198","LEAID":"4500720","NAME":"Midland Valley High","STATE":"SC","CITY":"Graniteville","ZIP":"29829","CNTY":"45003","NMCNTY":"Aiken County","LOCALE":"21","SCHOOLYEAR":"2024-2025"}},{"type":"Feature","geometry":{"type":"Point","coordinates":[-81.685829,33.399944]},"properties":{"NCESSCH":"450072001199","LEAID":"4500720","NAME":"New Ellenton STEAM Magnet Middle","STATE":"SC","CITY":"New Ellenton","ZIP":"29809","CNTY":"45003","NMCNTY":"Aiken County","LOCALE":"42","SCHOOLYEAR":"2024-2025"}},{"type":"Feature","geometry":{"type":"Point","coordinates":[-81.575553,33.516071]},"properties":{"NCESSCH":"450072001200","LEAID":"4500720","NAME":"Oakwood-Windsor Elementary","STATE":"SC","CITY":"Aiken","ZIP":"29801","CNTY":"45003","NMCNTY":"Aiken County","LOCALE":"41","SCHOOLYEAR":"2024-2025"}},{"type":"Feature","geometry":{"type":"Point","coordinates":[-81.710619,33.561027]},"properties":{"NCESSCH":"450072001201","LEAID":"4500720","NAME":"Schofield Middle","STATE":"SC","CITY":"Aiken","ZIP":"29801","CNTY":"45003","NMCNTY":"Aiken County","LOCALE":"21","SCHOOLYEAR":"2024-2025"}},{"type":"Feature","geometry":{"type":"Point","coordinates":[-81.71303,33.521766]},"properties":{"NCESSCH":"450072001202","LEAID":"4500720","NAME":"South Aiken High","STATE":"SC","CITY":"Aiken","ZIP":"29803","CNTY":"45003","NMCNTY":"Aiken County","LOCALE":"21","SCHOOLYEAR":"2024-2025"}},{"type":"Feature","geometry":{"type":"Point","coordinates":[-81.791961,33.341598]},"properties":{"NCESSCH":"450072001321","LEAID":"4500720","NAME":"Jackson STEM Middle","STATE":"SC","CITY":"Jackson","ZIP":"29831","CNTY":"45003","NMCNTY":"Aiken County","LOCALE":"42","SCHOOLYEAR":"2024-2025"}},{"type":"Feature","geometry":{"type":"Point","coordinates":[-81.759545,33.394734]},"properties":{"NCESSCH":"450072001323","LEAID":"4500720","NAME":"Silver Bluff High","STATE":"SC","CITY":"Aiken","ZIP":"29803","CNTY":"45003","NMCNTY":"Aiken County","LOCALE":"41","SCHOOLYEAR":"2024-2025"}},{"type":"Feature","geometry":{"type":"Point","coordinates":[-81.821347,33.374724]},"properties":{"NCESSCH":"450072001390","LEAID":"4500720","NAME":"Redcliffe Elementary","STATE":"SC","CITY":"Aiken","ZIP":"29803","CNTY":"45003","NMCNTY":"Aiken County","LOCALE":"41","SCHOOLYEAR":"2024-2025"}},{"type":"Feature","geometry":{"type":"Point","coordinates":[-81.365361,33.659364]},"properties":{"NCESSCH":"450072001702","LEAID":"4500720","NAME":"A. L. Corbett Middle","STATE":"SC","CITY":"Wagener","ZIP":"29164","CNTY":"45003","NMCNTY":"Aiken County","LOCALE":"42","SCHOOLYEAR":"2024-2025"}},{"type":"Feature","geometry":{"type":"Point","coordinates":[-81.767604,33.572723]},"properties":{"NCESSCH":"450072001708","LEAID":"4500720","NAME":"Aiken Scholars Academy","STATE":"SC","CITY":"Aiken","ZIP":"29801","CNTY":"45003","NMCNTY":"Aiken County","LOCALE":"21","SCHOOLYEAR":"2024-2025"}},{"type":"Feature","geometry":{"type":"Point","coordinates":[-81.692359,33.578298]},"properties":{"NCESSCH":"450072001727","LEAID":"4500720","NAME":"Aiken Intermediate","STATE":"SC","CITY":"Aiken","ZIP":"29801","CNTY":"45003","NMCNTY":"Aiken County","LOCALE":"21","SCHOOLYEAR":"2024-2025"}},{"type":"Feature","geometry":{"type":"Point","coordinates":[-81.817089,33.571088]},"properties":{"NCESSCH":"450072001729","LEAID":"4500720","NAME":"Graniteville Elementary","STATE":"SC","CITY":"Graniteville","ZIP":"29829","CNTY":"45003","NMCNTY":"Aiken County","LOCALE":"41","SCHOOLYEAR":"2024-2025"}},{"type":"Feature","geometry":{"type":"Point","coordinates":[-81.914165,33.527829]},"properties":{"NCESSCH":"450072001775","LEAID":"4500720","NAME":"Highland Springs Middle","STATE":"SC","CITY":"North Augusta","ZIP":"29841","CNTY":"45003","NMCNTY":"Aiken County","LOCALE":"41","SCHOOLYEAR":"2024-2025"}},{"type":"Feature","geometry":{"type":"Point","coordinates":[-81.282398,32.988798]},"properties":{"NCESSCH":"450075000064","LEAID":"4500750","NAME":"Allendale-Fairfax High","STATE":"SC","CITY":"Fairfax","ZIP":"29827","CNTY":"45005","NMCNTY":"Allendale County","LOCALE":"43","SCHOOLYEAR":"2024-2025"}},{"type":"Feature","geometry":{"type":"Point","coordinates":[-81.272828,32.982458]},"properties":{"NCESSCH":"450075001184","LEAID":"4500750","NAME":"Allendale-Fairfax Elementary","STATE":"SC","CITY":"Fairfax","ZIP":"29827","CNTY":"45005","NMCNTY":"Allendale County","LOCALE":"43","SCHOOLYEAR":"2024-2025"}},{"type":"Feature","geometry":{"type":"Point","coordinates":[-81.282398,32.988798]},"properties":{"NCESSCH":"450075001415","LEAID":"4500750","NAME":"Allendale-Fairfax Middle","STATE":"SC","CITY":"Fairfax","ZIP":"29827","CNTY":"45005","NMCNTY":"Allendale County","LOCALE":"43","SCHOOLYEAR":"2024-2025"}},{"type":"Feature","geometry":{"type":"Point","coordinates":[-82.500284,34.605098]},"properties":{"NCESSCH":"450076001380","LEAID":"4500760","NAME":"Career and Technology Center of Anderson 1 & 2","STATE":"SC","CITY":"Williamston","ZIP":"29697","CNTY":"45007","NMCNTY":"Anderson County","LOCALE":"41","SCHOOLYEAR":"2024-2025"}},{"type":"Feature","geometry":{"type":"Point","coordinates":[-82.496504,34.59276]},"properties":{"NCESSCH":"450078000067","LEAID":"4500780","NAME":"Cedar Grove Elementary","STATE":"SC","CITY":"Williamston","ZIP":"29697","CNTY":"45007","NMCNTY":"Anderson County","LOCALE":"41","SCHOOLYEAR":"2024-2025"}},{"type":"Feature","geometry":{"type":"Point","coordinates":[-82.489778,34.78171]},"properties":{"NCESSCH":"450078000068","LEAID":"4500780","NAME":"Concrete Primary","STATE":"SC","CITY":"Easley","ZIP":"29642","CNTY":"45007","NMCNTY":"Anderson County","LOCALE":"21","SCHOOLYEAR":"2024-2025"}},{"type":"Feature","geometry":{"type":"Point","coordinates":[-82.480914,34.645625]},"properties":{"NCESSCH":"450078000070","LEAID":"4500780","NAME":"West Pelzer Elementary","STATE":"SC","CITY":"West Pelzer","ZIP":"29669","CNTY":"45007","NMCNTY":"Anderson County","LOCALE":"31","SCHOOLYEAR":"2024-2025"}},{"type":"Feature","geometry":{"type":"Point","coordinates":[-82.547412,34.681377]},"properties":{"NCESSCH":"450078000072","LEAID":"4500780","NAME":"Spearman Elementary","STATE":"SC","CITY":"Piedmont","ZIP":"29673","CNTY":"45007","NMCNTY":"Anderson County","LOCALE":"41","SCHOOLYEAR":"2024-2025"}},{"type":"Feature","geometry":{"type":"Point","coordinates":[-82.479523,34.631275]},"properties":{"NCESSCH":"450078000074","LEAID":"4500780","NAME":"Palmetto Middle","STATE":"SC","CITY":"Williamston","ZIP":"29697","CNTY":"45007","NMCNTY":"Anderson County","LOCALE":"31","SCHOOLYEAR":"2024-2025"}},{"type":"Feature","geometry":{"type":"Point","coordinates":[-82.476987,34.632052]},"properties":{"NCESSCH":"450078000076","LEAID":"4500780","NAME":"Palmetto High","STATE":"SC","CITY":"Williamston","ZIP":"29697","CNTY":"45007","NMCNTY":"Anderson County","LOCALE":"31","SCHOOLYEAR":"2024-2025"}},{"type":"Feature","geometry":{"type":"Point","coordinates":[-82.545469,34.721781]},"properties":{"NCESSCH":"450078000077","LEAID":"4500780","NAME":"Wren High","STATE":"SC","CITY":"Piedmont","ZIP":"29673","CNTY":"45007","NMCNTY":"Anderson County","LOCALE":"41","SCHOOLYEAR":"2024-2025"}},{"type":"Feature","geometry":{"type":"Point","coordinates":[-82.574762,34.756069]},"properties":{"NCESSCH":"450078000545","LEAID":"4500780","NAME":"Hunt Meadows Elementary","STATE":"SC","CITY":"Easley","ZIP":"29642","CNTY":"45007","NMCNTY":"Anderson County","LOCALE":"41","SCHOOLYEAR":"2024-2025"}},{"type":"Feature","geometry":{"type":"Point","coordinates":[-82.488307,34.797842]},"properties":{"NCESSCH":"450078000686","LEAID":"4500780","NAME":"Powdersville Elementary","STATE":"SC","CITY":"Greenville","ZIP":"29611","CNTY":"45007","NMCNTY":"Anderson County","LOCALE":"21","SCHOOLYEAR":"2024-2025"}},{"type":"Feature","geometry":{"type":"Point","coordinates":[-82.544922,34.72458]},"properties":{"NCESSCH":"450078001203","LEAID":"4500780","NAME":"Wren Middle","STATE":"SC","CITY":"Piedmont","ZIP":"29673","CNTY":"45007","NMCNTY":"Anderson County","LOCALE":"41","SCHOOLYEAR":"2024-2025"}},{"type":"Feature","geometry":{"type":"Point","coordinates":[-82.473549,34.630317]},"properties":{"NCESSCH":"450078001324","LEAID":"4500780","NAME":"Palmetto Elementary","STATE":"SC","CITY":"Williamston","ZIP":"29697","CNTY":"45007","NMCNTY":"Anderson County","LOCALE":"31","SCHOOLYEAR":"2024-2025"}},{"type":"Feature","geometry":{"type":"Point","coordinates":[-82.545904,34.718988]},"properties":{"NCESSCH":"450078001325","LEAID":"4500780","NAME":"Wren Elementary","STATE":"SC","CITY":"Piedmont","ZIP":"29673","CNTY":"45007","NMCNTY":"Anderson County","LOCALE":"41","SCHOOLYEAR":"2024-2025"}},{"type":"Feature","geometry":{"type":"Point","coordinates":[-82.488774,34.796215]},"properties":{"NCESSCH":"450078001444","LEAID":"4500780","NAME":"Powdersville Middle","STATE":"SC","CITY":"Greenville","ZIP":"29611","CNTY":"45007","NMCNTY":"Anderson County","LOCALE":"21","SCHOOLYEAR":"2024-2025"}},{"type":"Feature","geometry":{"type":"Point","coordinates":[-82.486992,34.801067]},"properties":{"NCESSCH":"450078001567","LEAID":"4500780","NAME":"Powdersville High","STATE":"SC","CITY":"Greenville","ZIP":"29611","CNTY":"45007","NMCNTY":"Anderson County","LOCALE":"21","SCHOOLYEAR":"2024-2025"}},{"type":"Feature","geometry":{"type":"Point","coordinates":[-82.494484,34.515502]},"properties":{"NCESSCH":"450081000078","LEAID":"4500810","NAME":"Belton Elementary","STATE":"SC","CITY":"Belton","ZIP":"29627","CNTY":"45007","NMCNTY":"Anderson County","LOCALE":"31","SCHOOLYEAR":"2024-2025"}},{"type":"Feature","geometry":{"type":"Point","coordinates":[-82.502731,34.523119]},"properties":{"NCESSCH":"450081000079","LEAID":"4500810","NAME":"Marshall Primary","STATE":"SC","CITY":"Belton","ZIP":"29627","CNTY":"45007","NMCNTY":"Anderson County","LOCALE":"31","SCHOOLYEAR":"2024-2025"}},{"type":"Feature","geometry":{"type":"Point","coordinates":[-82.381165,34.445072]},"properties":{"NCESSCH":"450081000080","LEAID":"4500810","NAME":"Honea Path Elementary","STATE":"SC","CITY":"Honea Path","ZIP":"29654","CNTY":"45007","NMCNTY":"Anderson County","LOCALE":"42","SCHOOLYEAR":"2024-2025"}},{"type":"Feature","geometry":{"type":"Point","coordinates":[-82.528312,34.398738]},"properties":{"NCESSCH":"450081000081","LEAID":"4500810","NAME":"Wright Elementary","STATE":"SC","CITY":"Belton","ZIP":"29627","CNTY":"45007","NMCNTY":"Anderson County","LOCALE":"41","SCHOOLYEAR":"2024-2025"}},{"type":"Feature","geometry":{"type":"Point","coordinates":[-82.443982,34.473593]},"properties":{"NCESSCH":"450081000084","LEAID":"4500810","NAME":"Belton Honea Path High","STATE":"SC","CITY":"Honea Path","ZIP":"29654","CNTY":"45007","NMCNTY":"Anderson County","LOCALE":"42","SCHOOLYEAR":"2024-2025"}},{"type":"Feature","geometry":{"type":"Point","coordinates":[-82.510247,34.513918]},"properties":{"NCESSCH":"450081001204","LEAID":"4500810","NAME":"Belton Middle","STATE":"SC","CITY":"Belton","ZIP":"29627","CNTY":"45007","NMCNTY":"Anderson County","LOCALE":"31","SCHOOLYEAR":"2024-2025"}},{"type":"Feature","geometry":{"type":"Point","coordinates":[-82.398455,34.448429]},"properties":{"NCESSCH":"450081001205","LEAID":"4500810","NAME":"Honea Path Middle","STATE":"SC","CITY":"Honea Path","ZIP":"29654","CNTY":"45007","NMCNTY":"Anderson County","LOCALE":"42","SCHOOLYEAR":"2024-2025"}},{"type":"Feature","geometry":{"type":"Point","coordinates":[-82.646005,34.312168]},"properties":{"NCESSCH":"450084000086","LEAID":"4500840","NAME":"Iva Elementary","STATE":"SC","CITY":"Iva","ZIP":"29655","CNTY":"45007","NMCNTY":"Anderson County","LOCALE":"42","SCHOOLYEAR":"2024-2025"}},{"type":"Feature","geometry":{"type":"Point","coordinates":[-82.694861,34.385122]},"properties":{"NCESSCH":"450084000087","LEAID":"4500840","NAME":"Starr Elementary","STATE":"SC","CITY":"Starr","ZIP":"29684","CNTY":"45007","NMCNTY":"Anderson County","LOCALE":"41","SCHOOLYEAR":"2024-2025"}},{"type":"Feature","geometry":{"type":"Point","coordinates":[-82.72611,34.382732]},"properties":{"NCESSCH":"450084000088","LEAID":"4500840","NAME":"Starr-Iva Middle","STATE":"SC","CITY":"Starr","ZIP":"29684","CNTY":"45007","NMCNTY":"Anderson County","LOCALE":"41","SCHOOLYEAR":"2024-2025"}},{"type":"Feature","geometry":{"type":"Point","coordinates":[-82.688823,34.340135]},"properties":{"NCESSCH":"450084000089","LEAID":"4500840","NAME":"Crescent High","STATE":"SC","CITY":"Iva","ZIP":"29655","CNTY":"45007","NMCNTY":"Anderson County","LOCALE":"42","SCHOOLYEAR":"2024-2025"}},{"type":"Feature","geometry":{"type":"Point","coordinates":[-82.64232,34.408568]},"properties":{"NCESSCH":"450084001506","LEAID":"4500840","NAME":"Flat Rock Elementary","STATE":"SC","CITY":"Anderson","ZIP":"29624","CNTY":"45007","NMCNTY":"Anderson County","LOCALE":"41","SCHOOLYEAR":"2024-2025"}},{"type":"Feature","geometry":{"type":"Point","coordinates":[-82.76485,34.61345]},"properties":{"NCESSCH":"450087000090","LEAID":"4500870","NAME":"La France Elementary","STATE":"SC","CITY":"Pendleton","ZIP":"29670","CNTY":"45007","NMCNTY":"Anderson County","LOCALE":"22","SCHOOLYEAR":"2024-2025"}},{"type":"Feature","geometry":{"type":"Point","coordinates":[-82.768638,34.65549]},"properties":{"NCESSCH":"450087000091","LEAID":"4500870","NAME":"Pendleton Elementary","STATE":"SC","CITY":"Pendleton","ZIP":"29670","CNTY":"45007","NMCNTY":"Anderson County","LOCALE":"22","SCHOOLYEAR":"2024-2025"}},{"type":"Feature","geometry":{"type":"Point","coordinates":[-82.903356,34.563258]},"properties":{"NCESSCH":"450087000092","LEAID":"4500870","NAME":"Townville Elementary","STATE":"SC","CITY":"Townville","ZIP":"29689","CNTY":"45007","NMCNTY":"Anderson County","LOCALE":"41","SCHOOLYEAR":"2024-2025"}},{"type":"Feature","geometry":{"type":"Point","coordinates":[-82.783812,34.612809]},"properties":{"NCESSCH":"450087000094","LEAID":"4500870","NAME":"Pendleton High","STATE":"SC","CITY":"Anderson","ZIP":"29625","CNTY":"45007","NMCNTY":"Anderson County","LOCALE":"41","SCHOOLYEAR":"2024-2025"}},{"type":"Feature","geometry":{"type":"Point","coordinates":[-82.796031,34.65471]},"properties":{"NCESSCH":"450087001326","LEAID":"4500870","NAME":"Riverside Middle","STATE":"SC","CITY":"Pendleton","ZIP":"29670","CNTY":"45007","NMCNTY":"Anderson County","LOCALE":"22","SCHOOLYEAR":"2024-2025"}},{"type":"Feature","geometry":{"type":"Point","coordinates":[-82.699635,34.603821]},"properties":{"NCESSCH":"450087001492","LEAID":"4500870","NAME":"Mt. Lebanon Elementary","STATE":"SC","CITY":"Pendleton","ZIP":"29670","CNTY":"45007","NMCNTY":"Anderson County","LOCALE":"41","SCHOOLYEAR":"2024-2025"}},{"type":"Feature","geometry":{"type":"Point","coordinates":[-82.707576,34.528032]},"properties":{"NCESSCH":"450090000096","LEAID":"4500900","NAME":"Centerville Elementary","STATE":"SC","CITY":"Anderson","ZIP":"29625","CNTY":"45007","NMCNTY":"Anderson County","LOCALE":"22","SCHOOLYEAR":"2024-2025"}},{"type":"Feature","geometry":{"type":"Point","coordinates":[-82.657372,34.536298]},"properties":{"NCESSCH":"450090000097","LEAID":"4500900","NAME":"Concord Elementary","STATE":"SC","CITY":"Anderson","ZIP":"29621","CNTY":"45007","NMCNTY":"Anderson County","LOCALE":"13","SCHOOLYEAR":"2024-2025"}},{"type":"Feature","geometry":{"type":"Point","coordinates":[-82.656323,34.462367]},"properties":{"NCESSCH":"450090000099","LEAID":"4500900","NAME":"Homeland Park Primary","STATE":"SC","CITY":"Anderson","ZIP":"29624","CNTY":"45007","NMCNTY":"Anderson County","LOCALE":"22","SCHOOLYEAR":"2024-2025"}},{"type":"Feature","geometry":{"type":"Point","coordinates":[-82.602107,34.493199]},"properties":{"NCESSCH":"450090000101","LEAID":"4500900","NAME":"Nevitt Forest Elementary","STATE":"SC","CITY":"Anderson","ZIP":"29621","CNTY":"45007","NMCNTY":"Anderson County","LOCALE":"13","SCHOOLYEAR":"2024-2025"}},{"type":"Feature","geometry":{"type":"Point","coordinates":[-82.681986,34.469678]},"properties":{"NCESSCH":"450090000103","LEAID":"4500900","NAME":"Varennes Elementary","STATE":"SC","CITY":"Anderson","ZIP":"29626","CNTY":"45007","NMCNTY":"Anderson County","LOCALE":"22","SCHOOLYEAR":"2024-2025"}},{"type":"Feature","geometry":{"type":"Point","coordinates":[-82.679298,34.530447]},"properties":{"NCESSCH":"450090000106","LEAID":"4500900","NAME":"Whitehall Elementary","STATE":"SC","CITY":"Anderson","ZIP":"29625","CNTY":"45007","NMCNTY":"Anderson County","LOCALE":"13","SCHOOLYEAR":"2024-2025"}},{"type":"Feature","geometry":{"type":"Point","coordinates":[-82.625132,34.523719]},"properties":{"NCESSCH":"450090000107","LEAID":"4500900","NAME":"Calhoun Academy of the Arts","STATE":"SC","CITY":"Anderson","ZIP":"29621","CNTY":"45007","NMCNTY":"Anderson County","LOCALE":"13","SCHOOLYEAR":"2024-2025"}},{"type":"Feature","geometry":{"type":"Point","coordinates":[-82.623533,34.567223]},"properties":{"NCESSCH":"450090000108","LEAID":"4500900","NAME":"T. L. Hanna High","STATE":"SC","CITY":"Anderson","ZIP":"29621","CNTY":"45007","NMCNTY":"Anderson County","LOCALE":"22","SCHOOLYEAR":"2024-2025"}},{"type":"Feature","geometry":{"type":"Point","coordinates":[-82.630467,34.529547]},"properties":{"NCESSCH":"450090000110","LEAID":"4500900","NAME":"McCants Middle","STATE":"SC","CITY":"Anderson","ZIP":"29621","CNTY":"45007","NMCNTY":"Anderson County","LOCALE":"13","SCHOOLYEAR":"2024-2025"}},{"type":"Feature","geometry":{"type":"Point","coordinates":[-82.689659,34.517665]},"properties":{"NCESSCH":"450090000113","LEAID":"4500900","NAME":"Westside High","STATE":"SC","CITY":"Anderson","ZIP":"29625","CNTY":"45007","NMCNTY":"Anderson County","LOCALE":"22","SCHOOLYEAR":"2024-2025"}},{"type":"Feature","geometry":{"type":"Point","coordinates":[-82.615606,34.559684]},"properties":{"NCESSCH":"450090000687","LEAID":"4500900","NAME":"Midway Elementary","STATE":"SC","CITY":"Anderson","ZIP":"29621","CNTY":"45007","NMCNTY":"Anderson County","LOCALE":"22","SCHOOLYEAR":"2024-2025"}},{"type":"Feature","geometry":{"type":"Point","coordinates":[-82.749293,34.478514]},"properties":{"NCESSCH":"450090000690","LEAID":"4500900","NAME":"McLees Elementary","STATE":"SC","CITY":"Anderson","ZIP":"29626","CNTY":"45007","NMCNTY":"Anderson County","LOCALE":"41","SCHOOLYEAR":"2024-2025"}},{"type":"Feature","geometry":{"type":"Point","coordinates":[-82.704312,34.507079]},"properties":{"NCESSCH":"450090001206","LEAID":"4500900","NAME":"New Prospect Elementary","STATE":"SC","CITY":"Anderson","ZIP":"29625","CNTY":"45007","NMCNTY":"Anderson County","LOCALE":"22","SCHOOLYEAR":"2024-2025"}},{"type":"Feature","geometry":{"type":"Point","coordinates":[-82.683108,34.496994]},"properties":{"NCESSCH":"450090001515","LEAID":"4500900","NAME":"West Market School of Early Education","STATE":"SC","CITY":"Anderson","ZIP":"29626","CNTY":"45007","NMCNTY":"Anderson County","LOCALE":"22","SCHOOLYEAR":"2024-2025"}},{"type":"Feature","geometry":{"type":"Point","coordinates":[-82.689022,34.494784]},"properties":{"NCESSCH":"450090001573","LEAID":"4500900","NAME":"Robert Anderson Middle","STATE":"SC","CITY":"Anderson","ZIP":"29625","CNTY":"45007","NMCNTY":"Anderson County","LOCALE":"22","SCHOOLYEAR":"2024-2025"}},{"type":"Feature","geometry":{"type":"Point","coordinates":[-82.662153,34.490179]},"properties":{"NCESSCH":"450090001574","LEAID":"4500900","NAME":"Southwood Academy for the Arts","STATE":"SC","CITY":"Anderson","ZIP":"29624","CNTY":"45007","NMCNTY":"Anderson County","LOCALE":"13","SCHOOLYEAR":"2024-2025"}},{"type":"Feature","geometry":{"type":"Point","coordinates":[-82.605904,34.543257]},"properties":{"NCESSCH":"450090001575","LEAID":"4500900","NAME":"Glenview Middle","STATE":"SC","CITY":"Anderson","ZIP":"29621","CNTY":"45007","NMCNTY":"Anderson County","LOCALE":"22","SCHOOLYEAR":"2024-2025"}},{"type":"Feature","geometry":{"type":"Point","coordinates":[-82.623862,34.581688]},"properties":{"NCESSCH":"450090001576","LEAID":"4500900","NAME":"North Pointe Elementary","STATE":"SC","CITY":"Anderson","ZIP":"29621","CNTY":"45007","NMCNTY":"Anderson County","LOCALE":"22","SCHOOLYEAR":"2024-2025"}},{"type":"Feature","geometry":{"type":"Point","coordinates":[-82.645751,34.494473]},"properties":{"NCESSCH":"450090001602","LEAID":"4500900","NAME":"Anderson  Five Charter School","STATE":"SC","CITY":"Anderson","ZIP":"29624","CNTY":"45007","NMCNTY":"Anderson County","LOCALE":"13","SCHOOLYEAR":"2024-2025"}},{"type":"Feature","geometry":{"type":"Point","coordinates":[-81.268054,33.367843]},"properties":{"NCESSCH":"450108000124","LEAID":"4501080","NAME":"Macedonia Elementary-Middle","STATE":"SC","CITY":"Blackville","ZIP":"29817","CNTY":"45011","NMCNTY":"Barnwell County","LOCALE":"42","SCHOOLYEAR":"2024-2025"}},{"type":"Feature","geometry":{"type":"Point","coordinates":[-81.264709,33.364522]},"properties":{"NCESSCH":"450108000126","LEAID":"4501080","NAME":"Blackville-Hilda High","STATE":"SC","CITY":"Blackville","ZIP":"29817","CNTY":"45011","NMCNTY":"Barnwell County","LOCALE":"42","SCHOOLYEAR":"2024-2025"}},{"type":"Feature","geometry":{"type":"Point","coordinates":[-81.344116,33.317294]},"properties":{"NCESSCH":"450108000127","LEAID":"4501080","NAME":"Barnwell County Career Center","STATE":"SC","CITY":"Blackville","ZIP":"29817","CNTY":"45011","NMCNTY":"Barnwell County","LOCALE":"42","SCHOOLYEAR":"2024-2025"}},{"type":"Feature","geometry":{"type":"Point","coordinates":[-81.406009,33.399521]},"properties":{"NCESSCH":"450108000128","LEAID":"4501080","NAME":"Kelly Edwards Elementary","STATE":"SC","CITY":"Williston","ZIP":"29853","CNTY":"45011","NMCNTY":"Barnwell County","LOCALE":"42","SCHOOLYEAR":"2024-2025"}},{"type":"Feature","geometry":{"type":"Point","coordinates":[-81.41203,33.395544]},"properties":{"NCESSCH":"450108000129","LEAID":"4501080","NAME":"Williston-Elko High","STATE":"SC","CITY":"Williston","ZIP":"29853","CNTY":"45011","NMCNTY":"Barnwell County","LOCALE":"42","SCHOOLYEAR":"2024-2025"}},{"type":"Feature","geometry":{"type":"Point","coordinates":[-81.356235,33.239307]},"properties":{"NCESSCH":"450108000130","LEAID":"4501080","NAME":"Barnwell Primary","STATE":"SC","CITY":"Barnwell","ZIP":"29812","CNTY":"45011","NMCNTY":"Barnwell County","LOCALE":"42","SCHOOLYEAR":"2024-2025"}},{"type":"Feature","geometry":{"type":"Point","coordinates":[-81.353272,33.247392]},"properties":{"NCESSCH":"450108000131","LEAID":"4501080","NAME":"Guinyard-Butler Middle","STATE":"SC","CITY":"Barnwell","ZIP":"29812","CNTY":"45011","NMCNTY":"Barnwell County","LOCALE":"42","SCHOOLYEAR":"2024-2025"}},{"type":"Feature","geometry":{"type":"Point","coordinates":[-81.359182,33.228499]},"properties":{"NCESSCH":"450108000132","LEAID":"4501080","NAME":"Barnwell High","STATE":"SC","CITY":"Barnwell","ZIP":"29812","CNTY":"45011","NMCNTY":"Barnwell County","LOCALE":"42","SCHOOLYEAR":"2024-2025"}},{"type":"Feature","geometry":{"type":"Point","coordinates":[-81.354862,33.254828]},"properties":{"NCESSCH":"450108001163","LEAID":"4501080","NAME":"Barnwell Elementary","STATE":"SC","CITY":"Barnwell","ZIP":"29812","CNTY":"45011","NMCNTY":"Barnwell County","LOCALE":"42","SCHOOLYEAR":"2024-2025"}},{"type":"Feature","geometry":{"type":"Point","coordinates":[-81.413656,33.396543]},"properties":{"NCESSCH":"450108001327","LEAID":"4501080","NAME":"Williston-Elko Middle","STATE":"SC","CITY":"Williston","ZIP":"29853","CNTY":"45011","NMCNTY":"Barnwell County","LOCALE":"42","SCHOOLYEAR":"2024-2025"}},{"type":"Feature","geometry":{"type":"Point","coordinates":[-80.921671,32.35341]},"properties":{"NCESSCH":"450110000152","LEAID":"4501100","NAME":"Beaufort-Jasper Academy for Career Excellence","STATE":"SC","CITY":"Ridgeland","ZIP":"29936","CNTY":"45053","NMCNTY":"Jasper County","LOCALE":"41","SCHOOLYEAR":"2024-2025"}},{"type":"Feature","geometry":{"type":"Point","coordinates":[-80.795397,32.454336]},"properties":{"NCESSCH":"450111000047","LEAID":"4501110","NAME":"Joseph S. Shanklin Elementary","STATE":"SC","CITY":"Beaufort","ZIP":"29906","CNTY":"45013","NMCNTY":"Beaufort County","LOCALE":"41","SCHOOLYEAR":"2024-2025"}},{"type":"Feature","geometry":{"type":"Point","coordinates":[-80.682526,32.434149]},"properties":{"NCESSCH":"450111000135","LEAID":"4501110","NAME":"Beaufort Elementary","STATE":"SC","CITY":"Beaufort","ZIP":"29902","CNTY":"45013","NMCNTY":"Beaufort County","LOCALE":"13","SCHOOLYEAR":"2024-2025"}},{"type":"Feature","geometry":{"type":"Point","coordinates":[-80.756013,32.421595]},"properties":{"NCESSCH":"450111000136","LEAID":"4501110","NAME":"Broad River Elementary","STATE":"SC","CITY":"Beaufort","ZIP":"29906","CNTY":"45013","NMCNTY":"Beaufort County","LOCALE":"23","SCHOOLYEAR":"2024-2025"}},{"type":"Feature","geometry":{"type":"Point","coordinates":[-80.62612,32.394692]},"properties":{"NCESSCH":"450111000140","LEAID":"4501110","NAME":"Lady's Island Elementary","STATE":"SC","CITY":"Beaufort","ZIP":"29907","CNTY":"45013","NMCNTY":"Beaufort County","LOCALE":"41","SCHOOLYEAR":"2024-2025"}},{"type":"Feature","geometry":{"type":"Point","coordinates":[-80.693148,32.399774]},"properties":{"NCESSCH":"450111000141","LEAID":"4501110","NAME":"Mossy Oaks Elementary","STATE":"SC","CITY":"Beaufort","ZIP":"29902","CNTY":"45013","NMCNTY":"Beaufort County","LOCALE":"13","SCHOOLYEAR":"2024-2025"}},{"type":"Feature","geometry":{"type":"Point","coordinates":[-80.691932,32.378201]},"properties":{"NCESSCH":"450111000142","LEAID":"4501110","NAME":"Port Royal Elementary","STATE":"SC","CITY":"Port Royal","ZIP":"29935","CNTY":"45013","NMCNTY":"Beaufort County","LOCALE":"13","SCHOOLYEAR":"2024-2025"}},{"type":"Feature","geometry":{"type":"Point","coordinates":[-80.85747,32.232687]},"properties":{"NCESSCH":"450111000143","LEAID":"4501110","NAME":"Michael C. Riley Elementary","STATE":"SC","CITY":"Bluffton","ZIP":"29910","CNTY":"45013","NMCNTY":"Beaufort County","LOCALE":"13","SCHOOLYEAR":"2024-2025"}},{"type":"Feature","geometry":{"type":"Point","coordinates":[-80.563684,32.401469]},"properties":{"NCESSCH":"450111000145","LEAID":"4501110","NAME":"St. Helena Elementary","STATE":"SC","CITY":"St. Helena","ZIP":"29920","CNTY":"45013","NMCNTY":"Beaufort County","LOCALE":"41","SCHOOLYEAR":"2024-2025"}},{"type":"Feature","geometry":{"type":"Point","coordinates":[-80.660522,32.415663]},"properties":{"NCESSCH":"450111000147","LEAID":"4501110","NAME":"Beaufort High","STATE":"SC","CITY":"Beaufort","ZIP":"29907","CNTY":"45013","NMCNTY":"Beaufort County","LOCALE":"13","SCHOOLYEAR":"2024-2025"}},{"type":"Feature","geometry":{"type":"Point","coordinates":[-80.746927,32.433267]},"properties":{"NCESSCH":"450111000149","LEAID":"4501110","NAME":"Battery Creek High","STATE":"SC","CITY":"Beaufort","ZIP":"29906","CNTY":"45013","NMCNTY":"Beaufort County","LOCALE":"23","SCHOOLYEAR":"2024-2025"}},{"type":"Feature","geometry":{"type":"Point","coordinates":[-80.646814,32.449635]},"properties":{"NCESSCH":"450111000270","LEAID":"4501110","NAME":"Coosa Elementary","STATE":"SC","CITY":"Beaufort","ZIP":"29907","CNTY":"45013","NMCNTY":"Beaufort County","LOCALE":"23","SCHOOLYEAR":"2024-2025"}},{"type":"Feature","geometry":{"type":"Point","coordinates":[-80.741668,32.533014]},"properties":{"NCESSCH":"450111000392","LEAID":"4501110","NAME":"Whale Branch Elementary","STATE":"SC","CITY":"Seabrook","ZIP":"29940","CNTY":"45013","NMCNTY":"Beaufort County","LOCALE":"41","SCHOOLYEAR":"2024-2025"}},{"type":"Feature","geometry":{"type":"Point","coordinates":[-80.89811,32.247182]},"properties":{"NCESSCH":"450111000418","LEAID":"4501110","NAME":"Bluffton Elementary","STATE":"SC","CITY":"Bluffton","ZIP":"29910","CNTY":"45013","NMCNTY":"Beaufort County","LOCALE":"13","SCHOOLYEAR":"2024-2025"}},{"type":"Feature","geometry":{"type":"Point","coordinates":[-80.900788,32.246705]},"properties":{"NCESSCH":"450111000420","LEAID":"4501110","NAME":"H. E. McCracken Middle","STATE":"SC","CITY":"Bluffton","ZIP":"29910","CNTY":"45013","NMCNTY":"Beaufort County","LOCALE":"13","SCHOOLYEAR":"2024-2025"}},{"type":"Feature","geometry":{"type":"Point","coordinates":[-80.744509,32.533386]},"properties":{"NCESSCH":"450111000422","LEAID":"4501110","NAME":"Whale Branch Middle","STATE":"SC","CITY":"Seabrook","ZIP":"29940","CNTY":"45013","NMCNTY":"Beaufort County","LOCALE":"41","SCHOOLYEAR":"2024-2025"}},{"type":"Feature","geometry":{"type":"Point","coordinates":[-80.691416,32.401927]},"properties":{"NCESSCH":"450111000547","LEAID":"4501110","NAME":"Beaufort Middle","STATE":"SC","CITY":"Beaufort","ZIP":"29902","CNTY":"45013","NMCNTY":"Beaufort County","LOCALE":"13","SCHOOLYEAR":"2024-2025"}},{"type":"Feature","geometry":{"type":"Point","coordinates":[-80.92667,32.323386]},"properties":{"NCESSCH":"450111000819","LEAID":"4501110","NAME":"Okatie Elementary","STATE":"SC","CITY":"Bluffton","ZIP":"29909","CNTY":"45013","NMCNTY":"Beaufort County","LOCALE":"41","SCHOOLYEAR":"2024-2025"}},{"type":"Feature","geometry":{"type":"Point","coordinates":[-80.723703,32.210643]},"properties":{"NCESSCH":"450111000941","LEAID":"4501110","NAME":"Hilton Head Island Early Childhood Center","STATE":"SC","CITY":"Hilton Head Island","ZIP":"29926","CNTY":"45013","NMCNTY":"Beaufort County","LOCALE":"13","SCHOOLYEAR":"2024-2025"}},{"type":"Feature","geometry":{"type":"Point","coordinates":[-80.734942,32.217867]},"properties":{"NCESSCH":"450111000942","LEAID":"4501110","NAME":"Hilton Head Island School for the Creative Arts","STATE":"SC","CITY":"Hilton Head Island","ZIP":"29926","CNTY":"45013","NMCNTY":"Beaufort County","LOCALE":"13","SCHOOLYEAR":"2024-2025"}},{"type":"Feature","geometry":{"type":"Point","coordinates":[-80.733918,32.21798]},"properties":{"NCESSCH":"450111000943","LEAID":"4501110","NAME":"Hilton Head Island Elementary","STATE":"SC","CITY":"Hilton Head Island","ZIP":"29926","CNTY":"45013","NMCNTY":"Beaufort County","LOCALE":"13","SCHOOLYEAR":"2024-2025"}},{"type":"Feature","geometry":{"type":"Point","coordinates":[-80.898703,32.25134]},"properties":{"NCESSCH":"450111001165","LEAID":"4501110","NAME":"Bluffton High","STATE":"SC","CITY":"Bluffton","ZIP":"29910","CNTY":"45013","NMCNTY":"Beaufort County","LOCALE":"13","SCHOOLYEAR":"2024-2025"}},{"type":"Feature","geometry":{"type":"Point","coordinates":[-80.731115,32.219247]},"properties":{"NCESSCH":"450111001350","LEAID":"4501110","NAME":"Hilton Head Island High","STATE":"SC","CITY":"Hilton Head Island","ZIP":"29926","CNTY":"45013","NMCNTY":"Beaufort County","LOCALE":"13","SCHOOLYEAR":"2024-2025"}},{"type":"Feature","geometry":{"type":"Point","coordinates":[-80.642693,32.415382]},"properties":{"NCESSCH":"450111001360","LEAID":"4501110","NAME":"Lady's Island Middle","STATE":"SC","CITY":"Beaufort","ZIP":"29907","CNTY":"45013","NMCNTY":"Beaufort County","LOCALE":"41","SCHOOLYEAR":"2024-2025"}},{"type":"Feature","geometry":{"type":"Point","coordinates":[-80.729185,32.220844]},"properties":{"NCESSCH":"450111001361","LEAID":"4501110","NAME":"Hilton Head Island Middle","STATE":"SC","CITY":"Hilton Head Island","ZIP":"29926","CNTY":"45013","NMCNTY":"Beaufort County","LOCALE":"13","SCHOOLYEAR":"2024-2025"}},{"type":"Feature","geometry":{"type":"Point","coordinates":[-80.743241,32.385971]},"properties":{"NCESSCH":"450111001530","LEAID":"4501110","NAME":"Riverview Charter School","STATE":"SC","CITY":"Beaufort","ZIP":"29906","CNTY":"45013","NMCNTY":"Beaufort County","LOCALE":"13","SCHOOLYEAR":"2024-2025"}},{"type":"Feature","geometry":{"type":"Point","coordinates":[-80.867554,32.253353]},"properties":{"NCESSCH":"450111001538","LEAID":"4501110","NAME":"Red Cedar Elementary","STATE":"SC","CITY":"Bluffton","ZIP":"29910","CNTY":"45013","NMCNTY":"Beaufort County","LOCALE":"13","SCHOOLYEAR":"2024-2025"}},{"type":"Feature","geometry":{"type":"Point","coordinates":[-80.97262,32.24356]},"properties":{"NCESSCH":"450111001549","LEAID":"4501110","NAME":"Pritchardville Elementary","STATE":"SC","CITY":"Bluffton","ZIP":"29910","CNTY":"45013","NMCNTY":"Beaufort County","LOCALE":"31","SCHOOLYEAR":"2024-2025"}},{"type":"Feature","geometry":{"type":"Point","coordinates":[-80.759358,32.52182]},"properties":{"NCESSCH":"450111001550","LEAID":"4501110","NAME":"Whale Branch Early College High","STATE":"SC","CITY":"Seabrook","ZIP":"29940","CNTY":"45013","NMCNTY":"Beaufort County","LOCALE":"41","SCHOOLYEAR":"2024-2025"}},{"type":"Feature","geometry":{"type":"Point","coordinates":[-80.877647,32.253963]},"properties":{"NCESSCH":"450111001552","LEAID":"4501110","NAME":"Bluffton Middle","STATE":"SC","CITY":"Bluffton","ZIP":"29910","CNTY":"45013","NMCNTY":"Beaufort County","LOCALE":"13","SCHOOLYEAR":"2024-2025"}},{"type":"Feature","geometry":{"type":"Point","coordinates":[-80.737123,32.42543]},"properties":{"NCESSCH":"450111001630","LEAID":"4501110","NAME":"Robert Smalls Leadership Academy","STATE":"SC","CITY":"Beaufort","ZIP":"29906","CNTY":"45013","NMCNTY":"Beaufort County","LOCALE":"23","SCHOOLYEAR":"2024-2025"}},{"type":"Feature","geometry":{"type":"Point","coordinates":[-80.942352,32.271833]},"properties":{"NCESSCH":"450111001662","LEAID":"4501110","NAME":"River Ridge Academy","STATE":"SC","CITY":"Bluffton","ZIP":"29910","CNTY":"45013","NMCNTY":"Beaufort County","LOCALE":"31","SCHOOLYEAR":"2024-2025"}},{"type":"Feature","geometry":{"type":"Point","coordinates":[-80.972008,32.216154]},"properties":{"NCESSCH":"450111001666","LEAID":"4501110","NAME":"May River High","STATE":"SC","CITY":"Bluffton","ZIP":"29910","CNTY":"45013","NMCNTY":"Beaufort County","LOCALE":"41","SCHOOLYEAR":"2024-2025"}},{"type":"Feature","geometry":{"type":"Point","coordinates":[-80.014563,32.977689]},"properties":{"NCESSCH":"450117000003","LEAID":"4501170","NAME":"Mount Holly Elementary","STATE":"SC","CITY":"Goose Creek","ZIP":"29445","CNTY":"45015","NMCNTY":"Berkeley County","LOCALE":"21","SCHOOLYEAR":"2024-2025"}},{"type":"Feature","geometry":{"type":"Point","coordinates":[-80.075227,33.038746]},"properties":{"NCESSCH":"450117000035","LEAID":"4501170","NAME":"Devon Forest Elementary","STATE":"SC","CITY":"Goose Creek","ZIP":"29455","CNTY":"45015","NMCNTY":"Berkeley County","LOCALE":"21","SCHOOLYEAR":"2024-2025"}},{"type":"Feature","geometry":{"type":"Point","coordinates":[-79.978483,33.195983]},"properties":{"NCESSCH":"450117000082","LEAID":"4501170","NAME":"Moncks Corner Elementary","STATE":"SC","CITY":"Moncks Corner","ZIP":"29461","CNTY":"45015","NMCNTY":"Berkeley County","LOCALE":"41","SCHOOLYEAR":"2024-2025"}},{"type":"Feature","geometry":{"type":"Point","coordinates":[-80.055433,33.205145]},"properties":{"NCESSCH":"450117000154","LEAID":"4501170","NAME":"Berkeley Elementary","STATE":"SC","CITY":"Moncks Corner","ZIP":"29461","CNTY":"45015","NMCNTY":"Berkeley County","LOCALE":"41","SCHOOLYEAR":"2024-2025"}},{"type":"Feature","geometry":{"type":"Point","coordinates":[-80.026341,33.023583]},"properties":{"NCESSCH":"450117000155","LEAID":"4501170","NAME":"Boulder Bluff Elementary","STATE":"SC","CITY":"Goose Creek","ZIP":"29445","CNTY":"45015","NMCNTY":"Berkeley County","LOCALE":"21","SCHOOLYEAR":"2024-2025"}},{"type":"Feature","geometry":{"type":"Point","coordinates":[-79.852164,33.021066]},"properties":{"NCESSCH":"450117000156","LEAID":"4501170","NAME":"Cainhoy Elementary","STATE":"SC","CITY":"Huger","ZIP":"29450","CNTY":"45015","NMCNTY":"Berkeley County","LOCALE":"42","SCHOOLYEAR":"2024-2025"}},{"type":"Feature","geometry":{"type":"Point","coordinates":[-80.167293,33.30077]},"properties":{"NCESSCH":"450117000157","LEAID":"4501170","NAME":"Cross Elementary","STATE":"SC","CITY":"Cross","ZIP":"29436","CNTY":"45015","NMCNTY":"Berkeley County","LOCALE":"42","SCHOOLYEAR":"2024-2025"}},{"type":"Feature","geometry":{"type":"Point","coordinates":[-80.090161,33.016028]},"properties":{"NCESSCH":"450117000158","LEAID":"4501170","NAME":"College Park Elementary","STATE":"SC","CITY":"Ladson","ZIP":"29456","CNTY":"45015","NMCNTY":"Berkeley County","LOCALE":"21","SCHOOLYEAR":"2024-2025"}},{"type":"Feature","geometry":{"type":"Point","coordinates":[-79.890857,33.337134]},"properties":{"NCESSCH":"450117000160","LEAID":"4501170","NAME":"Timberland High","STATE":"SC","CITY":"St. Stephen","ZIP":"29479","CNTY":"45015","NMCNTY":"Berkeley County","LOCALE":"42","SCHOOLYEAR":"2024-2025"}},{"type":"Feature","geometry":{"type":"Point","coordinates":[-79.990705,33.425267]},"properties":{"NCESSCH":"450117000161","LEAID":"4501170","NAME":"J. K. Gourdin Elementary","STATE":"SC","CITY":"Pineville","ZIP":"29468","CNTY":"45015","NMCNTY":"Berkeley County","LOCALE":"42","SCHOOLYEAR":"2024-2025"}},{"type":"Feature","geometry":{"type":"Point","coordinates":[-79.895629,33.265394]},"properties":{"NCESSCH":"450117000162","LEAID":"4501170","NAME":"Henry E. Bonner Elementary","STATE":"SC","CITY":"Moncks Corner","ZIP":"29461","CNTY":"45015","NMCNTY":"Berkeley County","LOCALE":"42","SCHOOLYEAR":"2024-2025"}},{"type":"Feature","geometry":{"type":"Point","coordinates":[-79.928795,33.398519]},"properties":{"NCESSCH":"450117000165","LEAID":"4501170","NAME":"St. Stephen Elementary","STATE":"SC","CITY":"St. Stephen","ZIP":"29479","CNTY":"45015","NMCNTY":"Berkeley County","LOCALE":"42","SCHOOLYEAR":"2024-2025"}},{"type":"Feature","geometry":{"type":"Point","coordinates":[-80.049342,33.149944]},"properties":{"NCESSCH":"450117000166","LEAID":"4501170","NAME":"Whitesville Elementary","STATE":"SC","CITY":"Moncks Corner","ZIP":"29461","CNTY":"45015","NMCNTY":"Berkeley County","LOCALE":"41","SCHOOLYEAR":"2024-2025"}},{"type":"Feature","geometry":{"type":"Point","coordinates":[-80.047605,33.004358]},"properties":{"NCESSCH":"450117000167","LEAID":"4501170","NAME":"Westview Elementary","STATE":"SC","CITY":"Goose Creek","ZIP":"29445","CNTY":"45015","NMCNTY":"Berkeley County","LOCALE":"21","SCHOOLYEAR":"2024-2025"}},{"type":"Feature","geometry":{"type":"Point","coordinates":[-80.028954,32.936495]},"properties":{"NCESSCH":"450117000169","LEAID":"4501170","NAME":"Hanahan Middle","STATE":"SC","CITY":"Hanahan","ZIP":"29410","CNTY":"45015","NMCNTY":"Berkeley County","LOCALE":"21","SCHOOLYEAR":"2024-2025"}},{"type":"Feature","geometry":{"type":"Point","coordinates":[-80.012152,32.978161]},"properties":{"NCESSCH":"450117000171","LEAID":"4501170","NAME":"Sedgefield Middle","STATE":"SC","CITY":"Goose Creek","ZIP":"29445","CNTY":"45015","NMCNTY":"Berkeley County","LOCALE":"21","SCHOOLYEAR":"2024-2025"}},{"type":"Feature","geometry":{"type":"Point","coordinates":[-79.933883,33.405489]},"properties":{"NCESSCH":"450117000172","LEAID":"4501170","NAME":"St. Stephen Middle","STATE":"SC","CITY":"St. Stephen","ZIP":"29479","CNTY":"45015","NMCNTY":"Berkeley County","LOCALE":"42","SCHOOLYEAR":"2024-2025"}},{"type":"Feature","geometry":{"type":"Point","coordinates":[-80.090258,33.018942]},"properties":{"NCESSCH":"450117000173","LEAID":"4501170","NAME":"College Park Middle","STATE":"SC","CITY":"Ladson","ZIP":"29456","CNTY":"45015","NMCNTY":"Berkeley County","LOCALE":"21","SCHOOLYEAR":"2024-2025"}},{"type":"Feature","geometry":{"type":"Point","coordinates":[-80.025462,33.201671]},"properties":{"NCESSCH":"450117000174","LEAID":"4501170","NAME":"Berkeley High","STATE":"SC","CITY":"Moncks Corner","ZIP":"29461","CNTY":"45015","NMCNTY":"Berkeley County","LOCALE":"21","SCHOOLYEAR":"2024-2025"}},{"type":"Feature","geometry":{"type":"Point","coordinates":[-80.163785,33.351386]},"properties":{"NCESSCH":"450117000176","LEAID":"4501170","NAME":"Cross High","STATE":"SC","CITY":"Cross","ZIP":"29436","CNTY":"45015","NMCNTY":"Berkeley County","LOCALE":"42","SCHOOLYEAR":"2024-2025"}},{"type":"Feature","geometry":{"type":"Point","coordinates":[-80.016449,32.973399]},"properties":{"NCESSCH":"450117000177","LEAID":"4501170","NAME":"Goose Creek High","STATE":"SC","CITY":"Goose Creek","ZIP":"29445","CNTY":"45015","NMCNTY":"Berkeley County","LOCALE":"21","SCHOOLYEAR":"2024-2025"}},{"type":"Feature","geometry":{"type":"Point","coordinates":[-80.008103,32.915545]},"properties":{"NCESSCH":"450117000178","LEAID":"4501170","NAME":"Hanahan High","STATE":"SC","CITY":"Hanahan","ZIP":"29410","CNTY":"45015","NMCNTY":"Berkeley County","LOCALE":"21","SCHOOLYEAR":"2024-2025"}},{"type":"Feature","geometry":{"type":"Point","coordinates":[-80.028632,32.9348]},"properties":{"NCESSCH":"450117000423","LEAID":"4501170","NAME":"Hanahan Elementary","STATE":"SC","CITY":"Hanahan","ZIP":"29410","CNTY":"45015","NMCNTY":"Berkeley County","LOCALE":"21","SCHOOLYEAR":"2024-2025"}},{"type":"Feature","geometry":{"type":"Point","coordinates":[-80.04915,33.007168]},"properties":{"NCESSCH":"450117000704","LEAID":"4501170","NAME":"Westview Primary","STATE":"SC","CITY":"Goose Creek","ZIP":"29445","CNTY":"45015","NMCNTY":"Berkeley County","LOCALE":"21","SCHOOLYEAR":"2024-2025"}},{"type":"Feature","geometry":{"type":"Point","coordinates":[-80.032358,32.973109]},"properties":{"NCESSCH":"450117000822","LEAID":"4501170","NAME":"Goose Creek Elementary","STATE":"SC","CITY":"Goose Creek","ZIP":"29445","CNTY":"45015","NMCNTY":"Berkeley County","LOCALE":"21","SCHOOLYEAR":"2024-2025"}},{"type":"Feature","geometry":{"type":"Point","coordinates":[-79.973459,32.968567]},"properties":{"NCESSCH":"450117001158","LEAID":"4501170","NAME":"Marrington Middle School of the Arts","STATE":"SC","CITY":"Goose Creek","ZIP":"29445","CNTY":"45015","NMCNTY":"Berkeley County","LOCALE":"21","SCHOOLYEAR":"2024-2025"}},{"type":"Feature","geometry":{"type":"Point","coordinates":[-80.028519,32.979887]},"properties":{"NCESSCH":"450117001159","LEAID":"4501170","NAME":"Howe Hall AIMS Elementary","STATE":"SC","CITY":"Goose Creek","ZIP":"29445","CNTY":"45015","NMCNTY":"Berkeley County","LOCALE":"21","SCHOOLYEAR":"2024-2025"}},{"type":"Feature","geometry":{"type":"Point","coordinates":[-79.975942,32.96806]},"properties":{"NCESSCH":"450117001161","LEAID":"4501170","NAME":"Marrington Elementary","STATE":"SC","CITY":"Goose Creek","ZIP":"29445","CNTY":"45015","NMCNTY":"Berkeley County","LOCALE":"21","SCHOOLYEAR":"2024-2025"}},{"type":"Feature","geometry":{"type":"Point","coordinates":[-80.107852,33.02716]},"properties":{"NCESSCH":"450117001166","LEAID":"4501170","NAME":"Sangaree Middle","STATE":"SC","CITY":"Ladson","ZIP":"29445","CNTY":"45015","NMCNTY":"Berkeley County","LOCALE":"21","SCHOOLYEAR":"2024-2025"}},{"type":"Feature","geometry":{"type":"Point","coordinates":[-79.995834,33.199959]},"properties":{"NCESSCH":"450117001207","LEAID":"4501170","NAME":"Berkeley Middle","STATE":"SC","CITY":"Moncks Corner","ZIP":"29461","CNTY":"45015","NMCNTY":"Berkeley County","LOCALE":"21","SCHOOLYEAR":"2024-2025"}},{"type":"Feature","geometry":{"type":"Point","coordinates":[-79.896654,33.268704]},"properties":{"NCESSCH":"450117001208","LEAID":"4501170","NAME":"Macedonia Middle","STATE":"SC","CITY":"Moncks Corner","ZIP":"29461","CNTY":"45015","NMCNTY":"Berkeley County","LOCALE":"42","SCHOOLYEAR":"2024-2025"}},{"type":"Feature","geometry":{"type":"Point","coordinates":[-80.108588,33.035156]},"properties":{"NCESSCH":"450117001209","LEAID":"4501170","NAME":"Sangaree Elementary","STATE":"SC","CITY":"Summerville","ZIP":"29483","CNTY":"45015","NMCNTY":"Berkeley County","LOCALE":"21","SCHOOLYEAR":"2024-2025"}},{"type":"Feature","geometry":{"type":"Point","coordinates":[-80.048247,33.005431]},"properties":{"NCESSCH":"450117001210","LEAID":"4501170","NAME":"Westview Middle","STATE":"SC","CITY":"Goose Creek","ZIP":"29445","CNTY":"45015","NMCNTY":"Berkeley County","LOCALE":"21","SCHOOLYEAR":"2024-2025"}},{"type":"Feature","geometry":{"type":"Point","coordinates":[-80.084803,33.014376]},"properties":{"NCESSCH":"450117001351","LEAID":"4501170","NAME":"Stratford High","STATE":"SC","CITY":"Goose Creek","ZIP":"29445","CNTY":"45015","NMCNTY":"Berkeley County","LOCALE":"21","SCHOOLYEAR":"2024-2025"}},{"type":"Feature","geometry":{"type":"Point","coordinates":[-80.106298,33.034969]},"properties":{"NCESSCH":"450117001403","LEAID":"4501170","NAME":"Sangaree Intermediate","STATE":"SC","CITY":"Summerville","ZIP":"29483","CNTY":"45015","NMCNTY":"Berkeley County","LOCALE":"21","SCHOOLYEAR":"2024-2025"}},{"type":"Feature","geometry":{"type":"Point","coordinates":[-79.909936,32.848706]},"properties":{"NCESSCH":"450117001472","LEAID":"4501170","NAME":"Daniel Island School","STATE":"SC","CITY":"Charleston","ZIP":"29492","CNTY":"45015","NMCNTY":"Berkeley County","LOCALE":"12","SCHOOLYEAR":"2024-2025"}},{"type":"Feature","geometry":{"type":"Point","coordinates":[-80.122268,33.102104]},"properties":{"NCESSCH":"450117001523","LEAID":"4501170","NAME":"Cane Bay High","STATE":"SC","CITY":"Summerville","ZIP":"29483","CNTY":"45015","NMCNTY":"Berkeley County","LOCALE":"21","SCHOOLYEAR":"2024-2025"}},{"type":"Feature","geometry":{"type":"Point","coordinates":[-80.121031,33.108076]},"properties":{"NCESSCH":"450117001537","LEAID":"4501170","NAME":"Cane Bay Elementary","STATE":"SC","CITY":"Summerville","ZIP":"29486","CNTY":"45015","NMCNTY":"Berkeley County","LOCALE":"21","SCHOOLYEAR":"2024-2025"}},{"type":"Feature","geometry":{"type":"Point","coordinates":[-80.031861,32.927058]},"properties":{"NCESSCH":"450117001556","LEAID":"4501170","NAME":"Berkeley County Middle College High","STATE":"SC","CITY":"Charleston","ZIP":"29406","CNTY":"45019","NMCNTY":"Charleston County","LOCALE":"12","SCHOOLYEAR":"2024-2025"}},{"type":"Feature","geometry":{"type":"Point","coordinates":[-80.120273,33.106466]},"properties":{"NCESSCH":"450117001608","LEAID":"4501170","NAME":"Cane Bay Middle","STATE":"SC","CITY":"Summerville","ZIP":"29486","CNTY":"45015","NMCNTY":"Berkeley County","LOCALE":"21","SCHOOLYEAR":"2024-2025"}},{"type":"Feature","geometry":{"type":"Point","coordinates":[-80.149213,33.064298]},"properties":{"NCESSCH":"450117001658","LEAID":"4501170","NAME":"Nexton Elementary","STATE":"SC","CITY":"Summerville","ZIP":"29483","CNTY":"45015","NMCNTY":"Berkeley County","LOCALE":"21","SCHOOLYEAR":"2024-2025"}},{"type":"Feature","geometry":{"type":"Point","coordinates":[-79.860467,32.912938]},"properties":{"NCESSCH":"450117001670","LEAID":"4501170","NAME":"Philip Simmons Middle","STATE":"SC","CITY":"Wando","ZIP":"29492","CNTY":"45015","NMCNTY":"Berkeley County","LOCALE":"41","SCHOOLYEAR":"2024-2025"}},{"type":"Feature","geometry":{"type":"Point","coordinates":[-79.860467,32.912938]},"properties":{"NCESSCH":"450117001671","LEAID":"4501170","NAME":"Philip Simmons Elementary","STATE":"SC","CITY":"Wando","ZIP":"29492","CNTY":"45015","NMCNTY":"Berkeley County","LOCALE":"41","SCHOOLYEAR":"2024-2025"}},{"type":"Feature","geometry":{"type":"Point","coordinates":[-79.850871,32.917031]},"properties":{"NCESSCH":"450117001681","LEAID":"4501170","NAME":"Philip Simmons High","STATE":"SC","CITY":"Charleston","ZIP":"29492","CNTY":"45015","NMCNTY":"Berkeley County","LOCALE":"41","SCHOOLYEAR":"2024-2025"}},{"type":"Feature","geometry":{"type":"Point","coordinates":[-80.004023,32.946507]},"properties":{"NCESSCH":"450117001682","LEAID":"4501170","NAME":"Bowen's Corner Elementary","STATE":"SC","CITY":"Hanahan","ZIP":"29410","CNTY":"45015","NMCNTY":"Berkeley County","LOCALE":"21","SCHOOLYEAR":"2024-2025"}},{"type":"Feature","geometry":{"type":"Point","coordinates":[-80.034732,33.099067]},"properties":{"NCESSCH":"450117001707","LEAID":"4501170","NAME":"Foxbank Elementary","STATE":"SC","CITY":"Moncks Corner","ZIP":"29461","CNTY":"45015","NMCNTY":"Berkeley County","LOCALE":"41","SCHOOLYEAR":"2024-2025"}},{"type":"Feature","geometry":{"type":"Point","coordinates":[-80.103686,33.068039]},"properties":{"NCESSCH":"450117001776","LEAID":"4501170","NAME":"Carolyn Lewis School","STATE":"SC","CITY":"Summerville","ZIP":"29486","CNTY":"45015","NMCNTY":"Berkeley County","LOCALE":"41","SCHOOLYEAR":"2024-2025"}},{"type":"Feature","geometry":{"type":"Point","coordinates":[-80.799114,33.665325]},"properties":{"NCESSCH":"450125000187","LEAID":"4501250","NAME":"Calhoun County High","STATE":"SC","CITY":"St. Matthews","ZIP":"29135","CNTY":"45017","NMCNTY":"Calhoun County","LOCALE":"42","SCHOOLYEAR":"2024-2025"}},{"type":"Feature","geometry":{"type":"Point","coordinates":[-80.940384,33.811266]},"properties":{"NCESSCH":"450125000424","LEAID":"4501250","NAME":"Sandy Run School","STATE":"SC","CITY":"Swansea","ZIP":"29160","CNTY":"45017","NMCNTY":"Calhoun County","LOCALE":"42","SCHOOLYEAR":"2024-2025"}},{"type":"Feature","geometry":{"type":"Point","coordinates":[-80.796008,33.664915]},"properties":{"NCESSCH":"450125001532","LEAID":"4501250","NAME":"St. Matthews K-8 School","STATE":"SC","CITY":"St. Matthews","ZIP":"29135","CNTY":"45017","NMCNTY":"Calhoun County","LOCALE":"42","SCHOOLYEAR":"2024-2025"}},{"type":"Feature","geometry":{"type":"Point","coordinates":[-80.000996,32.88428]},"properties":{"NCESSCH":"450144000083","LEAID":"4501440","NAME":"Charleston School of the Arts","STATE":"SC","CITY":"North Charleston","ZIP":"29405","CNTY":"45019","NMCNTY":"Charleston County","LOCALE":"12","SCHOOLYEAR":"2024-2025"}},{"type":"Feature","geometry":{"type":"Point","coordinates":[-80.000996,32.88428]},"properties":{"NCESSCH":"450144000168","LEAID":"4501440","NAME":"Academic Magnet High","STATE":"SC","CITY":"North Charleston","ZIP":"29405","CNTY":"45019","NMCNTY":"Charleston County","LOCALE":"12","SCHOOLYEAR":"2024-2025"}},{"type":"Feature","geometry":{"type":"Point","coordinates":[-79.970186,32.852511]},"properties":{"NCESSCH":"450144000197","LEAID":"4501440","NAME":"Chicora Elementary","STATE":"SC","CITY":"North Charleston","ZIP":"29405","CNTY":"45019","NMCNTY":"Charleston County","LOCALE":"12","SCHOOLYEAR":"2024-2025"}},{"type":"Feature","geometry":{"type":"Point","coordinates":[-80.059616,32.96049]},"properties":{"NCESSCH":"450144000199","LEAID":"4501440","NAME":"A. C. Corcoran Elementary","STATE":"SC","CITY":"North Charleston","ZIP":"29406","CNTY":"45019","NMCNTY":"Charleston County","LOCALE":"12","SCHOOLYEAR":"2024-2025"}},{"type":"Feature","geometry":{"type":"Point","coordinates":[-80.299909,32.580834]},"properties":{"NCESSCH":"450144000201","LEAID":"4501440","NAME":"Jane Edwards Elementary","STATE":"SC","CITY":"Edisto Island","ZIP":"29438","CNTY":"45019","NMCNTY":"Charleston County","LOCALE":"42","SCHOOLYEAR":"2024-2025"}},{"type":"Feature","geometry":{"type":"Point","coordinates":[-79.978017,32.849095]},"properties":{"NCESSCH":"450144000202","LEAID":"4501440","NAME":"Mary Ford Early Childhood Learning and Family Center","STATE":"SC","CITY":"North Charleston","ZIP":"29405","CNTY":"45019","NMCNTY":"Charleston County","LOCALE":"12","SCHOOLYEAR":"2024-2025"}},{"type":"Feature","geometry":{"type":"Point","coordinates":[-80.048337,32.860636]},"properties":{"NCESSCH":"450144000204","LEAID":"4501440","NAME":"W. B. Goodwin Elementary","STATE":"SC","CITY":"North Charleston","ZIP":"29418","CNTY":"45019","NMCNTY":"Charleston County","LOCALE":"12","SCHOOLYEAR":"2024-2025"}},{"type":"Feature","geometry":{"type":"Point","coordinates":[-80.374368,32.700341]},"properties":{"NCESSCH":"450144000205","LEAID":"4501440","NAME":"Minnie Hughes Elementary","STATE":"SC","CITY":"Yonges Island","ZIP":"29404","CNTY":"45019","NMCNTY":"Charleston County","LOCALE":"42","SCHOOLYEAR":"2024-2025"}},{"type":"Feature","geometry":{"type":"Point","coordinates":[-80.073051,32.892469]},"properties":{"NCESSCH":"450144000206","LEAID":"4501440","NAME":"Hunley Park Elementary","STATE":"SC","CITY":"North Charleston","ZIP":"29404","CNTY":"45019","NMCNTY":"Charleston County","LOCALE":"12","SCHOOLYEAR":"2024-2025"}},{"type":"Feature","geometry":{"type":"Point","coordinates":[-80.105878,32.985422]},"properties":{"NCESSCH":"450144000207","LEAID":"4501440","NAME":"Ladson Elementary","STATE":"SC","CITY":"Ladson","ZIP":"29456","CNTY":"45019","NMCNTY":"Charleston County","LOCALE":"21","SCHOOLYEAR":"2024-2025"}},{"type":"Feature","geometry":{"type":"Point","coordinates":[-80.064151,32.885694]},"properties":{"NCESSCH":"450144000208","LEAID":"4501440","NAME":"Lambs Elementary","STATE":"SC","CITY":"North Charleston","ZIP":"29458","CNTY":"45019","NMCNTY":"Charleston County","LOCALE":"12","SCHOOLYEAR":"2024-2025"}},{"type":"Feature","geometry":{"type":"Point","coordinates":[-79.935718,32.780846]},"properties":{"NCESSCH":"450144000210","LEAID":"4501440","NAME":"Memminger Elementary","STATE":"SC","CITY":"Charleston","ZIP":"29401","CNTY":"45019","NMCNTY":"Charleston County","LOCALE":"12","SCHOOLYEAR":"2024-2025"}},{"type":"Feature","geometry":{"type":"Point","coordinates":[-80.041143,32.919855]},"properties":{"NCESSCH":"450144000211","LEAID":"4501440","NAME":"Midland Park Primary","STATE":"SC","CITY":"North Charleston","ZIP":"29406","CNTY":"45019","NMCNTY":"Charleston County","LOCALE":"12","SCHOOLYEAR":"2024-2025"}},{"type":"Feature","geometry":{"type":"Point","coordinates":[-80.211357,32.784895]},"properties":{"NCESSCH":"450144000212","LEAID":"4501440","NAME":"E.B. Ellington Elementary","STATE":"SC","CITY":"Ravenel","ZIP":"29470","CNTY":"45019","NMCNTY":"Charleston County","LOCALE":"42","SCHOOLYEAR":"2024-2025"}},{"type":"Feature","geometry":{"type":"Point","coordinates":[-79.947721,32.794585]},"properties":{"NCESSCH":"450144000213","LEAID":"4501440","NAME":"Mitchell Elementary","STATE":"SC","CITY":"Charleston","ZIP":"29403","CNTY":"45019","NMCNTY":"Charleston County","LOCALE":"12","SCHOOLYEAR":"2024-2025"}},{"type":"Feature","geometry":{"type":"Point","coordinates":[-79.792947,32.851802]},"properties":{"NCESSCH":"450144000214","LEAID":"4501440","NAME":"Jennie Moore Elementary","STATE":"SC","CITY":"Mt. Pleasant","ZIP":"29466","CNTY":"45019","NMCNTY":"Charleston County","LOCALE":"21","SCHOOLYEAR":"2024-2025"}},{"type":"Feature","geometry":{"type":"Point","coordinates":[-80.001573,32.877038]},"properties":{"NCESSCH":"450144000215","LEAID":"4501440","NAME":"Morningside Middle","STATE":"SC","CITY":"North Charleston","ZIP":"29405","CNTY":"45019","NMCNTY":"Charleston County","LOCALE":"12","SCHOOLYEAR":"2024-2025"}},{"type":"Feature","geometry":{"type":"Point","coordinates":[-79.863112,32.780007]},"properties":{"NCESSCH":"450144000216","LEAID":"4501440","NAME":"Mt. Pleasant Academy","STATE":"SC","CITY":"Mount Pleasant","ZIP":"29464","CNTY":"45019","NMCNTY":"Charleston County","LOCALE":"21","SCHOOLYEAR":"2024-2025"}},{"type":"Feature","geometry":{"type":"Point","coordinates":[-79.985948,32.743384]},"properties":{"NCESSCH":"450144000218","LEAID":"4501440","NAME":"Murray-LaSaine Montessori","STATE":"SC","CITY":"Charleston","ZIP":"29412","CNTY":"45019","NMCNTY":"Charleston County","LOCALE":"12","SCHOOLYEAR":"2024-2025"}},{"type":"Feature","geometry":{"type":"Point","coordinates":[-79.982775,32.88471]},"properties":{"NCESSCH":"450144000219","LEAID":"4501440","NAME":"North Charleston Elementary","STATE":"SC","CITY":"North Charleston","ZIP":"29405","CNTY":"45019","NMCNTY":"Charleston County","LOCALE":"12","SCHOOLYEAR":"2024-2025"}},{"type":"Feature","geometry":{"type":"Point","coordinates":[-80.03837,32.787181]},"properties":{"NCESSCH":"450144000220","LEAID":"4501440","NAME":"Oakland Elementary","STATE":"SC","CITY":"Charleston","ZIP":"29414","CNTY":"45019","NMCNTY":"Charleston County","LOCALE":"12","SCHOOLYEAR":"2024-2025"}},{"type":"Feature","geometry":{"type":"Point","coordinates":[-79.979786,32.863306]},"properties":{"NCESSCH":"450144000222","LEAID":"4501440","NAME":"Malcolm C. Hursey Montessori","STATE":"SC","CITY":"North Charleston","ZIP":"29405","CNTY":"45019","NMCNTY":"Charleston County","LOCALE":"12","SCHOOLYEAR":"2024-2025"}},{"type":"Feature","geometry":{"type":"Point","coordinates":[-80.009422,32.899578]},"properties":{"NCESSCH":"450144000224","LEAID":"4501440","NAME":"Matilda F. Dunston Elementary","STATE":"SC","CITY":"North Charleston","ZIP":"29406","CNTY":"45019","NMCNTY":"Charleston County","LOCALE":"12","SCHOOLYEAR":"2024-2025"}},{"type":"Feature","geometry":{"type":"Point","coordinates":[-80.182427,32.640757]},"properties":{"NCESSCH":"450144000225","LEAID":"4501440","NAME":"Edith L. Frierson Montessori","STATE":"SC","CITY":"Wadmalaw Island","ZIP":"29487","CNTY":"45019","NMCNTY":"Charleston County","LOCALE":"42","SCHOOLYEAR":"2024-2025"}},{"type":"Feature","geometry":{"type":"Point","coordinates":[-79.937718,32.801149]},"properties":{"NCESSCH":"450144000226","LEAID":"4501440","NAME":"Sanders-Clyde Elementary","STATE":"SC","CITY":"Charleston","ZIP":"29403","CNTY":"45019","NMCNTY":"Charleston County","LOCALE":"12","SCHOOLYEAR":"2024-2025"}},{"type":"Feature","geometry":{"type":"Point","coordinates":[-80.076373,32.937261]},"properties":{"NCESSCH":"450144000227","LEAID":"4501440","NAME":"Pepperhill Elementary","STATE":"SC","CITY":"North Charleston","ZIP":"29420","CNTY":"45019","NMCNTY":"Charleston County","LOCALE":"12","SCHOOLYEAR":"2024-2025"}},{"type":"Feature","geometry":{"type":"Point","coordinates":[-79.94956,32.800886]},"properties":{"NCESSCH":"450144000228","LEAID":"4501440","NAME":"James Simons Montessori","STATE":"SC","CITY":"Charleston","ZIP":"29403","CNTY":"45019","NMCNTY":"Charleston County","LOCALE":"12","SCHOOLYEAR":"2024-2025"}},{"type":"Feature","geometry":{"type":"Point","coordinates":[-80.059851,32.836687]},"properties":{"NCESSCH":"450144000229","LEAID":"4501440","NAME":"Springfield Elementary","STATE":"SC","CITY":"Charleston","ZIP":"29414","CNTY":"45019","NMCNTY":"Charleston County","LOCALE":"12","SCHOOLYEAR":"2024-2025"}},{"type":"Feature","geometry":{"type":"Point","coordinates":[-79.98131,32.777871]},"properties":{"NCESSCH":"450144000230","LEAID":"4501440","NAME":"St. Andrew's School of Math and Science","STATE":"SC","CITY":"Charleston","ZIP":"29407","CNTY":"45019","NMCNTY":"Charleston County","LOCALE":"12","SCHOOLYEAR":"2024-2025"}},{"type":"Feature","geometry":{"type":"Point","coordinates":[-80.102822,32.723376]},"properties":{"NCESSCH":"450144000231","LEAID":"4501440","NAME":"Angel Oak Elementary","STATE":"SC","CITY":"Johns Island","ZIP":"29455","CNTY":"45019","NMCNTY":"Charleston County","LOCALE":"12","SCHOOLYEAR":"2024-2025"}},{"type":"Feature","geometry":{"type":"Point","coordinates":[-79.929045,32.737696]},"properties":{"NCESSCH":"450144000232","LEAID":"4501440","NAME":"Stiles Point Elementary","STATE":"SC","CITY":"Charleston","ZIP":"29412","CNTY":"45019","NMCNTY":"Charleston County","LOCALE":"12","SCHOOLYEAR":"2024-2025"}},{"type":"Feature","geometry":{"type":"Point","coordinates":[-80.016205,32.779915]},"properties":{"NCESSCH":"450144000233","LEAID":"4501440","NAME":"Stono Park Elementary","STATE":"SC","CITY":"Charleston","ZIP":"29407","CNTY":"45019","NMCNTY":"Charleston County","LOCALE":"12","SCHOOLYEAR":"2024-2025"}},{"type":"Feature","geometry":{"type":"Point","coordinates":[-79.839594,32.759366]},"properties":{"NCESSCH":"450144000234","LEAID":"4501440","NAME":"Sullivan's Island Elementary","STATE":"SC","CITY":"Sullivan's Island","ZIP":"29482","CNTY":"45019","NMCNTY":"Charleston County","LOCALE":"21","SCHOOLYEAR":"2024-2025"}},{"type":"Feature","geometry":{"type":"Point","coordinates":[-79.834095,32.80939]},"properties":{"NCESSCH":"450144000236","LEAID":"4501440","NAME":"Mamie P. Whitesides Elementary","STATE":"SC","CITY":"Mt. Pleasant","ZIP":"29464","CNTY":"45019","NMCNTY":"Charleston County","LOCALE":"21","SCHOOLYEAR":"2024-2025"}},{"type":"Feature","geometry":{"type":"Point","coordinates":[-79.936711,32.791032]},"properties":{"NCESSCH":"450144000240","LEAID":"4501440","NAME":"Charleston Progressive","STATE":"SC","CITY":"Charleston","ZIP":"29403","CNTY":"45019","NMCNTY":"Charleston County","LOCALE":"12","SCHOOLYEAR":"2024-2025"}},{"type":"Feature","geometry":{"type":"Point","coordinates":[-80.078469,32.814966]},"properties":{"NCESSCH":"450144000249","LEAID":"4501440","NAME":"C. E. Williams Middle School for Creative and Scientific Art","STATE":"SC","CITY":"Charleston","ZIP":"29414","CNTY":"45019","NMCNTY":"Charleston County","LOCALE":"12","SCHOOLYEAR":"2024-2025"}},{"type":"Feature","geometry":{"type":"Point","coordinates":[-80.261947,32.727957]},"properties":{"NCESSCH":"450144000250","LEAID":"4501440","NAME":"Baptist Hill High","STATE":"SC","CITY":"Hollywood","ZIP":"29449","CNTY":"45019","NMCNTY":"Charleston County","LOCALE":"42","SCHOOLYEAR":"2024-2025"}},{"type":"Feature","geometry":{"type":"Point","coordinates":[-79.978733,32.880895]},"properties":{"NCESSCH":"450144000251","LEAID":"4501440","NAME":"North Charleston High","STATE":"SC","CITY":"North Charleston","ZIP":"29405","CNTY":"45019","NMCNTY":"Charleston County","LOCALE":"12","SCHOOLYEAR":"2024-2025"}},{"type":"Feature","geometry":{"type":"Point","coordinates":[-79.759186,32.885527]},"properties":{"NCESSCH":"450144000261","LEAID":"4501440","NAME":"Wando High","STATE":"SC","CITY":"Mount Pleasant","ZIP":"29466","CNTY":"45019","NMCNTY":"Charleston County","LOCALE":"21","SCHOOLYEAR":"2024-2025"}},{"type":"Feature","geometry":{"type":"Point","coordinates":[-80.098504,32.724739]},"properties":{"NCESSCH":"450144000264","LEAID":"4501440","NAME":"St. Johns High","STATE":"SC","CITY":"Johns Island","ZIP":"29455","CNTY":"45019","NMCNTY":"Charleston County","LOCALE":"12","SCHOOLYEAR":"2024-2025"}},{"type":"Feature","geometry":{"type":"Point","coordinates":[-80.080187,32.923086]},"properties":{"NCESSCH":"450144000265","LEAID":"4501440","NAME":"R. B. Stall High","STATE":"SC","CITY":"North Charleston","ZIP":"29418","CNTY":"45019","NMCNTY":"Charleston County","LOCALE":"12","SCHOOLYEAR":"2024-2025"}},{"type":"Feature","geometry":{"type":"Point","coordinates":[-79.78827,32.876289]},"properties":{"NCESSCH":"450144000429","LEAID":"4501440","NAME":"Charles Pinckney Elementary","STATE":"SC","CITY":"Mt. Pleasant","ZIP":"29466","CNTY":"45019","NMCNTY":"Charleston County","LOCALE":"21","SCHOOLYEAR":"2024-2025"}},{"type":"Feature","geometry":{"type":"Point","coordinates":[-79.787564,32.878574]},"properties":{"NCESSCH":"450144000430","LEAID":"4501440","NAME":"Thomas C. Cario Middle","STATE":"SC","CITY":"Mt. Pleasant","ZIP":"29466","CNTY":"45019","NMCNTY":"Charleston County","LOCALE":"21","SCHOOLYEAR":"2024-2025"}},{"type":"Feature","geometry":{"type":"Point","coordinates":[-80.074886,32.819554]},"properties":{"NCESSCH":"450144000548","LEAID":"4501440","NAME":"West Ashley High","STATE":"SC","CITY":"Charleston","ZIP":"29414","CNTY":"45019","NMCNTY":"Charleston County","LOCALE":"12","SCHOOLYEAR":"2024-2025"}},{"type":"Feature","geometry":{"type":"Point","coordinates":[-79.975881,32.702784]},"properties":{"NCESSCH":"450144000830","LEAID":"4501440","NAME":"James Island Elementary","STATE":"SC","CITY":"Charleston","ZIP":"29412","CNTY":"45019","NMCNTY":"Charleston County","LOCALE":"21","SCHOOLYEAR":"2024-2025"}},{"type":"Feature","geometry":{"type":"Point","coordinates":[-79.95466,32.789997]},"properties":{"NCESSCH":"450144000838","LEAID":"4501440","NAME":"Charleston Development Academy","STATE":"SC","CITY":"Charleston","ZIP":"29403","CNTY":"45019","NMCNTY":"Charleston County","LOCALE":"12","SCHOOLYEAR":"2024-2025"}},{"type":"Feature","geometry":{"type":"Point","coordinates":[-79.853154,32.797471]},"properties":{"NCESSCH":"450144000856","LEAID":"4501440","NAME":"East Cooper Montessori Charter","STATE":"SC","CITY":"Mt. Pleasant","ZIP":"29464","CNTY":"45019","NMCNTY":"Charleston County","LOCALE":"21","SCHOOLYEAR":"2024-2025"}},{"type":"Feature","geometry":{"type":"Point","coordinates":[-79.973091,32.844534]},"properties":{"NCESSCH":"450144000857","LEAID":"4501440","NAME":"Greg Mathis Charter High","STATE":"SC","CITY":"North Charleston","ZIP":"29405","CNTY":"45019","NMCNTY":"Charleston County","LOCALE":"12","SCHOOLYEAR":"2024-2025"}},{"type":"Feature","geometry":{"type":"Point","coordinates":[-79.783418,32.875191]},"properties":{"NCESSCH":"450144000944","LEAID":"4501440","NAME":"Laurel Hill Primary","STATE":"SC","CITY":"Mt. Pleasant","ZIP":"29466","CNTY":"45019","NMCNTY":"Charleston County","LOCALE":"21","SCHOOLYEAR":"2024-2025"}},{"type":"Feature","geometry":{"type":"Point","coordinates":[-80.072817,32.853459]},"properties":{"NCESSCH":"450144001167","LEAID":"4501440","NAME":"Drayton Hall Elementary","STATE":"SC","CITY":"Charleston","ZIP":"29414","CNTY":"45019","NMCNTY":"Charleston County","LOCALE":"12","SCHOOLYEAR":"2024-2025"}},{"type":"Feature","geometry":{"type":"Point","coordinates":[-79.934228,32.731429]},"properties":{"NCESSCH":"450144001168","LEAID":"4501440","NAME":"James Island Charter High","STATE":"SC","CITY":"Charleston","ZIP":"29412","CNTY":"45019","NMCNTY":"Charleston County","LOCALE":"12","SCHOOLYEAR":"2024-2025"}},{"type":"Feature","geometry":{"type":"Point","coordinates":[-80.057434,32.942515]},"properties":{"NCESSCH":"450144001211","LEAID":"4501440","NAME":"Northwoods Middle","STATE":"SC","CITY":"North Charleston","ZIP":"29420","CNTY":"45019","NMCNTY":"Charleston County","LOCALE":"12","SCHOOLYEAR":"2024-2025"}},{"type":"Feature","geometry":{"type":"Point","coordinates":[-79.968643,32.75611]},"properties":{"NCESSCH":"450144001214","LEAID":"4501440","NAME":"Harbor View Elementary","STATE":"SC","CITY":"Charleston","ZIP":"29412","CNTY":"45019","NMCNTY":"Charleston County","LOCALE":"12","SCHOOLYEAR":"2024-2025"}},{"type":"Feature","geometry":{"type":"Point","coordinates":[-80.077147,32.72072]},"properties":{"NCESSCH":"450144001215","LEAID":"4501440","NAME":"Haut Gap Middle","STATE":"SC","CITY":"Johns Island","ZIP":"29449","CNTY":"45019","NMCNTY":"Charleston County","LOCALE":"12","SCHOOLYEAR":"2024-2025"}},{"type":"Feature","geometry":{"type":"Point","coordinates":[-79.79519,32.850273]},"properties":{"NCESSCH":"450144001217","LEAID":"4501440","NAME":"Laing Middle","STATE":"SC","CITY":"Mount Pleasant","ZIP":"29466","CNTY":"45019","NMCNTY":"Charleston County","LOCALE":"21","SCHOOLYEAR":"2024-2025"}},{"type":"Feature","geometry":{"type":"Point","coordinates":[-79.872236,32.790578]},"properties":{"NCESSCH":"450144001218","LEAID":"4501440","NAME":"Moultrie Middle","STATE":"SC","CITY":"Mount Pleasant","ZIP":"29464","CNTY":"45019","NMCNTY":"Charleston County","LOCALE":"21","SCHOOLYEAR":"2024-2025"}},{"type":"Feature","geometry":{"type":"Point","coordinates":[-79.953888,32.793517]},"properties":{"NCESSCH":"450144001328","LEAID":"4501440","NAME":"Burke High","STATE":"SC","CITY":"Charleston","ZIP":"29403","CNTY":"45019","NMCNTY":"Charleston County","LOCALE":"12","SCHOOLYEAR":"2024-2025"}},{"type":"Feature","geometry":{"type":"Point","coordinates":[-79.853748,32.81849]},"properties":{"NCESSCH":"450144001329","LEAID":"4501440","NAME":"James B. Edwards Elementary","STATE":"SC","CITY":"Mt. Pleasant","ZIP":"29464","CNTY":"45019","NMCNTY":"Charleston County","LOCALE":"21","SCHOOLYEAR":"2024-2025"}},{"type":"Feature","geometry":{"type":"Point","coordinates":[-79.967851,32.850547]},"properties":{"NCESSCH":"450144001330","LEAID":"4501440","NAME":"Military Magnet Academy","STATE":"SC","CITY":"North Charleston","ZIP":"29405","CNTY":"45019","NMCNTY":"Charleston County","LOCALE":"12","SCHOOLYEAR":"2024-2025"}},{"type":"Feature","geometry":{"type":"Point","coordinates":[-79.538961,33.061904]},"properties":{"NCESSCH":"450144001352","LEAID":"4501440","NAME":"St. James Santee Elementary-Middle","STATE":"SC","CITY":"McClellanville","ZIP":"29458","CNTY":"45019","NMCNTY":"Charleston County","LOCALE":"42","SCHOOLYEAR":"2024-2025"}},{"type":"Feature","geometry":{"type":"Point","coordinates":[-80.022371,32.800759]},"properties":{"NCESSCH":"450144001363","LEAID":"4501440","NAME":"Ashley River Creative Arts Elementary","STATE":"SC","CITY":"Charleston","ZIP":"29407","CNTY":"45019","NMCNTY":"Charleston County","LOCALE":"12","SCHOOLYEAR":"2024-2025"}},{"type":"Feature","geometry":{"type":"Point","coordinates":[-79.932423,32.787011]},"properties":{"NCESSCH":"450144001382","LEAID":"4501440","NAME":"Buist Academy","STATE":"SC","CITY":"Charleston","ZIP":"29401","CNTY":"45019","NMCNTY":"Charleston County","LOCALE":"12","SCHOOLYEAR":"2024-2025"}},{"type":"Feature","geometry":{"type":"Point","coordinates":[-80.044098,32.67735]},"properties":{"NCESSCH":"450144001404","LEAID":"4501440","NAME":"Mt. Zion Elementary","STATE":"SC","CITY":"Johns Island","ZIP":"29455","CNTY":"45019","NMCNTY":"Charleston County","LOCALE":"41","SCHOOLYEAR":"2024-2025"}},{"type":"Feature","geometry":{"type":"Point","coordinates":[-79.855779,32.847265]},"properties":{"NCESSCH":"450144001438","LEAID":"4501440","NAME":"Belle Hall Elementary","STATE":"SC","CITY":"Mt. Pleasant","ZIP":"29464","CNTY":"45019","NMCNTY":"Charleston County","LOCALE":"21","SCHOOLYEAR":"2024-2025"}},{"type":"Feature","geometry":{"type":"Point","coordinates":[-80.001201,32.82121]},"properties":{"NCESSCH":"450144001457","LEAID":"4501440","NAME":"Orange Grove Charter School","STATE":"SC","CITY":"Charleston","ZIP":"29407","CNTY":"45019","NMCNTY":"Charleston County","LOCALE":"12","SCHOOLYEAR":"2024-2025"}},{"type":"Feature","geometry":{"type":"Point","coordinates":[-79.950435,32.802869]},"properties":{"NCESSCH":"450144001505","LEAID":"4501440","NAME":"Charleston Charter School for Math and Science","STATE":"SC","CITY":"Charleston","ZIP":"29403","CNTY":"45019","NMCNTY":"Charleston County","LOCALE":"12","SCHOOLYEAR":"2024-2025"}},{"type":"Feature","geometry":{"type":"Point","coordinates":[-80.062499,32.876132]},"properties":{"NCESSCH":"450144001533","LEAID":"4501440","NAME":"Jerry Zucker Middle School of Science","STATE":"SC","CITY":"North Charleston","ZIP":"29418","CNTY":"45019","NMCNTY":"Charleston County","LOCALE":"12","SCHOOLYEAR":"2024-2025"}},{"type":"Feature","geometry":{"type":"Point","coordinates":[-80.021103,32.790892]},"properties":{"NCESSCH":"450144001553","LEAID":"4501440","NAME":"Pattison's Academy for Comprehensive Education","STATE":"SC","CITY":"Charleston","ZIP":"29407","CNTY":"45019","NMCNTY":"Charleston County","LOCALE":"12","SCHOOLYEAR":"2024-2025"}},{"type":"Feature","geometry":{"type":"Point","coordinates":[-80.055943,32.942686]},"properties":{"NCESSCH":"450144001562","LEAID":"4501440","NAME":"Pinehurst Elementary","STATE":"SC","CITY":"North Charleston","ZIP":"29420","CNTY":"45019","NMCNTY":"Charleston County","LOCALE":"12","SCHOOLYEAR":"2024-2025"}},{"type":"Feature","geometry":{"type":"Point","coordinates":[-80.058289,32.835551]},"properties":{"NCESSCH":"450144001610","LEAID":"4501440","NAME":"Montessori Community School","STATE":"SC","CITY":"Charleston","ZIP":"29414","CNTY":"45019","NMCNTY":"Charleston County","LOCALE":"12","SCHOOLYEAR":"2024-2025"}},{"type":"Feature","geometry":{"type":"Point","coordinates":[-79.997917,32.88702]},"properties":{"NCESSCH":"450144001611","LEAID":"4501440","NAME":"North Charleston Creative Arts Elementary","STATE":"SC","CITY":"North Charleston","ZIP":"29405","CNTY":"45019","NMCNTY":"Charleston County","LOCALE":"12","SCHOOLYEAR":"2024-2025"}},{"type":"Feature","geometry":{"type":"Point","coordinates":[-80.021103,32.790892]},"properties":{"NCESSCH":"450144001628","LEAID":"4501440","NAME":"Carolina Voyager Charter","STATE":"SC","CITY":"Charleston","ZIP":"29407","CNTY":"45019","NMCNTY":"Charleston County","LOCALE":"12","SCHOOLYEAR":"2024-2025"}},{"type":"Feature","geometry":{"type":"Point","coordinates":[-80.00527,32.858642]},"properties":{"NCESSCH":"450144001648","LEAID":"4501440","NAME":"Meeting Street Elementary","STATE":"SC","CITY":"North Charleston","ZIP":"29405","CNTY":"45019","NMCNTY":"Charleston County","LOCALE":"12","SCHOOLYEAR":"2024-2025"}},{"type":"Feature","geometry":{"type":"Point","coordinates":[-79.990709,32.875165]},"properties":{"NCESSCH":"450144001655","LEAID":"4501440","NAME":"Allegro Charter School of Music","STATE":"SC","CITY":"North Charleston","ZIP":"29405","CNTY":"45019","NMCNTY":"Charleston County","LOCALE":"12","SCHOOLYEAR":"2024-2025"}},{"type":"Feature","geometry":{"type":"Point","coordinates":[-79.952556,32.794209]},"properties":{"NCESSCH":"450144001660","LEAID":"4501440","NAME":"Simmons Pinckney Middle","STATE":"SC","CITY":"Charleston","ZIP":"29403","CNTY":"45019","NMCNTY":"Charleston County","LOCALE":"12","SCHOOLYEAR":"2024-2025"}},{"type":"Feature","geometry":{"type":"Point","coordinates":[-80.048931,32.96345]},"properties":{"NCESSCH":"450144001667","LEAID":"4501440","NAME":"Deer Park Middle","STATE":"SC","CITY":"North Charleston","ZIP":"29406","CNTY":"45019","NMCNTY":"Charleston County","LOCALE":"12","SCHOOLYEAR":"2024-2025"}},{"type":"Feature","geometry":{"type":"Point","coordinates":[-79.762405,32.889816]},"properties":{"NCESSCH":"450144001690","LEAID":"4501440","NAME":"Carolina Park Elementary","STATE":"SC","CITY":"Mt. Pleasant","ZIP":"29466","CNTY":"45019","NMCNTY":"Charleston County","LOCALE":"21","SCHOOLYEAR":"2024-2025"}},{"type":"Feature","geometry":{"type":"Point","coordinates":[-79.972521,32.734449]},"properties":{"NCESSCH":"450144001691","LEAID":"4501440","NAME":"Camp Road Middle","STATE":"SC","CITY":"Charleston","ZIP":"29412","CNTY":"45019","NMCNTY":"Charleston County","LOCALE":"21","SCHOOLYEAR":"2024-2025"}},{"type":"Feature","geometry":{"type":"Point","coordinates":[-79.845623,32.825677]},"properties":{"NCESSCH":"450144001746","LEAID":"4501440","NAME":"Lucy Garrett Beckham High","STATE":"SC","CITY":"Mt. Pleasant","ZIP":"29464","CNTY":"45019","NMCNTY":"Charleston County","LOCALE":"21","SCHOOLYEAR":"2024-2025"}},{"type":"Feature","geometry":{"type":"Point","coordinates":[-79.761711,32.8842]},"properties":{"NCESSCH":"450144001747","LEAID":"4501440","NAME":"East Cooper Center for Advanced Studies","STATE":"SC","CITY":"Mount Pleasant","ZIP":"29466","CNTY":"45019","NMCNTY":"Charleston County","LOCALE":"21","SCHOOLYEAR":"2024-2025"}},{"type":"Feature","geometry":{"type":"Point","coordinates":[-79.978535,32.882335]},"properties":{"NCESSCH":"450144001748","LEAID":"4501440","NAME":"Cooper River Center for Advanced Studies","STATE":"SC","CITY":"North Charleston","ZIP":"29405","CNTY":"45019","NMCNTY":"Charleston County","LOCALE":"12","SCHOOLYEAR":"2024-2025"}},{"type":"Feature","geometry":{"type":"Point","coordinates":[-80.075862,32.81859]},"properties":{"NCESSCH":"450144001761","LEAID":"4501440","NAME":"West Ashley Center for Advance Studies","STATE":"SC","CITY":"Charleston","ZIP":"29414","CNTY":"45019","NMCNTY":"Charleston County","LOCALE":"12","SCHOOLYEAR":"2024-2025"}},{"type":"Feature","geometry":{"type":"Point","coordinates":[-79.991142,32.854004]},"properties":{"NCESSCH":"450144001791","LEAID":"4501440","NAME":"Meeting Street at Burns","STATE":"SC","CITY":"North Charleston","ZIP":"29405","CNTY":"45019","NMCNTY":"Charleston County","LOCALE":"12","SCHOOLYEAR":"2024-2025"}},{"type":"Feature","geometry":{"type":"Point","coordinates":[-80.00527,32.858642]},"properties":{"NCESSCH":"450144001792","LEAID":"4501440","NAME":"Meeting Street Brentwood","STATE":"SC","CITY":"North Charleston","ZIP":"29405","CNTY":"45019","NMCNTY":"Charleston County","LOCALE":"12","SCHOOLYEAR":"2024-2025"}},{"type":"Feature","geometry":{"type":"Point","coordinates":[-81.515544,35.113259]},"properties":{"NCESSCH":"450150000271","LEAID":"4501500","NAME":"Blacksburg Middle","STATE":"SC","CITY":"Blacksburg","ZIP":"29702","CNTY":"45021","NMCNTY":"Cherokee County","LOCALE":"42","SCHOOLYEAR":"2024-2025"}},{"type":"Feature","geometry":{"type":"Point","coordinates":[-81.646175,35.009051]},"properties":{"NCESSCH":"450150000273","LEAID":"4501500","NAME":"Corinth Elementary","STATE":"SC","CITY":"Gaffney","ZIP":"29340","CNTY":"45021","NMCNTY":"Cherokee County","LOCALE":"41","SCHOOLYEAR":"2024-2025"}},{"type":"Feature","geometry":{"type":"Point","coordinates":[-81.58529,35.033646]},"properties":{"NCESSCH":"450150000274","LEAID":"4501500","NAME":"Draytonville Elementary","STATE":"SC","CITY":"Gaffney","ZIP":"29340","CNTY":"45021","NMCNTY":"Cherokee County","LOCALE":"41","SCHOOLYEAR":"2024-2025"}},{"type":"Feature","geometry":{"type":"Point","coordinates":[-81.661669,35.077335]},"properties":{"NCESSCH":"450150000278","LEAID":"4501500","NAME":"B. D. Lee Elementary","STATE":"SC","CITY":"Gaffney","ZIP":"29341","CNTY":"45021","NMCNTY":"Cherokee County","LOCALE":"32","SCHOOLYEAR":"2024-2025"}},{"type":"Feature","geometry":{"type":"Point","coordinates":[-81.639687,35.098346]},"properties":{"NCESSCH":"450150000282","LEAID":"4501500","NAME":"Luther L. Vaughan  Elementary","STATE":"SC","CITY":"Gaffney","ZIP":"29341","CNTY":"45021","NMCNTY":"Cherokee County","LOCALE":"32","SCHOOLYEAR":"2024-2025"}},{"type":"Feature","geometry":{"type":"Point","coordinates":[-81.514029,35.114465]},"properties":{"NCESSCH":"450150000283","LEAID":"4501500","NAME":"Blacksburg High","STATE":"SC","CITY":"Blacksburg","ZIP":"29702","CNTY":"45021","NMCNTY":"Cherokee County","LOCALE":"42","SCHOOLYEAR":"2024-2025"}},{"type":"Feature","geometry":{"type":"Point","coordinates":[-81.630047,35.056339]},"properties":{"NCESSCH":"450150000284","LEAID":"4501500","NAME":"John E. Ewing Middle","STATE":"SC","CITY":"Gaffney","ZIP":"29340","CNTY":"45021","NMCNTY":"Cherokee County","LOCALE":"32","SCHOOLYEAR":"2024-2025"}},{"type":"Feature","geometry":{"type":"Point","coordinates":[-81.682373,35.067436]},"properties":{"NCESSCH":"450150000285","LEAID":"4501500","NAME":"Gaffney High","STATE":"SC","CITY":"Gaffney","ZIP":"29341","CNTY":"45021","NMCNTY":"Cherokee County","LOCALE":"32","SCHOOLYEAR":"2024-2025"}},{"type":"Feature","geometry":{"type":"Point","coordinates":[-81.671281,35.048812]},"properties":{"NCESSCH":"450150000287","LEAID":"4501500","NAME":"Limestone-Central Elementary","STATE":"SC","CITY":"Gaffney","ZIP":"29341","CNTY":"45021","NMCNTY":"Cherokee County","LOCALE":"41","SCHOOLYEAR":"2024-2025"}},{"type":"Feature","geometry":{"type":"Point","coordinates":[-81.684737,35.100273]},"properties":{"NCESSCH":"450150000288","LEAID":"4501500","NAME":"Institute of Innovation","STATE":"SC","CITY":"Gaffney","ZIP":"29341","CNTY":"45021","NMCNTY":"Cherokee County","LOCALE":"32","SCHOOLYEAR":"2024-2025"}},{"type":"Feature","geometry":{"type":"Point","coordinates":[-81.667137,35.133787]},"properties":{"NCESSCH":"450150000296","LEAID":"4501500","NAME":"Grassy Pond Elementary","STATE":"SC","CITY":"Gaffney","ZIP":"29341","CNTY":"45021","NMCNTY":"Cherokee County","LOCALE":"41","SCHOOLYEAR":"2024-2025"}},{"type":"Feature","geometry":{"type":"Point","coordinates":[-81.763402,35.10368]},"properties":{"NCESSCH":"450150000297","LEAID":"4501500","NAME":"Northwest Elementary","STATE":"SC","CITY":"Gaffney","ZIP":"29341","CNTY":"45021","NMCNTY":"Cherokee County","LOCALE":"42","SCHOOLYEAR":"2024-2025"}},{"type":"Feature","geometry":{"type":"Point","coordinates":[-81.641258,35.066659]},"properties":{"NCESSCH":"450150000549","LEAID":"4501500","NAME":"Gaffney Middle","STATE":"SC","CITY":"Gaffney","ZIP":"29340","CNTY":"45021","NMCNTY":"Cherokee County","LOCALE":"32","SCHOOLYEAR":"2024-2025"}},{"type":"Feature","geometry":{"type":"Point","coordinates":[-81.48909,35.12885]},"properties":{"NCESSCH":"450150000859","LEAID":"4501500","NAME":"Blacksburg Primary","STATE":"SC","CITY":"Blacksburg","ZIP":"29702","CNTY":"45021","NMCNTY":"Cherokee County","LOCALE":"42","SCHOOLYEAR":"2024-2025"}},{"type":"Feature","geometry":{"type":"Point","coordinates":[-81.518197,35.114683]},"properties":{"NCESSCH":"450150001391","LEAID":"4501500","NAME":"Blacksburg Elementary","STATE":"SC","CITY":"Blacksburg","ZIP":"29702","CNTY":"45021","NMCNTY":"Cherokee County","LOCALE":"42","SCHOOLYEAR":"2024-2025"}},{"type":"Feature","geometry":{"type":"Point","coordinates":[-81.177553,34.713687]},"properties":{"NCESSCH":"450153000036","LEAID":"4501530","NAME":"Chester Park School Elementary of Inquiry","STATE":"SC","CITY":"Chester","ZIP":"29706","CNTY":"45023","NMCNTY":"Chester County","LOCALE":"41","SCHOOLYEAR":"2024-2025"}},{"type":"Feature","geometry":{"type":"Point","coordinates":[-80.896362,34.572316]},"properties":{"NCESSCH":"450153000291","LEAID":"4501530","NAME":"Great Falls Elementary","STATE":"SC","CITY":"Great Falls","ZIP":"29055","CNTY":"45023","NMCNTY":"Chester County","LOCALE":"42","SCHOOLYEAR":"2024-2025"}},{"type":"Feature","geometry":{"type":"Point","coordinates":[-80.998554,34.719785]},"properties":{"NCESSCH":"450153000292","LEAID":"4501530","NAME":"Lewisville Elementary","STATE":"SC","CITY":"Richburg","ZIP":"29729","CNTY":"45023","NMCNTY":"Chester County","LOCALE":"42","SCHOOLYEAR":"2024-2025"}},{"type":"Feature","geometry":{"type":"Point","coordinates":[-81.201363,34.688699]},"properties":{"NCESSCH":"450153000298","LEAID":"4501530","NAME":"Chester Senior High","STATE":"SC","CITY":"Chester","ZIP":"29706","CNTY":"45023","NMCNTY":"Chester County","LOCALE":"32","SCHOOLYEAR":"2024-2025"}},{"type":"Feature","geometry":{"type":"Point","coordinates":[-81.180176,34.717368]},"properties":{"NCESSCH":"450153000299","LEAID":"4501530","NAME":"Chester Middle","STATE":"SC","CITY":"Chester","ZIP":"29706","CNTY":"45023","NMCNTY":"Chester County","LOCALE":"41","SCHOOLYEAR":"2024-2025"}},{"type":"Feature","geometry":{"type":"Point","coordinates":[-80.917015,34.57589]},"properties":{"NCESSCH":"450153000300","LEAID":"4501530","NAME":"Great Falls High","STATE":"SC","CITY":"Great Falls","ZIP":"29055","CNTY":"45023","NMCNTY":"Chester County","LOCALE":"42","SCHOOLYEAR":"2024-2025"}},{"type":"Feature","geometry":{"type":"Point","coordinates":[-81.002917,34.719817]},