{"type":"FeatureCollection","features":[{"type":"Feature","geometry":{"type":"Point","coordinates":[-116.917391,48.189478]},"properties":{"NCESSCH":"160000100084","LEAID":"1600001","NAME":"PRIEST RIVER LAMANNA HIGH","STATE":"ID","CITY":"PRIEST RIVER","ZIP":"83856","CNTY":"16017","NMCNTY":"Bonner County","LOCALE":"43","SCHOOLYEAR":"2024-2025"}},{"type":"Feature","geometry":{"type":"Point","coordinates":[-116.918877,48.181063]},"properties":{"NCESSCH":"160000100085","LEAID":"1600001","NAME":"PRIEST RIVER JR HIGH SCHOOL","STATE":"ID","CITY":"PRIEST RIVER","ZIP":"83856","CNTY":"16017","NMCNTY":"Bonner County","LOCALE":"43","SCHOOLYEAR":"2024-2025"}},{"type":"Feature","geometry":{"type":"Point","coordinates":[-117.035155,48.179433]},"properties":{"NCESSCH":"160000100613","LEAID":"1600001","NAME":"IDAHO HILL ELEMENTARY SCHOOL","STATE":"ID","CITY":"OLDTOWN","ZIP":"83822","CNTY":"16017","NMCNTY":"Bonner County","LOCALE":"43","SCHOOLYEAR":"2024-2025"}},{"type":"Feature","geometry":{"type":"Point","coordinates":[-116.910726,48.185774]},"properties":{"NCESSCH":"160000100619","LEAID":"1600001","NAME":"PRIEST RIVER ELEMENTARY SCHOOL","STATE":"ID","CITY":"PRIEST RIVER","ZIP":"83856","CNTY":"16017","NMCNTY":"Bonner County","LOCALE":"43","SCHOOLYEAR":"2024-2025"}},{"type":"Feature","geometry":{"type":"Point","coordinates":[-116.92578,48.513971]},"properties":{"NCESSCH":"160000100620","LEAID":"1600001","NAME":"PRIEST LAKE ELEMENTARY SCHOOL","STATE":"ID","CITY":"PRIEST LAKE","ZIP":"83856","CNTY":"16017","NMCNTY":"Bonner County","LOCALE":"43","SCHOOLYEAR":"2024-2025"}},{"type":"Feature","geometry":{"type":"Point","coordinates":[-116.175561,48.146845]},"properties":{"NCESSCH":"160000200082","LEAID":"1600002","NAME":"CLARK FORK JR/SR HIGH SCHOOL","STATE":"ID","CITY":"CLARK FORK","ZIP":"83811","CNTY":"16017","NMCNTY":"Bonner County","LOCALE":"43","SCHOOLYEAR":"2024-2025"}},{"type":"Feature","geometry":{"type":"Point","coordinates":[-116.570742,48.267939]},"properties":{"NCESSCH":"160000200087","LEAID":"1600002","NAME":"SANDPOINT HIGH SCHOOL","STATE":"ID","CITY":"SANDPOINT","ZIP":"83864","CNTY":"16017","NMCNTY":"Bonner County","LOCALE":"32","SCHOOLYEAR":"2024-2025"}},{"type":"Feature","geometry":{"type":"Point","coordinates":[-116.51727,48.312017]},"properties":{"NCESSCH":"160000200603","LEAID":"1600002","NAME":"KOOTENAI ELEMENTARY SCHOOL","STATE":"ID","CITY":"KOOTENAI","ZIP":"83840","CNTY":"16017","NMCNTY":"Bonner County","LOCALE":"32","SCHOOLYEAR":"2024-2025"}},{"type":"Feature","geometry":{"type":"Point","coordinates":[-116.558202,48.308159]},"properties":{"NCESSCH":"160000200604","LEAID":"1600002","NAME":"SANDPOINT JUVENILE DETENTION","STATE":"ID","CITY":"SANDPOINT","ZIP":"83864","CNTY":"16017","NMCNTY":"Bonner County","LOCALE":"32","SCHOOLYEAR":"2024-2025"}},{"type":"Feature","geometry":{"type":"Point","coordinates":[-116.263874,48.217001]},"properties":{"NCESSCH":"160000200614","LEAID":"1600002","NAME":"HOPE ELEMENTARY SCHOOL","STATE":"ID","CITY":"HOPE","ZIP":"83836","CNTY":"16017","NMCNTY":"Bonner County","LOCALE":"43","SCHOOLYEAR":"2024-2025"}},{"type":"Feature","geometry":{"type":"Point","coordinates":[-116.571995,48.282789]},"properties":{"NCESSCH":"160000200615","LEAID":"1600002","NAME":"FARMIN STIDWELL ELEMENTARY SCHOOL","STATE":"ID","CITY":"SANDPOINT","ZIP":"83864","CNTY":"16017","NMCNTY":"Bonner County","LOCALE":"32","SCHOOLYEAR":"2024-2025"}},{"type":"Feature","geometry":{"type":"Point","coordinates":[-116.615744,48.103006]},"properties":{"NCESSCH":"160000200616","LEAID":"1600002","NAME":"SOUTHSIDE ELEMENTARY SCHOOL","STATE":"ID","CITY":"COCOLALLA","ZIP":"83813","CNTY":"16017","NMCNTY":"Bonner County","LOCALE":"42","SCHOOLYEAR":"2024-2025"}},{"type":"Feature","geometry":{"type":"Point","coordinates":[-116.557759,48.26805]},"properties":{"NCESSCH":"160000200617","LEAID":"1600002","NAME":"WASHINGTON ELEMENTARY SCHOOL","STATE":"ID","CITY":"SANDPOINT","ZIP":"83864","CNTY":"16017","NMCNTY":"Bonner County","LOCALE":"32","SCHOOLYEAR":"2024-2025"}},{"type":"Feature","geometry":{"type":"Point","coordinates":[-116.553766,48.202586]},"properties":{"NCESSCH":"160000200618","LEAID":"1600002","NAME":"SAGLE ELEMENTARY SCHOOL","STATE":"ID","CITY":"SAGLE","ZIP":"83860","CNTY":"16017","NMCNTY":"Bonner County","LOCALE":"41","SCHOOLYEAR":"2024-2025"}},{"type":"Feature","geometry":{"type":"Point","coordinates":[-116.43909,48.364585]},"properties":{"NCESSCH":"160000200621","LEAID":"1600002","NAME":"NORTHSIDE ELEMENTARY SCHOOL","STATE":"ID","CITY":"SANDPOINT","ZIP":"83864","CNTY":"16017","NMCNTY":"Bonner County","LOCALE":"42","SCHOOLYEAR":"2024-2025"}},{"type":"Feature","geometry":{"type":"Point","coordinates":[-116.557675,48.282801]},"properties":{"NCESSCH":"160000200691","LEAID":"1600002","NAME":"LAKE PEND OREILLE HIGH SCHOOL","STATE":"ID","CITY":"SANDPOINT","ZIP":"83864","CNTY":"16017","NMCNTY":"Bonner County","LOCALE":"32","SCHOOLYEAR":"2024-2025"}},{"type":"Feature","geometry":{"type":"Point","coordinates":[-116.56927,48.2701]},"properties":{"NCESSCH":"160000200724","LEAID":"1600002","NAME":"SANDPOINT MIDDLE SCHOOL","STATE":"ID","CITY":"SANDPOINT","ZIP":"83864","CNTY":"16017","NMCNTY":"Bonner County","LOCALE":"32","SCHOOLYEAR":"2024-2025"}},{"type":"Feature","geometry":{"type":"Point","coordinates":[-116.56853,48.268152]},"properties":{"NCESSCH":"160000201086","LEAID":"1600002","NAME":"LPOSD HOME SCHOOL ACADEMY","STATE":"ID","CITY":"SANDPOINT","ZIP":"83864","CNTY":"16017","NMCNTY":"Bonner County","LOCALE":"32","SCHOOLYEAR":"2024-2025"}},{"type":"Feature","geometry":{"type":"Point","coordinates":[-116.55896,43.514386]},"properties":{"NCESSCH":"160000300858","LEAID":"1600003","NAME":"VICTORY CHARTER SCHOOL","STATE":"ID","CITY":"NAMPA","ZIP":"83686","CNTY":"16027","NMCNTY":"Canyon County","LOCALE":"22","SCHOOLYEAR":"2024-2025"}},{"type":"Feature","geometry":{"type":"Point","coordinates":[-116.355531,43.587082]},"properties":{"NCESSCH":"160000400859","LEAID":"1600004","NAME":"IDAHO VIRTUAL ACADEMY","STATE":"ID","CITY":"MERIDIAN","ZIP":"83642","CNTY":"16001","NMCNTY":"Ada County","LOCALE":"21","SCHOOLYEAR":"2024-2025"}},{"type":"Feature","geometry":{"type":"Point","coordinates":[-116.355531,43.587082]},"properties":{"NCESSCH":"160000401035","LEAID":"1600004","NAME":"INSIGHT SCHOOL OF IDAHO","STATE":"ID","CITY":"MERIDIAN","ZIP":"83642","CNTY":"16001","NMCNTY":"Ada County","LOCALE":"21","SCHOOLYEAR":"2024-2025"}},{"type":"Feature","geometry":{"type":"Point","coordinates":[-115.70284,43.125336]},"properties":{"NCESSCH":"160000500862","LEAID":"1600005","NAME":"RICHARD MCKENNA CHARTER SCHOOL - ONLINE","STATE":"ID","CITY":"MOUNTAIN HOME","ZIP":"83647","CNTY":"16039","NMCNTY":"Elmore County","LOCALE":"32","SCHOOLYEAR":"2024-2025"}},{"type":"Feature","geometry":{"type":"Point","coordinates":[-115.675564,43.137137]},"properties":{"NCESSCH":"160000501056","LEAID":"1600005","NAME":"RICHARD MCKENNA CHARTER SCHOOL - ONLINE ALTERNATIVE","STATE":"ID","CITY":"MOUNTAIN HOME","ZIP":"83647","CNTY":"16039","NMCNTY":"Elmore County","LOCALE":"32","SCHOOLYEAR":"2024-2025"}},{"type":"Feature","geometry":{"type":"Point","coordinates":[-115.683765,43.136866]},"properties":{"NCESSCH":"160000501087","LEAID":"1600005","NAME":"RICHARD MCKENNA CHARTER SCHOOL - MONTESSORI","STATE":"ID","CITY":"MOUNTAIN HOME","ZIP":"83647","CNTY":"16039","NMCNTY":"Elmore County","LOCALE":"32","SCHOOLYEAR":"2024-2025"}},{"type":"Feature","geometry":{"type":"Point","coordinates":[-115.70284,43.125336]},"properties":{"NCESSCH":"160000501108","LEAID":"1600005","NAME":"RICHARD MCKENNA CHARTER SCHOOL - ONSITE","STATE":"ID","CITY":"MOUNTAIN HOME","ZIP":"83647","CNTY":"16039","NMCNTY":"Elmore County","LOCALE":"32","SCHOOLYEAR":"2024-2025"}},{"type":"Feature","geometry":{"type":"Point","coordinates":[-116.312112,43.689434]},"properties":{"NCESSCH":"160000600863","LEAID":"1600006","NAME":"ROLLING HILLS PUBLIC CHARTER","STATE":"ID","CITY":"BOISE","ZIP":"83714","CNTY":"16001","NMCNTY":"Ada County","LOCALE":"12","SCHOOLYEAR":"2024-2025"}},{"type":"Feature","geometry":{"type":"Point","coordinates":[-116.45182,43.607304]},"properties":{"NCESSCH":"160000700864","LEAID":"1600007","NAME":"COMPASS PUBLIC CHARTER SCHOOL","STATE":"ID","CITY":"MERIDIAN","ZIP":"83642","CNTY":"16001","NMCNTY":"Ada County","LOCALE":"41","SCHOOLYEAR":"2024-2025"}},{"type":"Feature","geometry":{"type":"Point","coordinates":[-116.432841,43.487976]},"properties":{"NCESSCH":"160000800865","LEAID":"1600008","NAME":"FALCON RIDGE PUBLIC CHARTER","STATE":"ID","CITY":"KUNA","ZIP":"83634","CNTY":"16001","NMCNTY":"Ada County","LOCALE":"31","SCHOOLYEAR":"2024-2025"}},{"type":"Feature","geometry":{"type":"Point","coordinates":[-116.766453,46.747052]},"properties":{"NCESSCH":"160000900581","LEAID":"1600009","NAME":"TROY ELEMENTARY SCHOOL","STATE":"ID","CITY":"TROY","ZIP":"83871","CNTY":"16057","NMCNTY":"Latah County","LOCALE":"42","SCHOOLYEAR":"2024-2025"}},{"type":"Feature","geometry":{"type":"Point","coordinates":[-116.767502,46.747412]},"properties":{"NCESSCH":"160000900582","LEAID":"1600009","NAME":"TROY JR/SR HIGH SCHOOL","STATE":"ID","CITY":"TROY","ZIP":"83871","CNTY":"16057","NMCNTY":"Latah County","LOCALE":"42","SCHOOLYEAR":"2024-2025"}},{"type":"Feature","geometry":{"type":"Point","coordinates":[-116.393537,46.859553]},"properties":{"NCESSCH":"160001000578","LEAID":"1600010","NAME":"BOVILL ELEMENTARY SCHOOL","STATE":"ID","CITY":"BOVILL","ZIP":"83806","CNTY":"16057","NMCNTY":"Latah County","LOCALE":"43","SCHOOLYEAR":"2024-2025"}},{"type":"Feature","geometry":{"type":"Point","coordinates":[-116.559028,46.797482]},"properties":{"NCESSCH":"160001000579","LEAID":"1600010","NAME":"DEARY SCHOOL","STATE":"ID","CITY":"DEARY","ZIP":"83823","CNTY":"16057","NMCNTY":"Latah County","LOCALE":"43","SCHOOLYEAR":"2024-2025"}},{"type":"Feature","geometry":{"type":"Point","coordinates":[-116.301159,43.606341]},"properties":{"NCESSCH":"160001100866","LEAID":"1600011","NAME":"INSPIRE VIRTUAL CHARTER SCHOOL","STATE":"ID","CITY":"BOISE","ZIP":"83709","CNTY":"16001","NMCNTY":"Ada County","LOCALE":"12","SCHOOLYEAR":"2024-2025"}},{"type":"Feature","geometry":{"type":"Point","coordinates":[-116.301159,43.606341]},"properties":{"NCESSCH":"160001101120","LEAID":"1600011","NAME":"EMPOWER CONNECTIONS ACADEMY","STATE":"ID","CITY":"BOISE","ZIP":"83709","CNTY":"16001","NMCNTY":"Ada County","LOCALE":"12","SCHOOLYEAR":"2024-2025"}},{"type":"Feature","geometry":{"type":"Point","coordinates":[-116.559261,43.51654]},"properties":{"NCESSCH":"160001200867","LEAID":"1600012","NAME":"LIBERTY CHARTER SCHOOL","STATE":"ID","CITY":"NAMPA","ZIP":"83686","CNTY":"16027","NMCNTY":"Canyon County","LOCALE":"22","SCHOOLYEAR":"2024-2025"}},{"type":"Feature","geometry":{"type":"Point","coordinates":[-112.494661,42.914234]},"properties":{"NCESSCH":"160001400891","LEAID":"1600014","NAME":"CONNOR ACADEMY","STATE":"ID","CITY":"CHUBBUCK","ZIP":"83202","CNTY":"16005","NMCNTY":"Bannock County","LOCALE":"23","SCHOOLYEAR":"2024-2025"}},{"type":"Feature","geometry":{"type":"Point","coordinates":[-112.492825,42.913994]},"properties":{"NCESSCH":"160001401186","LEAID":"1600014","NAME":"ALPINE ACADEMY","STATE":"ID","CITY":"CHUBBUCK","ZIP":"83202","CNTY":"16005","NMCNTY":"Bannock County","LOCALE":"23","SCHOOLYEAR":"2024-2025"}},{"type":"Feature","geometry":{"type":"Point","coordinates":[-111.93848,43.508243]},"properties":{"NCESSCH":"160001500892","LEAID":"1600015","NAME":"TAYLORS CROSSING CHARTER SCHOOL","STATE":"ID","CITY":"IDAHO FALLS","ZIP":"83401","CNTY":"16019","NMCNTY":"Bonneville County","LOCALE":"41","SCHOOLYEAR":"2024-2025"}},{"type":"Feature","geometry":{"type":"Point","coordinates":[-111.715077,43.96916]},"properties":{"NCESSCH":"160001600920","LEAID":"1600016","NAME":"JCC - ST ANTHONY","STATE":"ID","CITY":"ST ANTHONY","ZIP":"83445","CNTY":"16043","NMCNTY":"Fremont County","LOCALE":"42","SCHOOLYEAR":"2024-2025"}},{"type":"Feature","geometry":{"type":"Point","coordinates":[-116.533486,43.599663]},"properties":{"NCESSCH":"160001600926","LEAID":"1600016","NAME":"JCC - NAMPA","STATE":"ID","CITY":"NAMPA","ZIP":"83687","CNTY":"16027","NMCNTY":"Canyon County","LOCALE":"22","SCHOOLYEAR":"2024-2025"}},{"type":"Feature","geometry":{"type":"Point","coordinates":[-117.035279,46.365225]},"properties":{"NCESSCH":"160001600990","LEAID":"1600016","NAME":"JCC - LEWISTON","STATE":"ID","CITY":"LEWISTON","ZIP":"83501","CNTY":"16069","NMCNTY":"Nez Perce County","LOCALE":"41","SCHOOLYEAR":"2024-2025"}},{"type":"Feature","geometry":{"type":"Point","coordinates":[-116.244495,43.615609]},"properties":{"NCESSCH":"160001700921","LEAID":"1600017","NAME":"Robert Janss School","STATE":"ID","CITY":"BOISE","ZIP":"83706","CNTY":"16001","NMCNTY":"Ada County","LOCALE":"12","SCHOOLYEAR":"2024-2025"}},{"type":"Feature","geometry":{"type":"Point","coordinates":[-112.845456,42.941254]},"properties":{"NCESSCH":"160003000002","LEAID":"1600030","NAME":"ABERDEEN HIGH SCHOOL","STATE":"ID","CITY":"ABERDEEN","ZIP":"83210","CNTY":"16011","NMCNTY":"Bingham County","LOCALE":"42","SCHOOLYEAR":"2024-2025"}},{"type":"Feature","geometry":{"type":"Point","coordinates":[-112.844507,42.943534]},"properties":{"NCESSCH":"160003000828","LEAID":"1600030","NAME":"ABERDEEN ELEMENTARY SCHOOL","STATE":"ID","CITY":"ABERDEEN","ZIP":"83210","CNTY":"16011","NMCNTY":"Bingham County","LOCALE":"42","SCHOOLYEAR":"2024-2025"}},{"type":"Feature","geometry":{"type":"Point","coordinates":[-112.845221,42.942217]},"properties":{"NCESSCH":"160003000829","LEAID":"1600030","NAME":"ABERDEEN MIDDLE SCHOOL","STATE":"ID","CITY":"ABERDEEN","ZIP":"83210","CNTY":"16011","NMCNTY":"Bingham County","LOCALE":"42","SCHOOLYEAR":"2024-2025"}},{"type":"Feature","geometry":{"type":"Point","coordinates":[-112.865739,42.766373]},"properties":{"NCESSCH":"160006000003","LEAID":"1600060","NAME":"AMERICAN FALLS HIGH SCHOOL","STATE":"ID","CITY":"AMERICAN FALLS","ZIP":"83211","CNTY":"16077","NMCNTY":"Power County","LOCALE":"42","SCHOOLYEAR":"2024-2025"}},{"type":"Feature","geometry":{"type":"Point","coordinates":[-112.856159,42.775046]},"properties":{"NCESSCH":"160006000005","LEAID":"1600060","NAME":"HILLCREST ELEMENTARY SCHOOL","STATE":"ID","CITY":"AMERICAN FALLS","ZIP":"83211","CNTY":"16077","NMCNTY":"Power County","LOCALE":"42","SCHOOLYEAR":"2024-2025"}},{"type":"Feature","geometry":{"type":"Point","coordinates":[-112.846837,42.786292]},"properties":{"NCESSCH":"160006000589","LEAID":"1600060","NAME":"WILLIAM THOMAS MIDDLE SCHOOL","STATE":"ID","CITY":"AMERICAN FALLS","ZIP":"83211","CNTY":"16077","NMCNTY":"Power County","LOCALE":"42","SCHOOLYEAR":"2024-2025"}},{"type":"Feature","geometry":{"type":"Point","coordinates":[-112.859437,42.773189]},"properties":{"NCESSCH":"160006000768","LEAID":"1600060","NAME":"AMERICAN FALLS ACADEMY","STATE":"ID","CITY":"AMERICAN FALLS","ZIP":"83211","CNTY":"16077","NMCNTY":"Power County","LOCALE":"42","SCHOOLYEAR":"2024-2025"}},{"type":"Feature","geometry":{"type":"Point","coordinates":[-112.855828,42.779084]},"properties":{"NCESSCH":"160006000816","LEAID":"1600060","NAME":"J.R. SIMPLOT ELEMENTARY SCHOOL","STATE":"ID","CITY":"AMERICAN FALLS","ZIP":"83211","CNTY":"16077","NMCNTY":"Power County","LOCALE":"42","SCHOOLYEAR":"2024-2025"}},{"type":"Feature","geometry":{"type":"Point","coordinates":[-112.554035,42.560553]},"properties":{"NCESSCH":"160009000006","LEAID":"1600090","NAME":"ARBON ELEMENTARY SCHOOL","STATE":"ID","CITY":"ARBON","ZIP":"83212","CNTY":"16077","NMCNTY":"Power County","LOCALE":"42","SCHOOLYEAR":"2024-2025"}},{"type":"Feature","geometry":{"type":"Point","coordinates":[-116.319529,45.418587]},"properties":{"NCESSCH":"160013800944","LEAID":"1600138","NAME":"SALMON RIVER JR/SR HIGH SCHOOL","STATE":"ID","CITY":"RIGGINS","ZIP":"83549","CNTY":"16049","NMCNTY":"Idaho County","LOCALE":"43","SCHOOLYEAR":"2024-2025"}},{"type":"Feature","geometry":{"type":"Point","coordinates":[-116.314861,45.422887]},"properties":{"NCESSCH":"160013800959","LEAID":"1600138","NAME":"RIGGINS ELEMENTARY SCHOOL","STATE":"ID","CITY":"RIGGINS","ZIP":"83549","CNTY":"16049","NMCNTY":"Idaho County","LOCALE":"43","SCHOOLYEAR":"2024-2025"}},{"type":"Feature","geometry":{"type":"Point","coordinates":[-115.435351,45.828329]},"properties":{"NCESSCH":"160013900933","LEAID":"1600139","NAME":"ELK CITY SCHOOL","STATE":"ID","CITY":"ELK CITY","ZIP":"83525","CNTY":"16049","NMCNTY":"Idaho County","LOCALE":"43","SCHOOLYEAR":"2024-2025"}},{"type":"Feature","geometry":{"type":"Point","coordinates":[-115.977951,46.116112]},"properties":{"NCESSCH":"160013900936","LEAID":"1600139","NAME":"CLEARWATER VALLEY JR/SR","STATE":"ID","CITY":"KOOSKIA","ZIP":"83539","CNTY":"16049","NMCNTY":"Idaho County","LOCALE":"43","SCHOOLYEAR":"2024-2025"}},{"type":"Feature","geometry":{"type":"Point","coordinates":[-116.130928,45.918688]},"properties":{"NCESSCH":"160013900937","LEAID":"1600139","NAME":"GRANGEVILLE HIGH SCHOOL","STATE":"ID","CITY":"GRANGEVILLE","ZIP":"83530","CNTY":"16049","NMCNTY":"Idaho County","LOCALE":"43","SCHOOLYEAR":"2024-2025"}},{"type":"Feature","geometry":{"type":"Point","coordinates":[-116.124674,45.923418]},"properties":{"NCESSCH":"160013900946","LEAID":"1600139","NAME":"GRANGEVILLE ELEM/MIDDLE SCHOOL","STATE":"ID","CITY":"GRANGEVILLE","ZIP":"83530","CNTY":"16049","NMCNTY":"Idaho County","LOCALE":"43","SCHOOLYEAR":"2024-2025"}},{"type":"Feature","geometry":{"type":"Point","coordinates":[-115.9744,46.146155]},"properties":{"NCESSCH":"160013900961","LEAID":"1600139","NAME":"CLEARWATER VALLEY ELEMENTARY","STATE":"ID","CITY":"KOOSKIA","ZIP":"83539","CNTY":"16049","NMCNTY":"Idaho County","LOCALE":"43","SCHOOLYEAR":"2024-2025"}},{"type":"Feature","geometry":{"type":"Point","coordinates":[-114.508627,42.586689]},"properties":{"NCESSCH":"160014000949","LEAID":"1600140","NAME":"XAVIER CHARTER SCHOOL","STATE":"ID","CITY":"TWIN FALLS","ZIP":"83301","CNTY":"16083","NMCNTY":"Twin Falls County","LOCALE":"13","SCHOOLYEAR":"2024-2025"}},{"type":"Feature","geometry":{"type":"Point","coordinates":[-116.62459,43.651985]},"properties":{"NCESSCH":"160014100942","LEAID":"1600141","NAME":"VISION CHARTER SCHOOL","STATE":"ID","CITY":"CALDWELL","ZIP":"83605","CNTY":"16027","NMCNTY":"Canyon County","LOCALE":"22","SCHOOLYEAR":"2024-2025"}},{"type":"Feature","geometry":{"type":"Point","coordinates":[-111.975297,43.492181]},"properties":{"NCESSCH":"160014200809","LEAID":"1600142","NAME":"WHITE PINE CHARTER SCHOOL","STATE":"ID","CITY":"AMMON","ZIP":"83406","CNTY":"16019","NMCNTY":"Bonneville County","LOCALE":"22","SCHOOLYEAR":"2024-2025"}},{"type":"Feature","geometry":{"type":"Point","coordinates":[-114.712443,42.935967]},"properties":{"NCESSCH":"160014300968","LEAID":"1600143","NAME":"NORTH VALLEY ACADEMY","STATE":"ID","CITY":"GOODING","ZIP":"83330","CNTY":"16047","NMCNTY":"Gooding County","LOCALE":"43","SCHOOLYEAR":"2024-2025"}},{"type":"Feature","geometry":{"type":"Point","coordinates":[-116.340851,43.6607]},"properties":{"NCESSCH":"160014400967","LEAID":"1600144","NAME":"iSUCCEED VIRTUAL HIGH SCHOOL","STATE":"ID","CITY":"BOISE","ZIP":"83713","CNTY":"16001","NMCNTY":"Ada County","LOCALE":"12","SCHOOLYEAR":"2024-2025"}},{"type":"Feature","geometry":{"type":"Point","coordinates":[-116.340851,43.6607]},"properties":{"NCESSCH":"160014401111","LEAID":"1600144","NAME":"iSucceed Academy","STATE":"ID","CITY":"BOISE","ZIP":"83713","CNTY":"16001","NMCNTY":"Ada County","LOCALE":"12","SCHOOLYEAR":"2024-2025"}},{"type":"Feature","geometry":{"type":"Point","coordinates":[-112.403569,43.199534]},"properties":{"NCESSCH":"160014500996","LEAID":"1600145","NAME":"IDAHO SCIENCE AND TECHNOLOGY CHARTER SCHOOL","STATE":"ID","CITY":"BLACKFOOT","ZIP":"83221","CNTY":"16011","NMCNTY":"Bingham County","LOCALE":"41","SCHOOLYEAR":"2024-2025"}},{"type":"Feature","geometry":{"type":"Point","coordinates":[-116.28248,43.648928]},"properties":{"NCESSCH":"160014800993","LEAID":"1600148","NAME":"IDAHO CONNECTS ONLINE SCHOOL","STATE":"ID","CITY":"NAMPA","ZIP":"83687","CNTY":"16001","NMCNTY":"Ada County","LOCALE":"21","SCHOOLYEAR":"2024-2025"}},{"type":"Feature","geometry":{"type":"Point","coordinates":[-116.339963,43.662366]},"properties":{"NCESSCH":"160014801023","LEAID":"1600148","NAME":"IDAHO CONNECTS ONLINE ALTERNATIVE SCHOOL","STATE":"ID","CITY":"BOISE","ZIP":"83713","CNTY":"16001","NMCNTY":"Ada County","LOCALE":"12","SCHOOLYEAR":"2024-2025"}},{"type":"Feature","geometry":{"type":"Point","coordinates":[-116.792214,47.67889]},"properties":{"NCESSCH":"160014900992","LEAID":"1600149","NAME":"KOOTENAI BRIDGE ACADEMY","STATE":"ID","CITY":"COEUR D'ALENE","ZIP":"83814","CNTY":"16055","NMCNTY":"Kootenai County","LOCALE":"13","SCHOOLYEAR":"2024-2025"}},{"type":"Feature","geometry":{"type":"Point","coordinates":[-116.18679,47.276381]},"properties":{"NCESSCH":"160015001010","LEAID":"1600150","NAME":"CALDER SCHOOL","STATE":"ID","CITY":"CALDER","ZIP":"83808","CNTY":"16079","NMCNTY":"Shoshone County","LOCALE":"43","SCHOOLYEAR":"2024-2025"}},{"type":"Feature","geometry":{"type":"Point","coordinates":[-116.995307,46.717009]},"properties":{"NCESSCH":"160015100994","LEAID":"1600151","NAME":"PALOUSE PRAIRIE CHARTER SCHOOL","STATE":"ID","CITY":"MOSCOW","ZIP":"83843","CNTY":"16057","NMCNTY":"Latah County","LOCALE":"32","SCHOOLYEAR":"2024-2025"}},{"type":"Feature","geometry":{"type":"Point","coordinates":[-116.905469,43.681668]},"properties":{"NCESSCH":"160015200304","LEAID":"1600152","NAME":"COSSA ACADEMY","STATE":"ID","CITY":"WILDER","ZIP":"83676","CNTY":"16027","NMCNTY":"Canyon County","LOCALE":"42","SCHOOLYEAR":"2024-2025"}},{"type":"Feature","geometry":{"type":"Point","coordinates":[-112.37971,43.208878]},"properties":{"NCESSCH":"160015300796","LEAID":"1600153","NAME":"BLACKFOOT CHARTER COMMUNITY","STATE":"ID","CITY":"BLACKFOOT","ZIP":"83221","CNTY":"16011","NMCNTY":"Bingham County","LOCALE":"32","SCHOOLYEAR":"2024-2025"}},{"type":"Feature","geometry":{"type":"Point","coordinates":[-111.958511,43.454865]},"properties":{"NCESSCH":"160015401014","LEAID":"1600154","NAME":"MONTICELLO MONTESSORI CHARTER SCHOOL","STATE":"ID","CITY":"AMMON","ZIP":"83406","CNTY":"16019","NMCNTY":"Bonneville County","LOCALE":"22","SCHOOLYEAR":"2024-2025"}},{"type":"Feature","geometry":{"type":"Point","coordinates":[-116.179333,43.593679]},"properties":{"NCESSCH":"160015601007","LEAID":"1600156","NAME":"SAGE INTERNATIONAL SCHOOL OF BOISE","STATE":"ID","CITY":"BOISE","ZIP":"83706","CNTY":"16001","NMCNTY":"Ada County","LOCALE":"12","SCHOOLYEAR":"2024-2025"}},{"type":"Feature","geometry":{"type":"Point","coordinates":[-116.287631,43.620336]},"properties":{"NCESSCH":"160015701018","LEAID":"1600157","NAME":"VILLAGE LEADERSHIP ACADEMY","STATE":"ID","CITY":"MERIDIAN","ZIP":"83642","CNTY":"16001","NMCNTY":"Ada County","LOCALE":"12","SCHOOLYEAR":"2024-2025"}},{"type":"Feature","geometry":{"type":"Point","coordinates":[-116.53733,43.53051]},"properties":{"NCESSCH":"160015801019","LEAID":"1600158","NAME":"LEGACY CHARTER SCHOOL","STATE":"ID","CITY":"NAMPA","ZIP":"83686","CNTY":"16027","NMCNTY":"Canyon County","LOCALE":"22","SCHOOLYEAR":"2024-2025"}},{"type":"Feature","geometry":{"type":"Point","coordinates":[-114.517986,42.719776]},"properties":{"NCESSCH":"160015901017","LEAID":"1600159","NAME":"HERITAGE ACADEMY","STATE":"ID","CITY":"JEROME","ZIP":"83338","CNTY":"16053","NMCNTY":"Jerome County","LOCALE":"31","SCHOOLYEAR":"2024-2025"}},{"type":"Feature","geometry":{"type":"Point","coordinates":[-116.876574,47.814412]},"properties":{"NCESSCH":"160016001020","LEAID":"1600160","NAME":"NORTH IDAHO STEM CHARTER ACADEMY","STATE":"ID","CITY":"RATHDRUM","ZIP":"83858","CNTY":"16055","NMCNTY":"Kootenai County","LOCALE":"31","SCHOOLYEAR":"2024-2025"}},{"type":"Feature","geometry":{"type":"Point","coordinates":[-116.676518,43.634601]},"properties":{"NCESSCH":"160016101021","LEAID":"1600161","NAME":"HERITAGE COMMUNITY CHARTER","STATE":"ID","CITY":"CALDWELL","ZIP":"83605","CNTY":"16027","NMCNTY":"Canyon County","LOCALE":"22","SCHOOLYEAR":"2024-2025"}},{"type":"Feature","geometry":{"type":"Point","coordinates":[-112.10332,43.482021]},"properties":{"NCESSCH":"160016201044","LEAID":"1600162","NAME":"AMERICAN HERITAGE CHARTER SCHOOL","STATE":"ID","CITY":"IDAHO FALLS","ZIP":"83402","CNTY":"16019","NMCNTY":"Bonneville County","LOCALE":"41","SCHOOLYEAR":"2024-2025"}},{"type":"Feature","geometry":{"type":"Point","coordinates":[-112.438399,43.017427]},"properties":{"NCESSCH":"160016301040","LEAID":"1600163","NAME":"CHIEF TAHGEE ELEMENTARY ACADEMY","STATE":"ID","CITY":"FORT HALL","ZIP":"83203","CNTY":"16005","NMCNTY":"Bannock County","LOCALE":"41","SCHOOLYEAR":"2024-2025"}},{"type":"Feature","geometry":{"type":"Point","coordinates":[-116.571111,48.26418]},"properties":{"NCESSCH":"160016500772","LEAID":"1600165","NAME":"FORREST M BIRD CHARTER SCHOOL","STATE":"ID","CITY":"SANDPOINT","ZIP":"83864","CNTY":"16017","NMCNTY":"Bonner County","LOCALE":"32","SCHOOLYEAR":"2024-2025"}},{"type":"Feature","geometry":{"type":"Point","coordinates":[-114.275582,43.486569]},"properties":{"NCESSCH":"160016601066","LEAID":"1600166","NAME":"SYRINGA MOUNTAIN CHARTER SCHOOL","STATE":"ID","CITY":"HAILEY","ZIP":"83333","CNTY":"16013","NMCNTY":"Blaine County","LOCALE":"33","SCHOOLYEAR":"2024-2025"}},{"type":"Feature","geometry":{"type":"Point","coordinates":[-116.878333,47.786866]},"properties":{"NCESSCH":"160016701068","LEAID":"1600167","NAME":"KTEC School","STATE":"ID","CITY":"RATHDRUM","ZIP":"83858","CNTY":"16055","NMCNTY":"Kootenai County","LOCALE":"41","SCHOOLYEAR":"2024-2025"}},{"type":"Feature","geometry":{"type":"Point","coordinates":[-112.361784,43.194075]},"properties":{"NCESSCH":"160016901067","LEAID":"1600169","NAME":"BINGHAM ACADEMY","STATE":"ID","CITY":"BLACKFOOT","ZIP":"83221","CNTY":"16011","NMCNTY":"Bingham County","LOCALE":"32","SCHOOLYEAR":"2024-2025"}},{"type":"Feature","geometry":{"type":"Point","coordinates":[-113.81516,45.280103]},"properties":{"NCESSCH":"160017000847","LEAID":"1600170","NAME":"UPPER CARMEN PUBLIC CHARTER SCHOOL","STATE":"ID","CITY":"CARMEN","ZIP":"83462","CNTY":"16059","NMCNTY":"Lemhi County","LOCALE":"43","SCHOOLYEAR":"2024-2025"}},{"type":"Feature","geometry":{"type":"Point","coordinates":[-116.355531,43.587082]},"properties":{"NCESSCH":"160017101069","LEAID":"1600171","NAME":"IDAHO TECHNICAL CAREER ACADEMY","STATE":"ID","CITY":"MERIDIAN","ZIP":"83642","CNTY":"16001","NMCNTY":"Ada County","LOCALE":"21","SCHOOLYEAR":"2024-2025"}},{"type":"Feature","geometry":{"type":"Point","coordinates":[-116.359915,43.590007]},"properties":{"NCESSCH":"160017200846","LEAID":"1600172","NAME":"GEM PREP: ONLINE SCHOOL","STATE":"ID","CITY":"MERIDIAN","ZIP":"83642","CNTY":"16001","NMCNTY":"Ada County","LOCALE":"21","SCHOOLYEAR":"2024-2025"}},{"type":"Feature","geometry":{"type":"Point","coordinates":[-116.796501,47.715973]},"properties":{"NCESSCH":"160017300765","LEAID":"1600173","NAME":"COEUR D'ALENE CHARTER ACADEMY SCHOOL","STATE":"ID","CITY":"COEUR D'ALENE","ZIP":"83815","CNTY":"16055","NMCNTY":"Kootenai County","LOCALE":"13","SCHOOLYEAR":"2024-2025"}},{"type":"Feature","geometry":{"type":"Point","coordinates":[-116.414972,43.700044]},"properties":{"NCESSCH":"160017400803","LEAID":"1600174","NAME":"NORTH STAR CHARTER SCHOOL","STATE":"ID","CITY":"EAGLE","ZIP":"83616","CNTY":"16001","NMCNTY":"Ada County","LOCALE":"21","SCHOOLYEAR":"2024-2025"}},{"type":"Feature","geometry":{"type":"Point","coordinates":[-112.036739,43.489331]},"properties":{"NCESSCH":"160017501082","LEAID":"1600175","NAME":"ALTURAS INTERNATIONAL ACADEMY","STATE":"ID","CITY":"IDAHO FALLS","ZIP":"83402","CNTY":"16019","NMCNTY":"Bonneville County","LOCALE":"13","SCHOOLYEAR":"2024-2025"}},{"type":"Feature","geometry":{"type":"Point","coordinates":[-112.443739,42.854311]},"properties":{"NCESSCH":"160017600760","LEAID":"1600176","NAME":"POCATELLO COMMUNITY CHARTER","STATE":"ID","CITY":"POCATELLO","ZIP":"83204","CNTY":"16005","NMCNTY":"Bannock County","LOCALE":"13","SCHOOLYEAR":"2024-2025"}},{"type":"Feature","geometry":{"type":"Point","coordinates":[-112.470713,42.908726]},"properties":{"NCESSCH":"160017701073","LEAID":"1600177","NAME":"GEM PREP: POCATELLO SCHOOL","STATE":"ID","CITY":"CHUBBACK","ZIP":"83203","CNTY":"16005","NMCNTY":"Bannock County","LOCALE":"23","SCHOOLYEAR":"2024-2025"}},{"type":"Feature","geometry":{"type":"Point","coordinates":[-116.202057,43.586936]},"properties":{"NCESSCH":"160017801101","LEAID":"1600178","NAME":"PEACE VALLEY CHARTER SCHOOL","STATE":"ID","CITY":"BOISE","ZIP":"83705","CNTY":"16001","NMCNTY":"Ada County","LOCALE":"12","SCHOOLYEAR":"2024-2025"}},{"type":"Feature","geometry":{"type":"Point","coordinates":[-116.359915,43.590007]},"properties":{"NCESSCH":"160017901107","LEAID":"1600179","NAME":"GEM PREP: MERIDIAN","STATE":"ID","CITY":"MERIDIAN","ZIP":"83642","CNTY":"16001","NMCNTY":"Ada County","LOCALE":"21","SCHOOLYEAR":"2024-2025"}},{"type":"Feature","geometry":{"type":"Point","coordinates":[-115.832713,43.831021]},"properties":{"NCESSCH":"160018000334","LEAID":"1600180","NAME":"BASIN ELEMENTARY SCHOOL","STATE":"ID","CITY":"IDAHO CITY","ZIP":"83631","CNTY":"16015","NMCNTY":"Boise County","LOCALE":"42","SCHOOLYEAR":"2024-2025"}},{"type":"Feature","geometry":{"type":"Point","coordinates":[-115.833654,43.831859]},"properties":{"NCESSCH":"160018000350","LEAID":"1600180","NAME":"IDAHO CITY HIGH SCHOOL","STATE":"ID","CITY":"IDAHO CITY","ZIP":"83631","CNTY":"16015","NMCNTY":"Boise County","LOCALE":"42","SCHOOLYEAR":"2024-2025"}},{"type":"Feature","geometry":{"type":"Point","coordinates":[-116.245909,43.637239]},"properties":{"NCESSCH":"160018101100","LEAID":"1600181","NAME":"FUTURE PUBLIC SCHOOL","STATE":"ID","CITY":"GARDEN CITY","ZIP":"83714","CNTY":"16001","NMCNTY":"Ada County","LOCALE":"21","SCHOOLYEAR":"2024-2025"}},{"type":"Feature","geometry":{"type":"Point","coordinates":[-116.405395,43.592813]},"properties":{"NCESSCH":"160018201102","LEAID":"1600182","NAME":"PROJECT IMPACT STEM ACADEMY","STATE":"ID","CITY":"MERIDIAN","ZIP":"83642","CNTY":"16001","NMCNTY":"Ada County","LOCALE":"21","SCHOOLYEAR":"2024-2025"}},{"type":"Feature","geometry":{"type":"Point","coordinates":[-116.563385,43.567688]},"properties":{"NCESSCH":"160018301098","LEAID":"1600183","NAME":"PATHWAYS IN EDUCATION: NAMPA","STATE":"ID","CITY":"NAMPA","ZIP":"83686","CNTY":"16027","NMCNTY":"Canyon County","LOCALE":"22","SCHOOLYEAR":"2024-2025"}},{"type":"Feature","geometry":{"type":"Point","coordinates":[-116.782921,47.796121]},"properties":{"NCESSCH":"160018401096","LEAID":"1600184","NAME":"HAYDEN CANYON CHARTER SCHOOL","STATE":"ID","CITY":"HAYDEN","ZIP":"83835","CNTY":"16055","NMCNTY":"Kootenai County","LOCALE":"41","SCHOOLYEAR":"2024-2025"}},{"type":"Feature","geometry":{"type":"Point","coordinates":[-113.90084,45.18824]},"properties":{"NCESSCH":"160018601114","LEAID":"1600186","NAME":"FERN-WATERS PUBLIC CHARTER SCHOOL","STATE":"ID","CITY":"SALMON","ZIP":"83647","CNTY":"16059","NMCNTY":"Lemhi County","LOCALE":"43","SCHOOLYEAR":"2024-2025"}},{"type":"Feature","geometry":{"type":"Point","coordinates":[-116.920004,44.00844]},"properties":{"NCESSCH":"160018801110","LEAID":"1600188","NAME":"TREASURE VALLEY CLASSICAL ACADEMY","STATE":"ID","CITY":"FRUITLAND","ZIP":"83619","CNTY":"16075","NMCNTY":"Payette County","LOCALE":"32","SCHOOLYEAR":"2024-2025"}},{"type":"Feature","geometry":{"type":"Point","coordinates":[-116.691329,43.6745]},"properties":{"NCESSCH":"160018901113","LEAID":"1600189","NAME":"ELEVATE ACADEMY","STATE":"ID","CITY":"CALDWELL","ZIP":"83605","CNTY":"16027","NMCNTY":"Canyon County","LOCALE":"22","SCHOOLYEAR":"2024-2025"}},{"type":"Feature","geometry":{"type":"Point","coordinates":[-116.64053,43.703911]},"properties":{"NCESSCH":"160019001109","LEAID":"1600190","NAME":"SAGE INTERNATIONAL SCHOOL MIDDLETON","STATE":"ID","CITY":"BOISE","ZIP":"83706","CNTY":"16027","NMCNTY":"Canyon County","LOCALE":"41","SCHOOLYEAR":"2024-2025"}},{"type":"Feature","geometry":{"type":"Point","coordinates":[-116.659755,43.677883]},"properties":{"NCESSCH":"160019101124","LEAID":"1600191","NAME":"MOSAICS PUBLIC SCHOOL","STATE":"ID","CITY":"CALDWELL","ZIP":"83605","CNTY":"16027","NMCNTY":"Canyon County","LOCALE":"41","SCHOOLYEAR":"2024-2025"}},{"type":"Feature","geometry":{"type":"Point","coordinates":[-111.330508,44.496762]},"properties":{"NCESSCH":"160019201125","LEAID":"1600192","NAME":"ISLAND PARK CHARTER SCHOOL","STATE":"ID","CITY":"ISLAND PARK","ZIP":"83429","CNTY":"16043","NMCNTY":"Fremont County","LOCALE":"43","SCHOOLYEAR":"2024-2025"}},{"type":"Feature","geometry":{"type":"Point","coordinates":[-116.120944,44.672419]},"properties":{"NCESSCH":"160019301121","LEAID":"1600193","NAME":"MOUNTAIN COMMUNITY SCHOOL","STATE":"ID","CITY":"DONNELLY","ZIP":"83615","CNTY":"16085","NMCNTY":"Valley County","LOCALE":"43","SCHOOLYEAR":"2024-2025"}},{"type":"Feature","geometry":{"type":"Point","coordinates":[-116.638606,43.659795]},"properties":{"NCESSCH":"160019400839","LEAID":"1600194","NAME":"THOMAS JEFFERSON CHARTER","STATE":"ID","CITY":"CALDWELL","ZIP":"83605","CNTY":"16027","NMCNTY":"Canyon County","LOCALE":"41","SCHOOLYEAR":"2024-2025"}},{"type":"Feature","geometry":{"type":"Point","coordinates":[-116.249765,43.633376]},"properties":{"NCESSCH":"160019500758","LEAID":"1600195","NAME":"ANSER CHARTER SCHOOL","STATE":"ID","CITY":"GARDEN CITY","ZIP":"83714","CNTY":"16001","NMCNTY":"Ada County","LOCALE":"21","SCHOOLYEAR":"2024-2025"}},{"type":"Feature","geometry":{"type":"Point","coordinates":[-116.472504,43.653048]},"properties":{"NCESSCH":"160019601133","LEAID":"1600196","NAME":"GEM PREP: MERIDIAN NORTH","STATE":"ID","CITY":"MERIDIAN","ZIP":"83642","CNTY":"16001","NMCNTY":"Ada County","LOCALE":"41","SCHOOLYEAR":"2024-2025"}},{"type":"Feature","geometry":{"type":"Point","coordinates":[-116.424696,43.618808]},"properties":{"NCESSCH":"160019701148","LEAID":"1600197","NAME":"DORAL ACADEMY OF IDAHO","STATE":"ID","CITY":"MERIDIAN","ZIP":"83642","CNTY":"16001","NMCNTY":"Ada County","LOCALE":"21","SCHOOLYEAR":"2024-2025"}},{"type":"Feature","geometry":{"type":"Point","coordinates":[-114.467181,42.533688]},"properties":{"NCESSCH":"160019801149","LEAID":"1600198","NAME":"PINECREST ACADEMY OF IDAHO","STATE":"ID","CITY":"TWIN FALLS","ZIP":"83301","CNTY":"16083","NMCNTY":"Twin Falls County","LOCALE":"41","SCHOOLYEAR":"2024-2025"}},{"type":"Feature","geometry":{"type":"Point","coordinates":[-111.989002,43.479021]},"properties":{"NCESSCH":"160019901150","LEAID":"1600199","NAME":"ALTURAS PREPARATORY ACADEMY","STATE":"ID","CITY":"IDAHO FALLS","ZIP":"83404","CNTY":"16019","NMCNTY":"Bonneville County","LOCALE":"13","SCHOOLYEAR":"2024-2025"}},{"type":"Feature","geometry":{"type":"Point","coordinates":[-116.300254,43.610148]},"properties":{"NCESSCH":"160020001151","LEAID":"1600200","NAME":"CARDINAL ACADEMY","STATE":"ID","CITY":"BOISE","ZIP":"83704","CNTY":"16001","NMCNTY":"Ada County","LOCALE":"12","SCHOOLYEAR":"2024-2025"}},{"type":"Feature","geometry":{"type":"Point","coordinates":[-116.371026,43.545755]},"properties":{"NCESSCH":"160020101152","LEAID":"1600201","NAME":"GEM PREP: MERIDIAN SOUTH","STATE":"ID","CITY":"MERIDIAN","ZIP":"83642","CNTY":"16001","NMCNTY":"Ada County","LOCALE":"41","SCHOOLYEAR":"2024-2025"}},{"type":"Feature","geometry":{"type":"Point","coordinates":[-116.897809,47.740672]},"properties":{"NCESSCH":"160020201164","LEAID":"1600202","NAME":"ELEVATE ACADEMY NORTH","STATE":"ID","CITY":"POST FALLS","ZIP":"83854","CNTY":"16055","NMCNTY":"Kootenai County","LOCALE":"22","SCHOOLYEAR":"2024-2025"}},{"type":"Feature","geometry":{"type":"Point","coordinates":[-116.62077,43.589696]},"properties":{"NCESSCH":"160020301165","LEAID":"1600203","NAME":"ELEVATE ACADEMY NAMPA","STATE":"ID","CITY":"NAMPA","ZIP":"83651","CNTY":"16027","NMCNTY":"Canyon County","LOCALE":"22","SCHOOLYEAR":"2024-2025"}},{"type":"Feature","geometry":{"type":"Point","coordinates":[-116.552454,43.583751]},"properties":{"NCESSCH":"160020400834","LEAID":"1600204","NAME":"IDAHO ARTS CHARTER SCHOOL","STATE":"ID","CITY":"NAMPA","ZIP":"83687","CNTY":"16027","NMCNTY":"Canyon County","LOCALE":"22","SCHOOLYEAR":"2024-2025"}},{"type":"Feature","geometry":{"type":"Point","coordinates":[-116.57576,43.554836]},"properties":{"NCESSCH":"160020501080","LEAID":"1600205","NAME":"GEM PREP: NAMPA","STATE":"ID","CITY":"NAMPA","ZIP":"83686","CNTY":"16027","NMCNTY":"Canyon County","LOCALE":"22","SCHOOLYEAR":"2024-2025"}},{"type":"Feature","geometry":{"type":"Point","coordinates":[-111.301801,42.320775]},"properties":{"NCESSCH":"160024000016","LEAID":"1600240","NAME":"A J WINTERS ELEMENTARY SCHOOL","STATE":"ID","CITY":"MONTPELIER","ZIP":"83254","CNTY":"16007","NMCNTY":"Bear Lake County","LOCALE":"43","SCHOOLYEAR":"2024-2025"}},{"type":"Feature","geometry":{"type":"Point","coordinates":[-111.303446,42.31715]},"properties":{"NCESSCH":"160024000017","LEAID":"1600240","NAME":"BEAR LAKE MIDDLE SCHOOL","STATE":"ID","CITY":"MONTPELIER","ZIP":"83254","CNTY":"16007","NMCNTY":"Bear Lake County","LOCALE":"43","SCHOOLYEAR":"2024-2025"}},{"type":"Feature","geometry":{"type":"Point","coordinates":[-111.29596,42.329448]},"properties":{"NCESSCH":"160024000018","LEAID":"1600240","NAME":"BEAR LAKE HIGH SCHOOL","STATE":"ID","CITY":"MONTPELIER","ZIP":"83254","CNTY":"16007","NMCNTY":"Bear Lake County","LOCALE":"43","SCHOOLYEAR":"2024-2025"}},{"type":"Feature","geometry":{"type":"Point","coordinates":[-111.39893,42.226415]},"properties":{"NCESSCH":"160024000019","LEAID":"1600240","NAME":"PARIS ELEMENTARY SCHOOL","STATE":"ID","CITY":"PARIS","ZIP":"83261","CNTY":"16007","NMCNTY":"Bear Lake County","LOCALE":"43","SCHOOLYEAR":"2024-2025"}},{"type":"Feature","geometry":{"type":"Point","coordinates":[-111.369644,42.477566]},"properties":{"NCESSCH":"160024000021","LEAID":"1600240","NAME":"GEORGETOWN ELEMENTARY SCHOOL","STATE":"ID","CITY":"GEORGETOWN","ZIP":"83239","CNTY":"16007","NMCNTY":"Bear Lake County","LOCALE":"43","SCHOOLYEAR":"2024-2025"}},{"type":"Feature","geometry":{"type":"Point","coordinates":[-111.304186,42.316418]},"properties":{"NCESSCH":"160024000827","LEAID":"1600240","NAME":"CLOVER CREEK HIGH SCHOOL","STATE":"ID","CITY":"MONTPELIER","ZIP":"83254","CNTY":"16007","NMCNTY":"Bear Lake County","LOCALE":"43","SCHOOLYEAR":"2024-2025"}},{"type":"Feature","geometry":{"type":"Point","coordinates":[-111.39893,42.226415]},"properties":{"NCESSCH":"160024001136","LEAID":"1600240","NAME":"BEAR LAKE ON-LINE LEARNING","STATE":"ID","CITY":"PARIS","ZIP":"83261","CNTY":"16007","NMCNTY":"Bear Lake County","LOCALE":"43","SCHOOLYEAR":"2024-2025"}},{"type":"Feature","geometry":{"type":"Point","coordinates":[-112.34583,43.179334]},"properties":{"NCESSCH":"160027000022","LEAID":"1600270","NAME":"BLACKFOOT HIGH SCHOOL","STATE":"ID","CITY":"BLACKFOOT","ZIP":"83221","CNTY":"16011","NMCNTY":"Bingham County","LOCALE":"32","SCHOOLYEAR":"2024-2025"}},{"type":"Feature","geometry":{"type":"Point","coordinates":[-112.332002,43.190095]},"properties":{"NCESSCH":"160027000023","LEAID":"1600270","NAME":"MOUNTAIN VIEW MIDDLE SCHOOL","STATE":"ID","CITY":"BLACKFOOT","ZIP":"83221","CNTY":"16011","NMCNTY":"Bingham County","LOCALE":"32","SCHOOLYEAR":"2024-2025"}},{"type":"Feature","geometry":{"type":"Point","coordinates":[-112.345344,43.202734]},"properties":{"NCESSCH":"160027000025","LEAID":"1600270","NAME":"RIDGE CREST ELEMENTARY SCHOOL","STATE":"ID","CITY":"BLACKFOOT","ZIP":"83221","CNTY":"16011","NMCNTY":"Bingham County","LOCALE":"32","SCHOOLYEAR":"2024-2025"}},{"type":"Feature","geometry":{"type":"Point","coordinates":[-112.438816,43.033613]},"properties":{"NCESSCH":"160027000026","LEAID":"1600270","NAME":"FORT HALL ELEMENTARY SCHOOL","STATE":"ID","CITY":"FORT HALL","ZIP":"83203","CNTY":"16011","NMCNTY":"Bingham County","LOCALE":"41","SCHOOLYEAR":"2024-2025"}},{"type":"Feature","geometry":{"type":"Point","coordinates":[-112.371827,43.220655]},"properties":{"NCESSCH":"160027000027","LEAID":"1600270","NAME":"GROVELAND ELEMENTARY SCHOOL","STATE":"ID","CITY":"BLACKFOOT","ZIP":"83221","CNTY":"16011","NMCNTY":"Bingham County","LOCALE":"32","SCHOOLYEAR":"2024-2025"}},{"type":"Feature","geometry":{"type":"Point","coordinates":[-112.345238,43.176091]},"properties":{"NCESSCH":"160027000028","LEAID":"1600270","NAME":"RIVERBEND ELEMENTARY","STATE":"ID","CITY":"BLACKFOOT","ZIP":"83221","CNTY":"16011","NMCNTY":"Bingham County","LOCALE":"32","SCHOOLYEAR":"2024-2025"}},{"type":"Feature","geometry":{"type":"Point","coordinates":[-112.343019,43.186928]},"properties":{"NCESSCH":"160027000030","LEAID":"1600270","NAME":"BLACKFOOT HERITAGE SIXTH GRADE","STATE":"ID","CITY":"BLACKFOOT","ZIP":"83221","CNTY":"16011","NMCNTY":"Bingham County","LOCALE":"32","SCHOOLYEAR":"2024-2025"}},{"type":"Feature","geometry":{"type":"Point","coordinates":[-112.363189,43.18826]},"properties":{"NCESSCH":"160027000031","LEAID":"1600270","NAME":"DONALD D STALKER ELEMENTARY","STATE":"ID","CITY":"BLACKFOOT","ZIP":"83221","CNTY":"16011","NMCNTY":"Bingham County","LOCALE":"32","SCHOOLYEAR":"2024-2025"}},{"type":"Feature","geometry":{"type":"Point","coordinates":[-112.258605,43.246547]},"properties":{"NCESSCH":"160027000032","LEAID":"1600270","NAME":"WAPELLO ELEMENTARY SCHOOL","STATE":"ID","CITY":"BLACKFOOT","ZIP":"83221","CNTY":"16011","NMCNTY":"Bingham County","LOCALE":"42","SCHOOLYEAR":"2024-2025"}},{"type":"Feature","geometry":{"type":"Point","coordinates":[-112.350595,43.190519]},"properties":{"NCESSCH":"160027000492","LEAID":"1600270","NAME":"VAUGHN HUGIE FAMILY ED CENTER","STATE":"ID","CITY":"BLACKFOOT","ZIP":"83221","CNTY":"16011","NMCNTY":"Bingham County","LOCALE":"32","SCHOOLYEAR":"2024-2025"}},{"type":"Feature","geometry":{"type":"Point","coordinates":[-112.339325,43.190336]},"properties":{"NCESSCH":"160027000689","LEAID":"1600270","NAME":"INDEPENDENCE ALTERNATIVE HIGH SCHOOL","STATE":"ID","CITY":"BLACKFOOT","ZIP":"83221","CNTY":"16011","NMCNTY":"Bingham County","LOCALE":"32","SCHOOLYEAR":"2024-2025"}},{"type":"Feature","geometry":{"type":"Point","coordinates":[-112.34155,43.186093]},"properties":{"NCESSCH":"160027001184","LEAID":"1600270","NAME":"BLACKFOOT SCHOOL DISTRICT ONLINE JR/SR SCHOOL","STATE":"ID","CITY":"BLACKFOOT","ZIP":"83221","CNTY":"16011","NMCNTY":"Bingham County","LOCALE":"32","SCHOOLYEAR":"2024-2025"}},{"type":"Feature","geometry":{"type":"Point","coordinates":[-114.256637,43.468287]},"properties":{"NCESSCH":"160030000033","LEAID":"1600300","NAME":"BELLEVUE ELEMENTARY SCHOOL","STATE":"ID","CITY":"BELLEVUE","ZIP":"83313","CNTY":"16013","NMCNTY":"Blaine County","LOCALE":"33","SCHOOLYEAR":"2024-2025"}},{"type":"Feature","geometry":{"type":"Point","coordinates":[-113.942329,43.312684]},"properties":{"NCESSCH":"160030000034","LEAID":"1600300","NAME":"CAREY PUBLIC SCHOOL","STATE":"ID","CITY":"CAREY","ZIP":"83320","CNTY":"16013","NMCNTY":"Blaine County","LOCALE":"43","SCHOOLYEAR":"2024-2025"}},{"type":"Feature","geometry":{"type":"Point","coordinates":[-114.371102,43.682477]},"properties":{"NCESSCH":"160030000035","LEAID":"1600300","NAME":"ERNEST HEMINGWAY STEAM SCHOOL","STATE":"ID","CITY":"KETCHUM","ZIP":"83340","CNTY":"16013","NMCNTY":"Blaine County","LOCALE":"33","SCHOOLYEAR":"2024-2025"}},{"type":"Feature","geometry":{"type":"Point","coordinates":[-114.309462,43.51649]},"properties":{"NCESSCH":"160030000036","LEAID":"1600300","NAME":"HAILEY ELEMENTARY SCHOOL","STATE":"ID","CITY":"HAILEY","ZIP":"83333","CNTY":"16013","NMCNTY":"Blaine County","LOCALE":"33","SCHOOLYEAR":"2024-2025"}},{"type":"Feature","geometry":{"type":"Point","coordinates":[-114.293517,43.517328]},"properties":{"NCESSCH":"160030000038","LEAID":"1600300","NAME":"WOOD RIVER HIGH SCHOOL","STATE":"ID","CITY":"HAILEY","ZIP":"83333","CNTY":"16013","NMCNTY":"Blaine County","LOCALE":"33","SCHOOLYEAR":"2024-2025"}},{"type":"Feature","geometry":{"type":"Point","coordinates":[-114.292418,43.5153]},"properties":{"NCESSCH":"160030000197","LEAID":"1600300","NAME":"SILVER CREEK HIGH SCHOOL","STATE":"ID","CITY":"HAILEY","ZIP":"83333","CNTY":"16013","NMCNTY":"Blaine County","LOCALE":"33","SCHOOLYEAR":"2024-2025"}},{"type":"Feature","geometry":{"type":"Point","coordinates":[-114.317064,43.528527]},"properties":{"NCESSCH":"160030000493","LEAID":"1600300","NAME":"WOOD RIVER MIDDLE SCHOOL","STATE":"ID","CITY":"HAILEY","ZIP":"83333","CNTY":"16013","NMCNTY":"Blaine County","LOCALE":"33","SCHOOLYEAR":"2024-2025"}},{"type":"Feature","geometry":{"type":"Point","coordinates":[-114.275636,43.493168]},"properties":{"NCESSCH":"160030000908","LEAID":"1600300","NAME":"ALTURAS ELEMENTARY SCHOOL","STATE":"ID","CITY":"HAILEY","ZIP":"83333","CNTY":"16013","NMCNTY":"Blaine County","LOCALE":"33","SCHOOLYEAR":"2024-2025"}},{"type":"Feature","geometry":{"type":"Point","coordinates":[-114.94247,42.923226]},"properties":{"NCESSCH":"160033000040","LEAID":"1600330","NAME":"BLISS SCHOOL","STATE":"ID","CITY":"BLISS","ZIP":"83314","CNTY":"16047","NMCNTY":"Gooding County","LOCALE":"43","SCHOOLYEAR":"2024-2025"}},{"type":"Feature","geometry":{"type":"Point","coordinates":[-116.157447,43.575371]},"properties":{"NCESSCH":"160036000004","LEAID":"1600360","NAME":"RIVERSIDE ELEMENTARY SCHOOL","STATE":"ID","CITY":"BOISE","ZIP":"83706","CNTY":"16001","NMCNTY":"Ada County","LOCALE":"12","SCHOOLYEAR":"2024-2025"}},{"type":"Feature","geometry":{"type":"Point","coordinates":[-116.303455,43.611353]},"properties":{"NCESSCH":"160036000009","LEAID":"1600360","NAME":"HORIZON ELEMENTARY SCHOOL","STATE":"ID","CITY":"BOISE","ZIP":"83704","CNTY":"16001","NMCNTY":"Ada County","LOCALE":"12","SCHOOLYEAR":"2024-2025"}},{"type":"Feature","geometry":{"type":"Point","coordinates":[-116.174056,43.60299]},"properties":{"NCESSCH":"160036000042","LEAID":"1600360","NAME":"ADAMS ELEMENTARY SCHOOL","STATE":"ID","CITY":"BOISE","ZIP":"83712","CNTY":"16001","NMCNTY":"Ada County","LOCALE":"12","SCHOOLYEAR":"2024-2025"}},{"type":"Feature","geometry":{"type":"Point","coordinates":[-116.202415,43.621385]},"properties":{"NCESSCH":"160036000044","LEAID":"1600360","NAME":"BOISE SENIOR HIGH SCHOOL","STATE":"ID","CITY":"BOISE","ZIP":"83702","CNTY":"16001","NMCNTY":"Ada County","LOCALE":"12","SCHOOLYEAR":"2024-2025"}},{"type":"Feature","geometry":{"type":"Point","coordinates":[-116.258654,43.597053]},"properties":{"NCESSCH":"160036000045","LEAID":"1600360","NAME":"BORAH SENIOR HIGH SCHOOL","STATE":"ID","CITY":"BOISE","ZIP":"83709","CNTY":"16001","NMCNTY":"Ada County","LOCALE":"12","SCHOOLYEAR":"2024-2025"}},{"type":"Feature","geometry":{"type":"Point","coordinates":[-116.2825,43.643853]},"properties":{"NCESSCH":"160036000047","LEAID":"1600360","NAME":"CAPITAL SENIOR HIGH SCHOOL","STATE":"ID","CITY":"BOISE","ZIP":"83704","CNTY":"16001","NMCNTY":"Ada County","LOCALE":"12","SCHOOLYEAR":"2024-2025"}},{"type":"Feature","geometry":{"type":"Point","coordinates":[-116.244077,43.655754]},"properties":{"NCESSCH":"160036000049","LEAID":"1600360","NAME":"COLLISTER ELEMENTARY SCHOOL","STATE":"ID","CITY":"BOISE","ZIP":"83703","CNTY":"16001","NMCNTY":"Ada County","LOCALE":"12","SCHOOLYEAR":"2024-2025"}},{"type":"Feature","geometry":{"type":"Point","coordinates":[-116.276159,43.6248]},"properties":{"NCESSCH":"160036000051","LEAID":"1600360","NAME":"FAIRMONT JUNIOR HIGH SCHOOL","STATE":"ID","CITY":"BOISE","ZIP":"83704","CNTY":"16001","NMCNTY":"Ada County","LOCALE":"12","SCHOOLYEAR":"2024-2025"}},{"type":"Feature","geometry":{"type":"Point","coordinates":[-116.193095,43.589379]},"properties":{"NCESSCH":"160036000053","LEAID":"1600360","NAME":"GARFIELD ELEMENTARY SCHOOL","STATE":"ID","CITY":"BOISE","ZIP":"83706","CNTY":"16001","NMCNTY":"Ada County","LOCALE":"12","SCHOOLYEAR":"2024-2025"}},{"type":"Feature","geometry":{"type":"Point","coordinates":[-116.210939,43.581808]},"properties":{"NCESSCH":"160036000054","LEAID":"1600360","NAME":"HAWTHORNE ELEMENTARY SCHOOL","STATE":"ID","CITY":"BOISE","ZIP":"83705","CNTY":"16001","NMCNTY":"Ada County","LOCALE":"12","SCHOOLYEAR":"2024-2025"}},{"type":"Feature","geometry":{"type":"Point","coordinates":[-116.194855,43.650222]},"properties":{"NCESSCH":"160036000055","LEAID":"1600360","NAME":"HIGHLANDS ELEMENTARY SCHOOL","STATE":"ID","CITY":"BOISE","ZIP":"83702","CNTY":"16001","NMCNTY":"Ada County","LOCALE":"12","SCHOOLYEAR":"2024-2025"}},{"type":"Feature","geometry":{"type":"Point","coordinates":[-116.242024,43.58397]},"properties":{"NCESSCH":"160036000056","LEAID":"1600360","NAME":"HILLCREST ELEMENTARY SCHOOL","STATE":"ID","CITY":"BOISE","ZIP":"83705","CNTY":"16001","NMCNTY":"Ada County","LOCALE":"12","SCHOOLYEAR":"2024-2025"}},{"type":"Feature","geometry":{"type":"Point","coordinates":[-116.231612,43.656368]},"properties":{"NCESSCH":"160036000057","LEAID":"1600360","NAME":"HILLSIDE JUNIOR HIGH SCHOOL","STATE":"ID","CITY":"BOISE","ZIP":"83703","CNTY":"16001","NMCNTY":"Ada County","LOCALE":"12","SCHOOLYEAR":"2024-2025"}},{"type":"Feature","geometry":{"type":"Point","coordinates":[-116.227931,43.602118]},"properties":{"NCESSCH":"160036000059","LEAID":"1600360","NAME":"JEFFERSON ELEMENTARY SCHOOL","STATE":"ID","CITY":"BOISE","ZIP":"83705","CNTY":"16001","NMCNTY":"Ada County","LOCALE":"12","SCHOOLYEAR":"2024-2025"}},{"type":"Feature","geometry":{"type":"Point","coordinates":[-116.254797,43.622402]},"properties":{"NCESSCH":"160036000060","LEAID":"1600360","NAME":"KOELSCH ELEMENTARY SCHOOL","STATE":"ID","CITY":"BOISE","ZIP":"83706","CNTY":"16001","NMCNTY":"Ada County","LOCALE":"12","SCHOOLYEAR":"2024-2025"}},{"type":"Feature","geometry":{"type":"Point","coordinates":[-116.199108,43.627989]},"properties":{"NCESSCH":"160036000062","LEAID":"1600360","NAME":"LONGFELLOW ELEMENTARY SCHOOL","STATE":"ID","CITY":"BOISE","ZIP":"83702","CNTY":"16001","NMCNTY":"Ada County","LOCALE":"12","SCHOOLYEAR":"2024-2025"}},{"type":"Feature","geometry":{"type":"Point","coordinates":[-116.223821,43.634294]},"properties":{"NCESSCH":"160036000063","LEAID":"1600360","NAME":"LOWELL ELEMENTARY SCHOOL","STATE":"ID","CITY":"BOISE","ZIP":"83703","CNTY":"16001","NMCNTY":"Ada County","LOCALE":"12","SCHOOLYEAR":"2024-2025"}},{"type":"Feature","geometry":{"type":"Point","coordinates":[-116.192767,43.617108]},"properties":{"NCESSCH":"160036000064","LEAID":"1600360","NAME":"LINCOLN EARLY LEARNING CENTER","STATE":"ID","CITY":"BOISE","ZIP":"83702","CNTY":"16001","NMCNTY":"Ada County","LOCALE":"12","SCHOOLYEAR":"2024-2025"}},{"type":"Feature","geometry":{"type":"Point","coordinates":[-116.292831,43.577732]},"properties":{"NCESSCH":"160036000065","LEAID":"1600360","NAME":"MAPLE GROVE ELEMENTARY SCHOOL","STATE":"ID","CITY":"BOISE","ZIP":"83709","CNTY":"16001","NMCNTY":"Ada County","LOCALE":"12","SCHOOLYEAR":"2024-2025"}},{"type":"Feature","geometry":{"type":"Point","coordinates":[-116.226717,43.596674]},"properties":{"NCESSCH":"160036000067","LEAID":"1600360","NAME":"MONROE ELEMENTARY SCHOOL","STATE":"ID","CITY":"BOISE","ZIP":"83705","CNTY":"16001","NMCNTY":"Ada County","LOCALE":"12","SCHOOLYEAR":"2024-2025"}},{"type":"Feature","geometry":{"type":"Point","coordinates":[-116.270257,43.636636]},"properties":{"NCESSCH":"160036000068","LEAID":"1600360","NAME":"MOUNTAIN VIEW ELEMENTARY SCHOOL","STATE":"ID","CITY":"BOISE","ZIP":"83704","CNTY":"16001","NMCNTY":"Ada County","LOCALE":"12","SCHOOLYEAR":"2024-2025"}},{"type":"Feature","geometry":{"type":"Point","coordinates":[-116.203956,43.6259]},"properties":{"NCESSCH":"160036000069","LEAID":"1600360","NAME":"NORTH JUNIOR HIGH SCHOOL","STATE":"ID","CITY":"BOISE","ZIP":"83702","CNTY":"16001","NMCNTY":"Ada County","LOCALE":"12","SCHOOLYEAR":"2024-2025"}},{"type":"Feature","geometry":{"type":"Point","coordinates":[-116.224618,43.575647]},"properties":{"NCESSCH":"160036000070","LEAID":"1600360","NAME":"OWYHEE ELEMENTARY SCHOOL","STATE":"ID","CITY":"BOISE","ZIP":"83705","CNTY":"16001","NMCNTY":"Ada County","LOCALE":"12","SCHOOLYEAR":"2024-2025"}},{"type":"Feature","geometry":{"type":"Point","coordinates":[-116.26917,43.666105]},"properties":{"NCESSCH":"160036000071","LEAID":"1600360","NAME":"PIERCE PARK ELEMENTARY SCHOOL","STATE":"ID","CITY":"BOISE","ZIP":"83714","CNTY":"16001","NMCNTY":"Ada County","LOCALE":"12","SCHOOLYEAR":"2024-2025"}},{"type":"Feature","geometry":{"type":"Point","coordinates":[-116.182786,43.609733]},"properties":{"NCESSCH":"160036000072","LEAID":"1600360","NAME":"ROOSEVELT ELEMENTARY SCHOOL","STATE":"ID","CITY":"BOISE","ZIP":"83712","CNTY":"16001","NMCNTY":"Ada County","LOCALE":"12","SCHOOLYEAR":"2024-2025"}},{"type":"Feature","geometry":{"type":"Point","coordinates":[-116.220986,43.596548]},"properties":{"NCESSCH":"160036000073","LEAID":"1600360","NAME":"SOUTH JUNIOR HIGH SCHOOL","STATE":"ID","CITY":"BOISE","ZIP":"83705","CNTY":"16001","NMCNTY":"Ada County","LOCALE":"12","SCHOOLYEAR":"2024-2025"}},{"type":"Feature","geometry":{"type":"Point","coordinates":[-116.235735,43.641508]},"properties":{"NCESSCH":"160036000074","LEAID":"1600360","NAME":"TAFT ELEMENTARY SCHOOL","STATE":"ID","CITY":"BOISE","ZIP":"83703","CNTY":"16001","NMCNTY":"Ada County","LOCALE":"12","SCHOOLYEAR":"2024-2025"}},{"type":"Feature","geometry":{"type":"Point","coordinates":[-116.285154,43.637226]},"properties":{"NCESSCH":"160036000075","LEAID":"1600360","NAME":"VALLEY VIEW ELEMENTARY SCHOOL","STATE":"ID","CITY":"BOISE","ZIP":"83704","CNTY":"16001","NMCNTY":"Ada County","LOCALE":"12","SCHOOLYEAR":"2024-2025"}},{"type":"Feature","geometry":{"type":"Point","coordinates":[-116.206257,43.632343]},"properties":{"NCESSCH":"160036000076","LEAID":"1600360","NAME":"WASHINGTON ELEMENTARY SCHOOL","STATE":"ID","CITY":"BOISE","ZIP":"83702","CNTY":"16001","NMCNTY":"Ada County","LOCALE":"12","SCHOOLYEAR":"2024-2025"}},{"type":"Feature","geometry":{"type":"Point","coordinates":[-116.224675,43.587905]},"properties":{"NCESSCH":"160036000078","LEAID":"1600360","NAME":"WHITNEY ELEMENTARY SCHOOL","STATE":"ID","CITY":"BOISE","ZIP":"83705","CNTY":"16001","NMCNTY":"Ada County","LOCALE":"12","SCHOOLYEAR":"2024-2025"}},{"type":"Feature","geometry":{"type":"Point","coordinates":[-116.227238,43.623649]},"properties":{"NCESSCH":"160036000079","LEAID":"1600360","NAME":"WHITTIER ELEMENTARY SCHOOL","STATE":"ID","CITY":"BOISE","ZIP":"83702","CNTY":"16001","NMCNTY":"Ada County","LOCALE":"12","SCHOOLYEAR":"2024-2025"}},{"type":"Feature","geometry":{"type":"Point","coordinates":[-116.132722,43.547825]},"properties":{"NCESSCH":"160036000183","LEAID":"1600360","NAME":"LES BOIS JUNIOR HIGH SCHOOL","STATE":"ID","CITY":"BOISE","ZIP":"83716","CNTY":"16001","NMCNTY":"Ada County","LOCALE":"12","SCHOOLYEAR":"2024-2025"}},{"type":"Feature","geometry":{"type":"Point","coordinates":[-116.136645,43.551284]},"properties":{"NCESSCH":"160036000590","LEAID":"1600360","NAME":"TRAIL WIND ELEMENTARY","STATE":"ID","CITY":"BOISE","ZIP":"83716","CNTY":"16001","NMCNTY":"Ada County","LOCALE":"12","SCHOOLYEAR":"2024-2025"}},{"type":"Feature","geometry":{"type":"Point","coordinates":[-116.290066,43.682173]},"properties":{"NCESSCH":"160036000591","LEAID":"1600360","NAME":"SHADOW HILLS ELEMENTARY","STATE":"ID","CITY":"BOISE","ZIP":"83714","CNTY":"16001","NMCNTY":"Ada County","LOCALE":"12","SCHOOLYEAR":"2024-2025"}},{"type":"Feature","geometry":{"type":"Point","coordinates":[-116.306576,43.562081]},"properties":{"NCESSCH":"160036000592","LEAID":"1600360","NAME":"AMITY ELEMENTARY SCHOOL","STATE":"ID","CITY":"BOISE","ZIP":"83709","CNTY":"16001","NMCNTY":"Ada County","LOCALE":"21","SCHOOLYEAR":"2024-2025"}},{"type":"Feature","geometry":{"type":"Point","coordinates":[-116.280864,43.679943]},"properties":{"NCESSCH":"160036000632","LEAID":"1600360","NAME":"RIVERGLEN JR HIGH SCHOOL","STATE":"ID","CITY":"BOISE","ZIP":"83714","CNTY":"16001","NMCNTY":"Ada County","LOCALE":"12","SCHOOLYEAR":"2024-2025"}},{"type":"Feature","geometry":{"type":"Point","coordinates":[-116.17444,43.577243]},"properties":{"NCESSCH":"160036000643","LEAID":"1600360","NAME":"TIMBERLINE HIGH SCHOOL","STATE":"ID","CITY":"BOISE","ZIP":"83706","CNTY":"16001","NMCNTY":"Ada County","LOCALE":"12","SCHOOLYEAR":"2024-2025"}},{"type":"Feature","geometry":{"type":"Point","coordinates":[-116.161202,43.568806]},"properties":{"NCESSCH":"160036000650","LEAID":"1600360","NAME":"LIBERTY ELEMENTARY SCHOOL","STATE":"ID","CITY":"BOISE","ZIP":"83706","CNTY":"16001","NMCNTY":"Ada County","LOCALE":"12","SCHOOLYEAR":"2024-2025"}},{"type":"Feature","geometry":{"type":"Point","coordinates":[-116.178023,43.57793]},"properties":{"NCESSCH":"160036000706","LEAID":"1600360","NAME":"WHITE PINE ELEMENTARY SCHOOL","STATE":"ID","CITY":"BOISE","ZIP":"83706","CNTY":"16001","NMCNTY":"Ada County","LOCALE":"12","SCHOOLYEAR":"2024-2025"}},{"type":"Feature","geometry":{"type":"Point","coordinates":[-116.256254,43.665909]},"properties":{"NCESSCH":"160036000707","LEAID":"1600360","NAME":"CYNTHIA MANN ELEMENTARY SCHOOL","STATE":"ID","CITY":"BOISE","ZIP":"83703","CNTY":"16001","NMCNTY":"Ada County","LOCALE":"12","SCHOOLYEAR":"2024-2025"}},{"type":"Feature","geometry":{"type":"Point","coordinates":[-116.259839,43.610627]},"properties":{"NCESSCH":"160036000708","LEAID":"1600360","NAME":"ADA COUNTY JUVENILE CENTER","STATE":"ID","CITY":"BOISE","ZIP":"83704","CNTY":"16001","NMCNTY":"Ada County","LOCALE":"12","SCHOOLYEAR":"2024-2025"}},{"type":"Feature","geometry":{"type":"Point","coordinates":[-116.283263,43.572743]},"properties":{"NCESSCH":"160036000817","LEAID":"1600360","NAME":"DEHRYL A DENNIS PROF-TECH CENTER","STATE":"ID","CITY":"BOISE","ZIP":"83709","CNTY":"16001","NMCNTY":"Ada County","LOCALE":"12","SCHOOLYEAR":"2024-2025"}},{"type":"Feature","geometry":{"type":"Point","coordinates":[-116.280864,43.679943]},"properties":{"NCESSCH":"160036000823","LEAID":"1600360","NAME":"TREASURE VALLEY MATH/SCIENCE","STATE":"ID","CITY":"BOISE","ZIP":"83714","CNTY":"16001","NMCNTY":"Ada County","LOCALE":"12","SCHOOLYEAR":"2024-2025"}},{"type":"Feature","geometry":{"type":"Point","coordinates":[-116.279132,43.625867]},"properties":{"NCESSCH":"160036000980","LEAID":"1600360","NAME":"MORLEY NELSON ELEMENTARY","STATE":"ID","CITY":"BOISE","ZIP":"83704","CNTY":"16001","NMCNTY":"Ada County","LOCALE":"12","SCHOOLYEAR":"2024-2025"}},{"type":"Feature","geometry":{"type":"Point","coordinates":[-116.262221,43.592458]},"properties":{"NCESSCH":"160036000982","LEAID":"1600360","NAME":"GRACE JORDAN ELEMENTARY","STATE":"ID","CITY":"BOISE","ZIP":"83709","CNTY":"16001","NMCNTY":"Ada County","LOCALE":"12","SCHOOLYEAR":"2024-2025"}},{"type":"Feature","geometry":{"type":"Point","coordinates":[-116.282302,43.570484]},"properties":{"NCESSCH":"160036000984","LEAID":"1600360","NAME":"FRANK CHURCH HIGH SCHOOL","STATE":"ID","CITY":"BOISE","ZIP":"83709","CNTY":"16001","NMCNTY":"Ada County","LOCALE":"12","SCHOOLYEAR":"2024-2025"}},{"type":"Feature","geometry":{"type":"Point","coordinates":[-116.285506,43.570975]},"properties":{"NCESSCH":"160036000987","LEAID":"1600360","NAME":"WEST JUNIOR HIGH","STATE":"ID","CITY":"BOISE","ZIP":"83709","CNTY":"16001","NMCNTY":"Ada County","LOCALE":"12","SCHOOLYEAR":"2024-2025"}},{"type":"Feature","geometry":{"type":"Point","coordinates":[-116.113318,43.566083]},"properties":{"NCESSCH":"160036001002","LEAID":"1600360","NAME":"EAST JUNIOR HIGH SCHOOL","STATE":"ID","CITY":"BOISE","ZIP":"83716","CNTY":"16001","NMCNTY":"Ada County","LOCALE":"12","SCHOOLYEAR":"2024-2025"}},{"type":"Feature","geometry":{"type":"Point","coordinates":[-116.257153,43.725331]},"properties":{"NCESSCH":"160036001004","LEAID":"1600360","NAME":"HIDDEN SPRINGS ELEMENTARY SCHOOL","STATE":"ID","CITY":"HIDDEN SPRINGS","ZIP":"83714","CNTY":"16001","NMCNTY":"Ada County","LOCALE":"41","SCHOOLYEAR":"2024-2025"}},{"type":"Feature","geometry":{"type":"Point","coordinates":[-116.283299,43.574559]},"properties":{"NCESSCH":"160036001134","LEAID":"1600360","NAME":"BOISE ONLINE SCHOOL - ELEMENTARY","STATE":"ID","CITY":"BOISE","ZIP":"83709","CNTY":"16001","NMCNTY":"Ada County","LOCALE":"12","SCHOOLYEAR":"2024-2025"}},{"type":"Feature","geometry":{"type":"Point","coordinates":[-116.283299,43.574559]},"properties":{"NCESSCH":"160036001135","LEAID":"1600360","NAME":"BOISE ONLINE SCHOOL - SECONDARY","STATE":"ID","CITY":"BOISE","ZIP":"83709","CNTY":"16001","NMCNTY":"Ada County","LOCALE":"12","SCHOOLYEAR":"2024-2025"}},{"type":"Feature","geometry":{"type":"Point","coordinates":[-116.13261,43.571637]},"properties":{"NCESSCH":"160036001166","LEAID":"1600360","NAME":"DALLAS HARRIS ELEMENTARY SCHOOL","STATE":"ID","CITY":"BOISE","ZIP":"83716","CNTY":"16001","NMCNTY":"Ada County","LOCALE":"41","SCHOOLYEAR":"2024-2025"}},{"type":"Feature","geometry":{"type":"Point","coordinates":[-116.325735,48.679722]},"properties":{"NCESSCH":"160042000029","LEAID":"1600420","NAME":"BOUNDARY COUNTY MIDDLE SCHOOL","STATE":"ID","CITY":"BONNERS FERRY","ZIP":"83805","CNTY":"16021","NMCNTY":"Boundary County","LOCALE":"43","SCHOOLYEAR":"2024-2025"}},{"type":"Feature","geometry":{"type":"Point","coordinates":[-116.323305,48.677064]},"properties":{"NCESSCH":"160042000089","LEAID":"1600420","NAME":"BONNERS FERRY HIGH SCHOOL","STATE":"ID","CITY":"BONNERS FERRY","ZIP":"83805","CNTY":"16021","NMCNTY":"Boundary County","LOCALE":"43","SCHOOLYEAR":"2024-2025"}},{"type":"Feature","geometry":{"type":"Point","coordinates":[-116.360286,48.894532]},"properties":{"NCESSCH":"160042000091","LEAID":"1600420","NAME":"MOUNT HALL ELEMENTARY SCHOOL","STATE":"ID","CITY":"BONNERS FERRY","ZIP":"83805","CNTY":"16021","NMCNTY":"Boundary County","LOCALE":"43","SCHOOLYEAR":"2024-2025"}},{"type":"Feature","geometry":{"type":"Point","coordinates":[-116.39418,48.571732]},"properties":{"NCESSCH":"160042000092","LEAID":"1600420","NAME":"NAPLES ELEMENTARY SCHOOL","STATE":"ID","CITY":"NAPLES","ZIP":"83847","CNTY":"16021","NMCNTY":"Boundary County","LOCALE":"43","SCHOOLYEAR":"2024-2025"}},{"type":"Feature","geometry":{"type":"Point","coordinates":[-116.325784,48.68532]},"properties":{"NCESSCH":"160042000094","LEAID":"1600420","NAME":"VALLEY VIEW ELEMENTARY SCHOOL","STATE":"ID","CITY":"BONNERS FERRY","ZIP":"83805","CNTY":"16021","NMCNTY":"Boundary County","LOCALE":"43","SCHOOLYEAR":"2024-2025"}},{"type":"Feature","geometry":{"type":"Point","coordinates":[-116.39418,48.571732]},"properties":{"NCESSCH":"160042001191","LEAID":"1600420","NAME":"BOUNDARY COUNTY ONLINE SCHOOL","STATE":"ID","CITY":"NAPLES","ZIP":"83847","CNTY":"16021","NMCNTY":"Boundary County","LOCALE":"43","SCHOOLYEAR":"2024-2025"}},{"type":"Feature","geometry":{"type":"Point","coordinates":[-115.804481,42.883196]},"properties":{"NCESSCH":"160045000098","LEAID":"1600450","NAME":"BRUNEAU ELEMENTARY SCHOOL","STATE":"ID","CITY":"BRUNEAU","ZIP":"83604","CNTY":"16073","NMCNTY":"Owyhee County","LOCALE":"43","SCHOOLYEAR":"2024-2025"}},{"type":"Feature","geometry":{"type":"Point","coordinates":[-116.093855,42.987392]},"properties":{"NCESSCH":"160045000099","LEAID":"1600450","NAME":"GRAND VIEW ELEMENTARY SCHOOL","STATE":"ID","CITY":"GRAND VIEW","ZIP":"83624","CNTY":"16073","NMCNTY":"Owyhee County","LOCALE":"43","SCHOOLYEAR":"2024-2025"}},{"type":"Feature","geometry":{"type":"Point","coordinates":[-115.989412,42.933493]},"properties":{"NCESSCH":"160045000100","LEAID":"1600450","NAME":"RIMROCK JR/SR HIGH SCHOOL","STATE":"ID","CITY":"BRUNEAU","ZIP":"83604","CNTY":"16073","NMCNTY":"Owyhee County","LOCALE":"43","SCHOOLYEAR":"2024-2025"}},{"type":"Feature","geometry":{"type":"Point","coordinates":[-114.757679,42.603936]},"properties":{"NCESSCH":"160048000101","LEAID":"1600480","NAME":"POPPLEWELL ELEMENTARY SCHOOL","STATE":"ID","CITY":"BUHL","ZIP":"83316","CNTY":"16083","NMCNTY":"Twin Falls County","LOCALE":"42","SCHOOLYEAR":"2024-2025"}},{"type":"Feature","geometry":{"type":"Point","coordinates":[-114.761482,42.606586]},"properties":{"NCESSCH":"160048000102","LEAID":"1600480","NAME":"BUHL HIGH SCHOOL","STATE":"ID","CITY":"BUHL","ZIP":"83316","CNTY":"16083","NMCNTY":"Twin Falls County","LOCALE":"42","SCHOOLYEAR":"2024-2025"}},{"type":"Feature","geometry":{"type":"Point","coordinates":[-114.758516,42.606691]},"properties":{"NCESSCH":"160048000103","LEAID":"1600480","NAME":"BUHL MIDDLE SCHOOL","STATE":"ID","CITY":"BUHL","ZIP":"83316","CNTY":"16083","NMCNTY":"Twin Falls County","LOCALE":"42","SCHOOLYEAR":"2024-2025"}},{"type":"Feature","geometry":{"type":"Point","coordinates":[-114.757931,42.607449]},"properties":{"NCESSCH":"160048001106","LEAID":"1600480","NAME":"WAKAPA ACADEMY","STATE":"ID","CITY":"BUHL","ZIP":"83316","CNTY":"16083","NMCNTY":"Twin Falls County","LOCALE":"42","SCHOOLYEAR":"2024-2025"}},{"type":"Feature","geometry":{"type":"Point","coordinates":[-113.301226,43.632884]},"properties":{"NCESSCH":"160049000007","LEAID":"1600490","NAME":"ARCO ELEMENTARY SCHOOL","STATE":"ID","CITY":"ARCO","ZIP":"83213","CNTY":"16023","NMCNTY":"Butte County","LOCALE":"43","SCHOOLYEAR":"2024-2025"}},{"type":"Feature","geometry":{"type":"Point","coordinates":[-113.302383,43.63358]},"properties":{"NCESSCH":"160049000008","LEAID":"1600490","NAME":"BUTTE COUNTY MIDDLE/HIGH SCHOOL","STATE":"ID","CITY":"ARCO","ZIP":"83213","CNTY":"16023","NMCNTY":"Butte County","LOCALE":"43","SCHOOLYEAR":"2024-2025"}},{"type":"Feature","geometry":{"type":"Point","coordinates":[-113.00403,43.785089]},"properties":{"NCESSCH":"160049000011","LEAID":"1600490","NAME":"HOWE ELEMENTARY SCHOOL","STATE":"ID","CITY":"HOWE","ZIP":"83244","CNTY":"16023","NMCNTY":"Butte County","LOCALE":"43","SCHOOLYEAR":"2024-2025"}},{"type":"Feature","geometry":{"type":"Point","coordinates":[-116.679277,43.667384]},"properties":{"NCESSCH":"160051000041","LEAID":"1600510","NAME":"CANYON SPRINGS HIGH SCHOOL","STATE":"ID","CITY":"CALDWELL","ZIP":"83605","CNTY":"16027","NMCNTY":"Canyon County","LOCALE":"22","SCHOOLYEAR":"2024-2025"}},{"type":"Feature","geometry":{"type":"Point","coordinates":[-116.680177,43.664686]},"properties":{"NCESSCH":"160051000043","LEAID":"1600510","NAME":"SOUTHWEST IDAHO JUVENILE DETENTION","STATE":"ID","CITY":"CALDWELL","ZIP":"83605","CNTY":"16027","NMCNTY":"Canyon County","LOCALE":"22","SCHOOLYEAR":"2024-2025"}},{"type":"Feature","geometry":{"type":"Point","coordinates":[-116.6711,43.640062]},"properties":{"NCESSCH":"160051000104","LEAID":"1600510","NAME":"CALDWELL SENIOR HIGH SCHOOL","STATE":"ID","CITY":"CALDWELL","ZIP":"83605","CNTY":"16027","NMCNTY":"Canyon County","LOCALE":"22","SCHOOLYEAR":"2024-2025"}},{"type":"Feature","geometry":{"type":"Point","coordinates":[-116.690109,43.640121]},"properties":{"NCESSCH":"160051000105","LEAID":"1600510","NAME":"JEFFERSON MIDDLE SCHOOL","STATE":"ID","CITY":"CALDWELL","ZIP":"83605","CNTY":"16027","NMCNTY":"Canyon County","LOCALE":"22","SCHOOLYEAR":"2024-2025"}},{"type":"Feature","geometry":{"type":"Point","coordinates":[-116.688874,43.65804]},"properties":{"NCESSCH":"160051000106","LEAID":"1600510","NAME":"LINCOLN ELEMENTARY SCHOOL","STATE":"ID","CITY":"CALDWELL","ZIP":"83605","CNTY":"16027","NMCNTY":"Canyon County","LOCALE":"22","SCHOOLYEAR":"2024-2025"}},{"type":"Feature","geometry":{"type":"Point","coordinates":[-116.659872,43.674428]},"properties":{"NCESSCH":"160051000107","LEAID":"1600510","NAME":"VAN BUREN ELEMENTARY SCHOOL","STATE":"ID","CITY":"CALDWELL","ZIP":"83605","CNTY":"16027","NMCNTY":"Canyon County","LOCALE":"22","SCHOOLYEAR":"2024-2025"}},{"type":"Feature","geometry":{"type":"Point","coordinates":[-116.686635,43.643508]},"properties":{"NCESSCH":"160051000108","LEAID":"1600510","NAME":"WASHINGTON ELEMENTARY SCHOOL","STATE":"ID","CITY":"CALDWELL","ZIP":"83605","CNTY":"16027","NMCNTY":"Canyon County","LOCALE":"22","SCHOOLYEAR":"2024-2025"}},{"type":"Feature","geometry":{"type":"Point","coordinates":[-116.684224,43.646634]},"properties":{"NCESSCH":"160051000109","LEAID":"1600510","NAME":"SYRINGA MIDDLE SCHOOL","STATE":"ID","CITY":"CALDWELL","ZIP":"83605","CNTY":"16027","NMCNTY":"Canyon County","LOCALE":"22","SCHOOLYEAR":"2024-2025"}},{"type":"Feature","geometry":{"type":"Point","coordinates":[-116.694385,43.646599]},"properties":{"NCESSCH":"160051000609","LEAID":"1600510","NAME":"WILSON ELEMENTARY SCHOOL","STATE":"ID","CITY":"CALDWELL","ZIP":"83605","CNTY":"16027","NMCNTY":"Canyon County","LOCALE":"22","SCHOOLYEAR":"2024-2025"}},{"type":"Feature","geometry":{"type":"Point","coordinates":[-116.677289,43.685172]},"properties":{"NCESSCH":"160051000731","LEAID":"1600510","NAME":"SACAJAWEA ELEMENTARY SCHOOL","STATE":"ID","CITY":"CALDWELL","ZIP":"83605","CNTY":"16027","NMCNTY":"Canyon County","LOCALE":"22","SCHOOLYEAR":"2024-2025"}},{"type":"Feature","geometry":{"type":"Point","coordinates":[-116.685527,43.625067]},"properties":{"NCESSCH":"160051000835","LEAID":"1600510","NAME":"LEWIS AND CLARK ELEMENTARY","STATE":"ID","CITY":"CALDWELL","ZIP":"83605","CNTY":"16027","NMCNTY":"Canyon County","LOCALE":"22","SCHOOLYEAR":"2024-2025"}},{"type":"Feature","geometry":{"type":"Point","coordinates":[-114.791235,43.347126]},"properties":{"NCESSCH":"160054000110","LEAID":"1600540","NAME":"CAMAS COUNTY ELEM/JR HIGH SCHOOL","STATE":"ID","CITY":"FAIRFIELD","ZIP":"83327","CNTY":"16025","NMCNTY":"Camas County","LOCALE":"43","SCHOOLYEAR":"2024-2025"}},{"type":"Feature","geometry":{"type":"Point","coordinates":[-114.791235,43.347126]},"properties":{"NCESSCH":"160054000111","LEAID":"1600540","NAME":"CAMAS COUNTY HIGH SCHOOL","STATE":"ID","CITY":"FAIRFIELD","ZIP":"83327","CNTY":"16025","NMCNTY":"Camas County","LOCALE":"43","SCHOOLYEAR":"2024-2025"}},{"type":"Feature","geometry":{"type":"Point","coordinates":[-116.682372,44.574153]},"properties":{"NCESSCH":"160057000112","LEAID":"1600570","NAME":"CAMBRIDGE ELEMENTARY SCHOOL","STATE":"ID","CITY":"CAMBRIDGE","ZIP":"83610","CNTY":"16087","NMCNTY":"Washington County","LOCALE":"43","SCHOOLYEAR":"2024-2025"}},{"type":"Feature","geometry":{"type":"Point","coordinates":[-116.680053,44.574751]},"properties":{"NCESSCH":"160057000113","LEAID":"1600570","NAME":"CAMBRIDGE MIDDLE/HIGH SCHOOL","STATE":"ID","CITY":"CAMBRIDGE","ZIP":"83610","CNTY":"16087","NMCNTY":"Washington County","LOCALE":"43","SCHOOLYEAR":"2024-2025"}},{"type":"Feature","geometry":{"type":"Point","coordinates":[-116.664345,43.610912]},"properties":{"NCESSCH":"160060000083","LEAID":"1600600","NAME":"CENTRAL CANYON ELEMENTARY SCHOOL","STATE":"ID","CITY":"CALDWELL","ZIP":"83607","CNTY":"16027","NMCNTY":"Canyon County","LOCALE":"22","SCHOOLYEAR":"2024-2025"}},{"type":"Feature","geometry":{"type":"Point","coordinates":[-116.572043,43.640297]},"properties":{"NCESSCH":"160060000115","LEAID":"1600600","NAME":"EAST CANYON ELEMENTARY SCHOOL","STATE":"ID","CITY":"NAMPA","ZIP":"83687","CNTY":"16027","NMCNTY":"Canyon County","LOCALE":"41","SCHOOLYEAR":"2024-2025"}},{"type":"Feature","geometry":{"type":"Point","coordinates":[-116.68081,43.619922]},"properties":{"NCESSCH":"160060000118","LEAID":"1600600","NAME":"VALLIVUE HIGH SCHOOL","STATE":"ID","CITY":"CALDWELL","ZIP":"83607","CNTY":"16027","NMCNTY":"Canyon County","LOCALE":"22","SCHOOLYEAR":"2024-2025"}},{"type":"Feature","geometry":{"type":"Point","coordinates":[-116.784107,43.633656]},"properties":{"NCESSCH":"160060000119","LEAID":"1600600","NAME":"WEST CANYON ELEMENTARY SCHOOL","STATE":"ID","CITY":"CALDWELL","ZIP":"83607","CNTY":"16027","NMCNTY":"Canyon County","LOCALE":"41","SCHOOLYEAR":"2024-2025"}},{"type":"Feature","geometry":{"type":"Point","coordinates":[-116.690466,43.61003]},"properties":{"NCESSCH":"160060000539","LEAID":"1600600","NAME":"VALLIVUE MIDDLE SCHOOL","STATE":"ID","CITY":"CALDWELL","ZIP":"83607","CNTY":"16027","NMCNTY":"Canyon County","LOCALE":"41","SCHOOLYEAR":"2024-2025"}},{"type":"Feature","geometry":{"type":"Point","coordinates":[-116.53203,43.613043]},"properties":{"NCESSCH":"160060000778","LEAID":"1600600","NAME":"BIRCH ELEMENTARY SCHOOL","STATE":"ID","CITY":"NAMPA","ZIP":"83687","CNTY":"16027","NMCNTY":"Canyon County","LOCALE":"22","SCHOOLYEAR":"2024-2025"}},{"type":"Feature","geometry":{"type":"Point","coordinates":[-116.601119,43.634935]},"properties":{"NCESSCH":"160060000838","LEAID":"1600600","NAME":"SAGE VALLEY MIDDLE SCHOOL","STATE":"ID","CITY":"CALDWELL","ZIP":"83687","CNTY":"16027","NMCNTY":"Canyon County","LOCALE":"22","SCHOOLYEAR":"2024-2025"}},{"type":"Feature","geometry":{"type":"Point","coordinates":[-116.632051,43.62711]},"properties":{"NCESSCH":"160060000914","LEAID":"1600600","NAME":"VALLIVUE ACADEMY","STATE":"ID","CITY":"CALDWELL","ZIP":"83607","CNTY":"16027","NMCNTY":"Canyon County","LOCALE":"22","SCHOOLYEAR":"2024-2025"}},{"type":"Feature","geometry":{"type":"Point","coordinates":[-116.601624,43.636849]},"properties":{"NCESSCH":"160060000935","LEAID":"1600600","NAME":"DESERT SPRINGS ELEMENTARY SCHOOL","STATE":"ID","CITY":"NAMPA","ZIP":"83687","CNTY":"16027","NMCNTY":"Canyon County","LOCALE":"22","SCHOOLYEAR":"2024-2025"}},{"type":"Feature","geometry":{"type":"Point","coordinates":[-116.649816,43.596676]},"properties":{"NCESSCH":"160060000976","LEAID":"1600600","NAME":"LAKEVUE ELEMENTARY SCHOOL","STATE":"ID","CITY":"NAMPA","ZIP":"83651","CNTY":"16027","NMCNTY":"Canyon County","LOCALE":"22","SCHOOLYEAR":"2024-2025"}},{"type":"Feature","geometry":{"type":"Point","coordinates":[-116.561982,43.646115]},"properties":{"NCESSCH":"160060001078","LEAID":"1600600","NAME":"RIDGEVUE HIGH SCHOOL","STATE":"ID","CITY":"NAMPA","ZIP":"83687","CNTY":"16027","NMCNTY":"Canyon County","LOCALE":"41","SCHOOLYEAR":"2024-2025"}},{"type":"Feature","geometry":{"type":"Point","coordinates":[-116.622296,43.654917]},"properties":{"NCESSCH":"160060001092","LEAID":"1600600","NAME":"SKYWAY ELEMENTARY","STATE":"ID","CITY":"CALDWELL","ZIP":"83605","CNTY":"16027","NMCNTY":"Canyon County","LOCALE":"22","SCHOOLYEAR":"2024-2025"}},{"type":"Feature","geometry":{"type":"Point","coordinates":[-116.641548,43.667551]},"properties":{"NCESSCH":"160060001140","LEAID":"1600600","NAME":"SUMMITVUE MIDDLE SCHOOL","STATE":"ID","CITY":"CALDWELL","ZIP":"83605","CNTY":"16027","NMCNTY":"Canyon County","LOCALE":"41","SCHOOLYEAR":"2024-2025"}},{"type":"Feature","geometry":{"type":"Point","coordinates":[-116.045756,44.515763]},"properties":{"NCESSCH":"160063000120","LEAID":"1600630","NAME":"CASCADE ELEMENTARY SCHOOL","STATE":"ID","CITY":"CASCADE","ZIP":"83611","CNTY":"16085","NMCNTY":"Valley County","LOCALE":"43","SCHOOLYEAR":"2024-2025"}},{"type":"Feature","geometry":{"type":"Point","coordinates":[-116.045756,44.515763]},"properties":{"NCESSCH":"160063000121","LEAID":"1600630","NAME":"CASCADE JR/SR HIGH SCHOOL","STATE":"ID","CITY":"CASCADE","ZIP":"83611","CNTY":"16085","NMCNTY":"Valley County","LOCALE":"43","SCHOOLYEAR":"2024-2025"}},{"type":"Feature","geometry":{"type":"Point","coordinates":[-113.583624,42.41162]},"properties":{"NCESSCH":"160066000122","LEAID":"1600660","NAME":"ALBION ELEMENTARY SCHOOL","STATE":"ID","CITY":"ALBION","ZIP":"83311","CNTY":"16031","NMCNTY":"Cassia County","LOCALE":"43","SCHOOLYEAR":"2024-2025"}},{"type":"Feature","geometry":{"type":"Point","coordinates":[-113.804174,42.526505]},"properties":{"NCESSCH":"160066000124","LEAID":"1600660","NAME":"BURLEY SENIOR HIGH SCHOOL","STATE":"ID","CITY":"BURLEY","ZIP":"83318","CNTY":"16031","NMCNTY":"Cassia County","LOCALE":"32","SCHOOLYEAR":"2024-2025"}},{"type":"Feature","geometry":{"type":"Point","coordinates":[-113.800784,42.533671]},"properties":{"NCESSCH":"160066000125","LEAID":"1600660","NAME":"BURLEY JUNIOR HIGH SCHOOL","STATE":"ID","CITY":"BURLEY","ZIP":"83318","CNTY":"16031","NMCNTY":"Cassia County","LOCALE":"32","SCHOOLYEAR":"2024-2025"}},{"type":"Feature","geometry":{"type":"Point","coordinates":[-113.625365,42.517365]},"properties":{"NCESSCH":"160066000126","LEAID":"1600660","NAME":"DECLO ELEMENTARY SCHOOL","STATE":"ID","CITY":"DECLO","ZIP":"83323","CNTY":"16031","NMCNTY":"Cassia County","LOCALE":"42","SCHOOLYEAR":"2024-2025"}},{"type":"Feature","geometry":{"type":"Point","coordinates":[-113.621774,42.516605]},"properties":{"NCESSCH":"160066000127","LEAID":"1600660","NAME":"DECLO SENIOR HIGH SCHOOL","STATE":"ID","CITY":"DECLO","ZIP":"83323","CNTY":"16031","NMCNTY":"Cassia County","LOCALE":"42","SCHOOLYEAR":"2024-2025"}},{"type":"Feature","geometry":{"type":"Point","coordinates":[-113.792562,42.528832]},"properties":{"NCESSCH":"160066000128","LEAID":"1600660","NAME":"DWORSHAK ELEMENTARY SCHOOL","STATE":"ID","CITY":"BURLEY","ZIP":"83318","CNTY":"16031","NMCNTY":"Cassia County","LOCALE":"32","SCHOOLYEAR":"2024-2025"}},{"type":"Feature","geometry":{"type":"Point","coordinates":[-113.373572,42.30754]},"properties":{"NCESSCH":"160066000129","LEAID":"1600660","NAME":"RAFT RIVER ELEMENTARY SCHOOL","STATE":"ID","CITY":"MALTA","ZIP":"83342","CNTY":"16031","NMCNTY":"Cassia County","LOCALE":"43","SCHOOLYEAR":"2024-2025"}},{"type":"Feature","geometry":{"type":"Point","coordinates":[-113.796246,42.517778]},"properties":{"NCESSCH":"160066000130","LEAID":"1600660","NAME":"MOUNTAIN VIEW ELEMENTARY","STATE":"ID","CITY":"BURLEY","ZIP":"83318","CNTY":"16031","NMCNTY":"Cassia County","LOCALE":"32","SCHOOLYEAR":"2024-2025"}},{"type":"Feature","geometry":{"type":"Point","coordinates":[-113.890046,42.245752]},"properties":{"NCESSCH":"160066000131","LEAID":"1600660","NAME":"OAKLEY ELEMENTARY SCHOOL","STATE":"ID","CITY":"OAKLEY","ZIP":"83346","CNTY":"16031","NMCNTY":"Cassia County","LOCALE":"43","SCHOOLYEAR":"2024-2025"}},{"type":"Feature","geometry":{"type":"Point","coordinates":[-113.890032,42.243624]},"properties":{"NCESSCH":"160066000132","LEAID":"1600660","NAME":"OAKLEY JR/SR HIGH SCHOOL","STATE":"ID","CITY":"OAKLEY","ZIP":"83346","CNTY":"16031","NMCNTY":"Cassia County","LOCALE":"43","SCHOOLYEAR":"2024-2025"}},{"type":"Feature","geometry":{"type":"Point","coordinates":[-113.372244,42.307704]},"properties":{"NCESSCH":"160066000134","LEAID":"1600660","NAME":"RAFT RIVER JR/SR HIGH SCHOOL","STATE":"ID","CITY":"MALTA","ZIP":"83342","CNTY":"16031","NMCNTY":"Cassia County","LOCALE":"43","SCHOOLYEAR":"2024-2025"}},{"type":"Feature","geometry":{"type":"Point","coordinates":[-113.784455,42.52855]},"properties":{"NCESSCH":"160066000387","LEAID":"1600660","NAME":"WHITE PINE ELEMENTARY","STATE":"ID","CITY":"BURLEY","ZIP":"83318","CNTY":"16031","NMCNTY":"Cassia County","LOCALE":"32","SCHOOLYEAR":"2024-2025"}},{"type":"Feature","geometry":{"type":"Point","coordinates":[-113.803692,42.532182]},"properties":{"NCESSCH":"160066000540","LEAID":"1600660","NAME":"CASSIA JR/SR HIGH SCHOOL","STATE":"ID","CITY":"BURLEY","ZIP":"83318","CNTY":"16031","NMCNTY":"Cassia County","LOCALE":"32","SCHOOLYEAR":"2024-2025"}},{"type":"Feature","geometry":{"type":"Point","coordinates":[-113.62504,42.517778]},"properties":{"NCESSCH":"160066000610","LEAID":"1600660","NAME":"DECLO JR HIGH SCHOOL","STATE":"ID","CITY":"DECLO","ZIP":"83323","CNTY":"16031","NMCNTY":"Cassia County","LOCALE":"42","SCHOOLYEAR":"2024-2025"}},{"type":"Feature","geometry":{"type":"Point","coordinates":[-113.805978,42.532591]},"properties":{"NCESSCH":"160066000782","LEAID":"1600660","NAME":"CASSIA REGIONAL TECHNICAL CENTER","STATE":"ID","CITY":"BURLEY","ZIP":"83318","CNTY":"16031","NMCNTY":"Cassia County","LOCALE":"32","SCHOOLYEAR":"2024-2025"}},{"type":"Feature","geometry":{"type":"Point","coordinates":[-113.804425,42.513986]},"properties":{"NCESSCH":"160066001088","LEAID":"1600660","NAME":"JOHN V EVANS ELEMENTARY","STATE":"ID","CITY":"BURLEY","ZIP":"83318","CNTY":"16031","NMCNTY":"Cassia County","LOCALE":"32","SCHOOLYEAR":"2024-2025"}},{"type":"Feature","geometry":{"type":"Point","coordinates":[-113.793782,42.5064]},"properties":{"NCESSCH":"160066001141","LEAID":"1600660","NAME":"MINI-CASSIA ONLINE LEARNING ACADEMY","STATE":"ID","CITY":"BURLEY","ZIP":"83318","CNTY":"16031","NMCNTY":"Cassia County","LOCALE":"41","SCHOOLYEAR":"2024-2025"}},{"type":"Feature","geometry":{"type":"Point","coordinates":[-114.875277,42.521564]},"properties":{"NCESSCH":"160069000137","LEAID":"1600690","NAME":"CASTLEFORD SCHOOL","STATE":"ID","CITY":"CASTLEFORD","ZIP":"83321","CNTY":"16083","NMCNTY":"Twin Falls County","LOCALE":"42","SCHOOLYEAR":"2024-2025"}},{"type":"Feature","geometry":{"type":"Point","coordinates":[-114.229111,44.507501]},"properties":{"NCESSCH":"160072000139","LEAID":"1600720","NAME":"CHALLIS ELEMENTARY SCHOOL","STATE":"ID","CITY":"CHALLIS","ZIP":"83226","CNTY":"16037","NMCNTY":"Custer County","LOCALE":"43","SCHOOLYEAR":"2024-2025"}},{"type":"Feature","geometry":{"type":"Point","coordinates":[-114.225813,44.508213]},"properties":{"NCESSCH":"160072000140","LEAID":"1600720","NAME":"CHALLIS JR/SR HIGH SCHOOL","STATE":"ID","CITY":"CHALLIS","ZIP":"83226","CNTY":"16037","NMCNTY":"Custer County","LOCALE":"43","SCHOOLYEAR":"2024-2025"}},{"type":"Feature","geometry":{"type":"Point","coordinates":[-114.401245,44.259204]},"properties":{"NCESSCH":"160072000141","LEAID":"1600720","NAME":"CLAYTON ELEMENTARY SCHOOL","STATE":"ID","CITY":"CLAYTON","ZIP":"83227","CNTY":"16037","NMCNTY":"Custer County","LOCALE":"43","SCHOOLYEAR":"2024-2025"}},{"type":"Feature","geometry":{"type":"Point","coordinates":[-113.718222,44.525162]},"properties":{"NCESSCH":"160072000142","LEAID":"1600720","NAME":"PATTERSON ELEMENTARY SCHOOL","STATE":"ID","CITY":"MAY","ZIP":"83253","CNTY":"16059","NMCNTY":"Lemhi County","LOCALE":"43","SCHOOLYEAR":"2024-2025"}},{"type":"Feature","geometry":{"type":"Point","coordinates":[-114.939001,44.212886]},"properties":{"NCESSCH":"160072000143","LEAID":"1600720","NAME":"STANLEY ELEM/JR HIGH SCHOOL","STATE":"ID","CITY":"STANLEY","ZIP":"83278","CNTY":"16037","NMCNTY":"Custer County","LOCALE":"43","SCHOOLYEAR":"2024-2025"}},{"type":"Feature","geometry":{"type":"Point","coordinates":[-112.230523,44.172949]},"properties":{"NCESSCH":"160075000144","LEAID":"1600750","NAME":"CLARK COUNTY JR/SR HIGH SCHOOL","STATE":"ID","CITY":"DUBOIS","ZIP":"83423","CNTY":"16033","NMCNTY":"Clark County","LOCALE":"43","SCHOOLYEAR":"2024-2025"}},{"type":"Feature","geometry":{"type":"Point","coordinates":[-112.230239,44.170149]},"properties":{"NCESSCH":"160075000145","LEAID":"1600750","NAME":"LINDY ROSS ELEMENTARY SCHOOL","STATE":"ID","CITY":"DUBOIS","ZIP":"83423","CNTY":"16033","NMCNTY":"Clark County","LOCALE":"43","SCHOOLYEAR":"2024-2025"}},{"type":"Feature","geometry":{"type":"Point","coordinates":[-116.77511,47.757993]},"properties":{"NCESSCH":"160078000114","LEAID":"1600780","NAME":"HAYDEN MEADOWS ELEMENTARY SCHOOL","STATE":"ID","CITY":"HAYDEN LAKE","ZIP":"83835","CNTY":"16055","NMCNTY":"Kootenai County","LOCALE":"22","SCHOOLYEAR":"2024-2025"}},{"type":"Feature","geometry":{"type":"Point","coordinates":[-116.77709,47.698553]},"properties":{"NCESSCH":"160078000146","LEAID":"1600780","NAME":"BORAH ELEMENTARY SCHOOL","STATE":"ID","CITY":"COEUR D'ALENE","ZIP":"83814","CNTY":"16055","NMCNTY":"Kootenai County","LOCALE":"13","SCHOOLYEAR":"2024-2025"}},{"type":"Feature","geometry":{"type":"Point","coordinates":[-116.775183,47.685784]},"properties":{"NCESSCH":"160078000147","LEAID":"1600780","NAME":"BRYAN ELEMENTARY SCHOOL","STATE":"ID","CITY":"COEUR D'ALENE","ZIP":"83814","CNTY":"16055","NMCNTY":"Kootenai County","LOCALE":"13","SCHOOLYEAR":"2024-2025"}},{"type":"Feature","geometry":{"type":"Point","coordinates":[-116.763265,47.721875]},"properties":{"NCESSCH":"160078000148","LEAID":"1600780","NAME":"CANFIELD MIDDLE SCHOOL","STATE":"ID","CITY":"COEUR D'ALENE","ZIP":"83815","CNTY":"16055","NMCNTY":"Kootenai County","LOCALE":"13","SCHOOLYEAR":"2024-2025"}},{"type":"Feature","geometry":{"type":"Point","coordinates":[-116.777289,47.721028]},"properties":{"NCESSCH":"160078000149","LEAID":"1600780","NAME":"COEUR D'ALENE HIGH SCHOOL","STATE":"ID","CITY":"COEUR D'ALENE","ZIP":"83815","CNTY":"16055","NMCNTY":"Kootenai County","LOCALE":"13","SCHOOLYEAR":"2024-2025"}},{"type":"Feature","geometry":{"type":"Point","coordinates":[-116.77107,47.728973]},"properties":{"NCESSCH":"160078000150","LEAID":"1600780","NAME":"DALTON ELEMENTARY SCHOOL","STATE":"ID","CITY":"DALTON GARDENS","ZIP":"83815","CNTY":"16055","NMCNTY":"Kootenai County","LOCALE":"22","SCHOOLYEAR":"2024-2025"}},{"type":"Feature","geometry":{"type":"Point","coordinates":[-116.827592,47.751226]},"properties":{"NCESSCH":"160078000152","LEAID":"1600780","NAME":"ATLAS ELEMENTARY SCHOOL","STATE":"ID","CITY":"HAYDEN LAKE","ZIP":"83835","CNTY":"16055","NMCNTY":"Kootenai County","LOCALE":"22","SCHOOLYEAR":"2024-2025"}},{"type":"Feature","geometry":{"type":"Point","coordinates":[-116.766433,47.682072]},"properties":{"NCESSCH":"160078000153","LEAID":"1600780","NAME":"LAKES MAGNET SCHOOL","STATE":"ID","CITY":"COEUR D'ALENE","ZIP":"83814","CNTY":"16055","NMCNTY":"Kootenai County","LOCALE":"13","SCHOOLYEAR":"2024-2025"}},{"type":"Feature","geometry":{"type":"Point","coordinates":[-116.804251,47.716287]},"properties":{"NCESSCH":"160078000155","LEAID":"1600780","NAME":"RAMSEY MAGNET SCHOOL OF SCIENCE","STATE":"ID","CITY":"COEUR D'ALENE","ZIP":"83815","CNTY":"16055","NMCNTY":"Kootenai County","LOCALE":"13","SCHOOLYEAR":"2024-2025"}},{"type":"Feature","geometry":{"type":"Point","coordinates":[-116.773529,47.675405]},"properties":{"NCESSCH":"160078000156","LEAID":"1600780","NAME":"SORENSEN MAGNET SCHOOL OF THE ARTS AND HUMANITIES","STATE":"ID","CITY":"COEUR D'ALENE","ZIP":"83814","CNTY":"16055","NMCNTY":"Kootenai County","LOCALE":"13","SCHOOLYEAR":"2024-2025"}},{"type":"Feature","geometry":{"type":"Point","coordinates":[-116.796832,47.689367]},"properties":{"NCESSCH":"160078000157","LEAID":"1600780","NAME":"WINTON ELEMENTARY SCHOOL","STATE":"ID","CITY":"COEUR D'ALENE","ZIP":"83814","CNTY":"16055","NMCNTY":"Kootenai County","LOCALE":"13","SCHOOLYEAR":"2024-2025"}},{"type":"Feature","geometry":{"type":"Point","coordinates":[-116.755473,47.677021]},"properties":{"NCESSCH":"160078000208","LEAID":"1600780","NAME":"FERNAN STEM ACADEMY","STATE":"ID","CITY":"COEUR D'ALENE","ZIP":"83814","CNTY":"16055","NMCNTY":"Kootenai County","LOCALE":"13","SCHOOLYEAR":"2024-2025"}},{"type":"Feature","geometry":{"type":"Point","coordinates":[-116.81037,47.728011]},"properties":{"NCESSCH":"160078000291","LEAID":"1600780","NAME":"LAKE CITY HIGH SCHOOL","STATE":"ID","CITY":"COEUR D'ALENE","ZIP":"83815","CNTY":"16055","NMCNTY":"Kootenai County","LOCALE":"13","SCHOOLYEAR":"2024-2025"}},{"type":"Feature","geometry":{"type":"Point","coordinates":[-116.775083,47.690183]},"properties":{"NCESSCH":"160078000694","LEAID":"1600780","NAME":"VENTURE ACADEMY","STATE":"ID","CITY":"COEUR D'ALENE","ZIP":"83814","CNTY":"16055","NMCNTY":"Kootenai County","LOCALE":"13","SCHOOLYEAR":"2024-2025"}},{"type":"Feature","geometry":{"type":"Point","coordinates":[-116.783715,47.722167]},"properties":{"NCESSCH":"160078000704","LEAID":"1600780","NAME":"CDA JUVENILE DETENTION CENTER","STATE":"ID","CITY":"DALTON GARDENS","ZIP":"83815","CNTY":"16055","NMCNTY":"Kootenai County","LOCALE":"13","SCHOOLYEAR":"2024-2025"}},{"type":"Feature","geometry":{"type":"Point","coordinates":[-116.820391,47.722043]},"properties":{"NCESSCH":"160078000747","LEAID":"1600780","NAME":"WOODLAND MIDDLE SCHOOL","STATE":"ID","CITY":"COEUR D'ALENE","ZIP":"83815","CNTY":"16055","NMCNTY":"Kootenai County","LOCALE":"13","SCHOOLYEAR":"2024-2025"}},{"type":"Feature","geometry":{"type":"Point","coordinates":[-116.81861,47.732295]},"properties":{"NCESSCH":"160078000799","LEAID":"1600780","NAME":"SKYWAY ELEMENTARY SCHOOL","STATE":"ID","CITY":"COEUR D'ALENE","ZIP":"83815","CNTY":"16055","NMCNTY":"Kootenai County","LOCALE":"13","SCHOOLYEAR":"2024-2025"}},{"type":"Feature","geometry":{"type":"Point","coordinates":[-116.812708,47.743722]},"properties":{"NCESSCH":"160078001089","LEAID":"1600780","NAME":"NORTHWEST EXPEDITION ACADEMY","STATE":"ID","CITY":"HAYDEN","ZIP":"83835","CNTY":"16055","NMCNTY":"Kootenai County","LOCALE":"13","SCHOOLYEAR":"2024-2025"}},{"type":"Feature","geometry":{"type":"Point","coordinates":[-116.77709,47.698553]},"properties":{"NCESSCH":"160078001118","LEAID":"1600780","NAME":"COEUR D'ALENE EARLY CHILDHOOD LERNING CENTER","STATE":"ID","CITY":"COEUR D'ALENE","ZIP":"83814","CNTY":"16055","NMCNTY":"Kootenai County","LOCALE":"13","SCHOOLYEAR":"2024-2025"}},{"type":"Feature","geometry":{"type":"Point","coordinates":[-116.805501,47.697979]},"properties":{"NCESSCH":"160078001154","LEAID":"1600780","NAME":"COEUR D'ALENE VIRTUAL ACADMEY","STATE":"ID","CITY":"COEUR D'ALENE","ZIP":"83814","CNTY":"16055","NMCNTY":"Kootenai County","LOCALE":"13","SCHOOLYEAR":"2024-2025"}},{"type":"Feature","geometry":{"type":"Point","coordinates":[-116.346944,46.060872]},"properties":{"NCESSCH":"160081000160","LEAID":"1600810","NAME":"PRAIRIE ELEMENTARY SCHOOL","STATE":"ID","CITY":"COTTONWOOD","ZIP":"83522","CNTY":"16049","NMCNTY":"Idaho County","LOCALE":"43","SCHOOLYEAR":"2024-2025"}},{"type":"Feature","geometry":{"type":"Point","coordinates":[-116.391478,46.035053]},"properties":{"NCESSCH":"160081000161","LEAID":"1600810","NAME":"PRAIRIE JR/SR HIGH SCHOOL","STATE":"ID","CITY":"COTTONWOOD","ZIP":"83522","CNTY":"16049","NMCNTY":"Idaho County","LOCALE":"43","SCHOOLYEAR":"2024-2025"}},{"type":"Feature","geometry":{"type":"Point","coordinates":[-116.890619,47.333407]},"properties":{"NCESSCH":"160081500647","LEAID":"1600815","NAME":"LAKESIDE MIDDLE SCHOOL","STATE":"ID","CITY":"PLUMMER","ZIP":"83851","CNTY":"16009","NMCNTY":"Benewah County","LOCALE":"42","SCHOOLYEAR":"2024-2025"}},{"type":"Feature","geometry":{"type":"Point","coordinates":[-116.894027,47.332671]},"properties":{"NCESSCH":"160081500719","LEAID":"1600815","NAME":"LAKESIDE ELEMENTARY SCHOOL","STATE":"ID","CITY":"PLUMMER","ZIP":"83851","CNTY":"16009","NMCNTY":"Benewah County","LOCALE":"42","SCHOOLYEAR":"2024-2025"}},{"type":"Feature","geometry":{"type":"Point","coordinates":[-116.890619,47.333407]},"properties":{"NCESSCH":"160081500720","LEAID":"1600815","NAME":"LAKESIDE HIGH SCHOOL","STATE":"ID","CITY":"PLUMMER","ZIP":"83851","CNTY":"16009","NMCNTY":"Benewah County","LOCALE":"42","SCHOOLYEAR":"2024-2025"}},{"type":"Feature","geometry":{"type":"Point","coordinates":[-116.44038,44.726257]},"properties":{"NCESSCH":"160084000162","LEAID":"1600840","NAME":"COUNCIL ELEMENTARY SCHOOL","STATE":"ID","CITY":"COUNCIL","ZIP":"83612","CNTY":"16003","NMCNTY":"Adams County","LOCALE":"43","SCHOOLYEAR":"2024-2025"}},{"type":"Feature","geometry":{"type":"Point","coordinates":[-116.439677,44.727619]},"properties":{"NCESSCH":"160084000163","LEAID":"1600840","NAME":"COUNCIL JR/SR HIGH SCHOOL","STATE":"ID","CITY":"COUNCIL","ZIP":"83612","CNTY":"16003","NMCNTY":"Adams County","LOCALE":"43","SCHOOLYEAR":"2024-2025"}},{"type":"Feature","geometry":{"type":"Point","coordinates":[-116.671432,46.375279]},"properties":{"NCESSCH":"160087000164","LEAID":"1600870","NAME":"CULDESAC SCHOOL","STATE":"ID","CITY":"CULDESAC","ZIP":"83524","CNTY":"16069","NMCNTY":"Nez Perce County","LOCALE":"42","SCHOOLYEAR":"2024-2025"}},{"type":"Feature","geometry":{"type":"Point","coordinates":[-114.262937,42.913017]},"properties":{"NCESSCH":"160090000165","LEAID":"1600900","NAME":"DIETRICH SCHOOL","STATE":"ID","CITY":"DIETRICH","ZIP":"83324","CNTY":"16063","NMCNTY":"Lincoln County","LOCALE":"42","SCHOOLYEAR":"2024-2025"}},{"type":"Feature","geometry":{"type":"Point","coordinates":[-111.977337,43.470668]},"properties":{"NCESSCH":"160093000024","LEAID":"1600930","NAME":"HILLCREST HIGH SCHOOL","STATE":"ID","CITY":"AMMON","ZIP":"83406","CNTY":"16019","NMCNTY":"Bonneville County","LOCALE":"22","SCHOOLYEAR":"2024-2025"}},{"type":"Feature","geometry":{"type":"Point","coordinates":[-111.96776,43.471186]},"properties":{"NCESSCH":"160093000167","LEAID":"1600930","NAME":"AMMON ELEMENTARY SCHOOL","STATE":"ID","CITY":"AMMON","ZIP":"83406","CNTY":"16019","NMCNTY":"Bonneville County","LOCALE":"22","SCHOOLYEAR":"2024-2025"}},{"type":"Feature","geometry":{"type":"Point","coordinates":[-111.965291,43.526616]},"properties":{"NCESSCH":"160093000168","LEAID":"1600930","NAME":"ROCKY MOUNTAIN MIDDLE SCHOOL","STATE":"ID","CITY":"IDAHO FALLS","ZIP":"83401","CNTY":"16019","NMCNTY":"Bonneville County","LOCALE":"22","SCHOOLYEAR":"2024-2025"}},{"type":"Feature","geometry":{"type":"Point","coordinates":[-111.971677,43.527148]},"properties":{"NCESSCH":"160093000169","LEAID":"1600930","NAME":"BONNEVILLE HIGH SCHOOL","STATE":"ID","CITY":"IDAHO FALLS","ZIP":"83401","CNTY":"16019","NMCNTY":"Bonneville County","LOCALE":"22","SCHOOLYEAR":"2024-2025"}},{"type":"Feature","geometry":{"type":"Point","coordinates":[-112.014688,43.583036]},"properties":{"NCESSCH":"160093000172","LEAID":"1600930","NAME":"FAIRVIEW ELEMENTARY SCHOOL","STATE":"ID","CITY":"IDAHO FALLS","ZIP":"83401","CNTY":"16019","NMCNTY":"Bonneville County","LOCALE":"41","SCHOOLYEAR":"2024-2025"}},{"type":"Feature","geometry":{"type":"Point","coordinates":[-111.984971,43.497958]},"properties":{"NCESSCH":"160093000173","LEAID":"1600930","NAME":"FALLS VALLEY ELEMENTARY SCHOOL","STATE":"ID","CITY":"IDAHO FALLS","ZIP":"83401","CNTY":"16019","NMCNTY":"Bonneville County","LOCALE":"13","SCHOOLYEAR":"2024-2025"}},{"type":"Feature","geometry":{"type":"Point","coordinates":[-111.9723,43.475419]},"properties":{"NCESSCH":"160093000175","LEAID":"1600930","NAME":"HILLVIEW ELEMENTARY SCHOOL","STATE":"ID","CITY":"AMMON","ZIP":"83406","CNTY":"16019","NMCNTY":"Bonneville County","LOCALE":"22","SCHOOLYEAR":"2024-2025"}},{"type":"Feature","geometry":{"type":"Point","coordinates":[-111.926482,43.524719]},"properties":{"NCESSCH":"160093000176","LEAID":"1600930","NAME":"IONA ELEMENTARY SCHOOL","STATE":"ID","CITY":"IONA","ZIP":"83427","CNTY":"16019","NMCNTY":"Bonneville County","LOCALE":"22","SCHOOLYEAR":"2024-2025"}},{"type":"Feature","geometry":{"type":"Point","coordinates":[-111.951686,43.593184]},"properties":{"NCESSCH":"160093000178","LEAID":"1600930","NAME":"UCON ELEMENTARY SCHOOL","STATE":"ID","CITY":"IDAHO FALLS","ZIP":"83401","CNTY":"16019","NMCNTY":"Bonneville County","LOCALE":"41","SCHOOLYEAR":"2024-2025"}},{"type":"Feature","geometry":{"type":"Point","coordinates":[-111.96863,43.511809]},"properties":{"NCESSCH":"160093000361","LEAID":"1600930","NAME":"LINCOLN HIGH SCHOOL","STATE":"ID","CITY":"IDAHO FALLS","ZIP":"83401","CNTY":"16019","NMCNTY":"Bonneville County","LOCALE":"22","SCHOOLYEAR":"2024-2025"}},{"type":"Feature","geometry":{"type":"Point","coordinates":[-111.953412,43.504336]},"properties":{"NCESSCH":"160093000630","LEAID":"1600930","NAME":"CLOVERDALE ELEMENTARY SCHOOL","STATE":"ID","CITY":"IDAHO FALLS","ZIP":"83401","CNTY":"16019","NMCNTY":"Bonneville County","LOCALE":"22","SCHOOLYEAR":"2024-2025"}},{"type":"Feature","geometry":{"type":"Point","coordinates":[-111.975719,43.473444]},"properties":{"NCESSCH":"160093000651","LEAID":"1600930","NAME":"SANDCREEK MIDDLE SCHOOL","STATE":"ID","CITY":"IDAHO FALLS","ZIP":"83406","CNTY":"16019","NMCNTY":"Bonneville County","LOCALE":"22","SCHOOLYEAR":"2024-2025"}},{"type":"Feature","geometry":{"type":"Point","coordinates":[-111.964474,43.528025]},"properties":{"NCESSCH":"160093000663","LEAID":"1600930","NAME":"SPECIAL SERVICES CENTER","STATE":"ID","CITY":"IDAHO FALLS","ZIP":"83401","CNTY":"16019","NMCNTY":"Bonneville County","LOCALE":"22","SCHOOLYEAR":"2024-2025"}},{"type":"Feature","geometry":{"type":"Point","coordinates":[-111.971743,43.495241]},"properties":{"NCESSCH":"160093000670","LEAID":"1600930","NAME":"TIEBREAKER ELEMENTARY SCHOOL","STATE":"ID","CITY":"IDAHO FALLS","ZIP":"83401","CNTY":"16019","NMCNTY":"Bonneville County","LOCALE":"22","SCHOOLYEAR":"2024-2025"}},{"type":"Feature","geometry":{"type":"Point","coordinates":[-111.935556,43.477206]},"properties":{"NCESSCH":"160093000909","LEAID":"1600930","NAME":"RIMROCK ELEMENTARY","STATE":"ID","CITY":"AMMON","ZIP":"83406","CNTY":"16019","NMCNTY":"Bonneville County","LOCALE":"22","SCHOOLYEAR":"2024-2025"}},{"type":"Feature","geometry":{"type":"Point","coordinates":[-111.960677,43.455136]},"properties":{"NCESSCH":"160093000910","LEAID":"1600930","NAME":"WOODLAND HILLS ELEMENTARY","STATE":"ID","CITY":"AMMON","ZIP":"83406","CNTY":"16019","NMCNTY":"Bonneville County","LOCALE":"22","SCHOOLYEAR":"2024-2025"}},{"type":"Feature","geometry":{"type":"Point","coordinates":[-111.958622,43.522554]},"properties":{"NCESSCH":"160093000971","LEAID":"1600930","NAME":"DISCOVERY ELEMENTARY SCHOOL","STATE":"ID","CITY":"IDAHO FALLS","ZIP":"83401","CNTY":"16019","NMCNTY":"Bonneville County","LOCALE":"22","SCHOOLYEAR":"2024-2025"}},{"type":"Feature","geometry":{"type":"Point","coordinates":[-111.966236,43.509236]},"properties":{"NCESSCH":"160093000975","LEAID":"1600930","NAME":"BRIDGEWATER ELEMENTARY SCHOOL","STATE":"ID","CITY":"IDAHO FALLS","ZIP":"83401","CNTY":"16019","NMCNTY":"Bonneville County","LOCALE":"22","SCHOOLYEAR":"2024-2025"}},{"type":"Feature","geometry":{"type":"Point","coordinates":[-111.99366,43.539656]},"properties":{"NCESSCH":"160093000999","LEAID":"1600930","NAME":"BONNEVILLE ONLINE ELEMENTARY","STATE":"ID","CITY":"IDAHO FALLS","ZIP":"83401","CNTY":"16019","NMCNTY":"Bonneville County","LOCALE":"41","SCHOOLYEAR":"2024-2025"}},{"type":"Feature","geometry":{"type":"Point","coordinates":[-111.951913,43.474046]},"properties":{"NCESSCH":"160093001015","LEAID":"1600930","NAME":"MOUNTAIN VALLEY ELEMENTARY SCHOOL","STATE":"ID","CITY":"AMMON","ZIP":"83406","CNTY":"16019","NMCNTY":"Bonneville County","LOCALE":"22","SCHOOLYEAR":"2024-2025"}},{"type":"Feature","geometry":{"type":"Point","coordinates":[-111.966297,43.526211]},"properties":{"NCESSCH":"160093001050","LEAID":"1600930","NAME":"BONNEVILLE ONLINE SCHOOL","STATE":"ID","CITY":"IDAHO FALLS","ZIP":"83401","CNTY":"16019","NMCNTY":"Bonneville County","LOCALE":"22","SCHOOLYEAR":"2024-2025"}},{"type":"Feature","geometry":{"type":"Point","coordinates":[-111.977543,43.522343]},"properties":{"NCESSCH":"160093001062","LEAID":"1600930","NAME":"SUMMIT HILLS ELEMENTARY SCHOOL","STATE":"ID","CITY":"IDAHO FALLS","ZIP":"83401","CNTY":"16019","NMCNTY":"Bonneville County","LOCALE":"22","SCHOOLYEAR":"2024-2025"}},{"type":"Feature","geometry":{"type":"Point","coordinates":[-111.965349,43.527452]},"properties":{"NCESSCH":"160093001063","LEAID":"1600930","NAME":"TECHNICAL CAREERS HIGH SCHOOL","STATE":"ID","CITY":"IDAHO FALLS","ZIP":"83401","CNTY":"16019","NMCNTY":"Bonneville County","LOCALE":"22","SCHOOLYEAR":"2024-2025"}},{"type":"Feature","geometry":{"type":"Point","coordinates":[-111.936118,43.499155]},"properties":{"NCESSCH":"160093001097","LEAID":"1600930","NAME":"THUNDER RIDGE HIGH SCHOOL","STATE":"ID","CITY":"IDAHO FALLS","ZIP":"83401","CNTY":"16019","NMCNTY":"Bonneville County","LOCALE":"41","SCHOOLYEAR":"2024-2025"}},{"type":"Feature","geometry":{"type":"Point","coordinates":[-111.932405,43.498881]},"properties":{"NCESSCH":"160093001155","LEAID":"1600930","NAME":"BLACK CANYON MIDDLE SCHOOL","STATE":"ID","CITY":"IDAHO FALLS","ZIP":"83401","CNTY":"16019","NMCNTY":"Bonneville County","LOCALE":"41","SCHOOLYEAR":"2024-2025"}},{"type":"Feature","geometry":{"type":"Point","coordinates":[-111.965349,43.527452]},"properties":{"NCESSCH":"160093001171","LEAID":"1600930","NAME":"PRAXIUM MASTERY ACADEMY","STATE":"ID","CITY":"IDAHO FALLS","ZIP":"83401","CNTY":"16019","NMCNTY":"Bonneville County","LOCALE":"22","SCHOOLYEAR":"2024-2025"}},{"type":"Feature","geometry":{"type":"Point","coordinates":[-111.865705,42.086781]},"properties":{"NCESSCH":"160096000181","LEAID":"1600960","NAME":"OAKWOOD ELEMENTARY SCHOOL","STATE":"ID","CITY":"PRESTON","ZIP":"83263","CNTY":"16041","NMCNTY":"Franklin County","LOCALE":"42","SCHOOLYEAR":"2024-2025"}},{"type":"Feature","geometry":{"type":"Point","coordinates":[-111.872547,42.092497]},"properties":{"NCESSCH":"160096000182","LEAID":"1600960","NAME":"PRESTON HIGH SCHOOL","STATE":"ID","CITY":"PRESTON","ZIP":"83263","CNTY":"16041","NMCNTY":"Franklin County","LOCALE":"42","SCHOOLYEAR":"2024-2025"}},{"type":"Feature","geometry":{"type":"Point","coordinates":[-111.864657,42.082859]},"properties":{"NCESSCH":"160096000612","LEAID":"1600960","NAME":"PRESTON JR HIGH SCHOOL","STATE":"ID","CITY":"PRESTON","ZIP":"83263","CNTY":"16041","NMCNTY":"Franklin County","LOCALE":"42","SCHOOLYEAR":"2024-2025"}},{"type":"Feature","geometry":{"type":"Point","coordinates":[-111.865514,42.087461]},"properties":{"NCESSCH":"160096000709","LEAID":"1600960","NAME":"PIONEER ELEMENTARY SCHOOL","STATE":"ID","CITY":"PRESTON","ZIP":"83263","CNTY":"16041","NMCNTY":"Franklin County","LOCALE":"42","SCHOOLYEAR":"2024-2025"}},{"type":"Feature","geometry":{"type":"Point","coordinates":[-111.879084,42.09602]},"properties":{"NCESSCH":"160096000764","LEAID":"1600960","NAME":"FRANKLIN COUNTY HIGH SCHOOL","STATE":"ID","CITY":"PRESTON","ZIP":"83263","CNTY":"16041","NMCNTY":"Franklin County","LOCALE":"42","SCHOOLYEAR":"2024-2025"}},