{"type":"FeatureCollection","features":[{"type":"Feature","geometry":{"type":"Point","coordinates":[-75.587488,39.753642]},"properties":{"NCESSCH":"100000400012","LEAID":"1000004","NAME":"Charter School of Wilmington","STATE":"DE","CITY":"Wilmington","ZIP":"19807","CNTY":"10003","NMCNTY":"New Castle County","LOCALE":"13","SCHOOLYEAR":"2024-2025"}},{"type":"Feature","geometry":{"type":"Point","coordinates":[-75.538757,39.10835]},"properties":{"NCESSCH":"100000500013","LEAID":"1000005","NAME":"Positive Outcomes Charter School","STATE":"DE","CITY":"Camden","ZIP":"19934","CNTY":"10001","NMCNTY":"Kent County","LOCALE":"22","SCHOOLYEAR":"2024-2025"}},{"type":"Feature","geometry":{"type":"Point","coordinates":[-75.522728,39.751544]},"properties":{"NCESSCH":"100000600017","LEAID":"1000006","NAME":"East Side Charter School","STATE":"DE","CITY":"Wilmington","ZIP":"19802","CNTY":"10003","NMCNTY":"New Castle County","LOCALE":"13","SCHOOLYEAR":"2024-2025"}},{"type":"Feature","geometry":{"type":"Point","coordinates":[-75.536993,39.165053]},"properties":{"NCESSCH":"100000700070","LEAID":"1000007","NAME":"Campus Community School","STATE":"DE","CITY":"Dover","ZIP":"19904","CNTY":"10001","NMCNTY":"Kent County","LOCALE":"13","SCHOOLYEAR":"2024-2025"}},{"type":"Feature","geometry":{"type":"Point","coordinates":[-75.532709,39.748365]},"properties":{"NCESSCH":"100001000079","LEAID":"1000010","NAME":"Edison (Thomas A.) Charter School","STATE":"DE","CITY":"Wilmington","ZIP":"19802","CNTY":"10003","NMCNTY":"New Castle County","LOCALE":"13","SCHOOLYEAR":"2024-2025"}},{"type":"Feature","geometry":{"type":"Point","coordinates":[-75.368097,38.697175]},"properties":{"NCESSCH":"100001100091","LEAID":"1000011","NAME":"Sussex Academy","STATE":"DE","CITY":"Georgetown","ZIP":"19947","CNTY":"10005","NMCNTY":"Sussex County","LOCALE":"32","SCHOOLYEAR":"2024-2025"}},{"type":"Feature","geometry":{"type":"Point","coordinates":[-75.544101,39.74677]},"properties":{"NCESSCH":"100001400106","LEAID":"1000014","NAME":"Kuumba Academy Charter School","STATE":"DE","CITY":"Wilmington","ZIP":"19801","CNTY":"10003","NMCNTY":"New Castle County","LOCALE":"13","SCHOOLYEAR":"2024-2025"}},{"type":"Feature","geometry":{"type":"Point","coordinates":[-75.787829,39.653141]},"properties":{"NCESSCH":"100001500112","LEAID":"1000015","NAME":"Newark Charter School","STATE":"DE","CITY":"Newark","ZIP":"19711","CNTY":"10003","NMCNTY":"New Castle County","LOCALE":"21","SCHOOLYEAR":"2024-2025"}},{"type":"Feature","geometry":{"type":"Point","coordinates":[-75.585126,39.721594]},"properties":{"NCESSCH":"100001600143","LEAID":"1000016","NAME":"Delaware Military Academy","STATE":"DE","CITY":"Wilmington","ZIP":"19804","CNTY":"10003","NMCNTY":"New Castle County","LOCALE":"21","SCHOOLYEAR":"2024-2025"}},{"type":"Feature","geometry":{"type":"Point","coordinates":[-75.544382,39.161793]},"properties":{"NCESSCH":"100001700144","LEAID":"1000017","NAME":"Academy Of Dover Charter School","STATE":"DE","CITY":"Dover","ZIP":"19904","CNTY":"10001","NMCNTY":"Kent County","LOCALE":"13","SCHOOLYEAR":"2024-2025"}},{"type":"Feature","geometry":{"type":"Point","coordinates":[-75.646303,39.294338]},"properties":{"NCESSCH":"100001800122","LEAID":"1000018","NAME":"Providence Creek Academy Charter School","STATE":"DE","CITY":"Clayton","ZIP":"19938","CNTY":"10001","NMCNTY":"Kent County","LOCALE":"41","SCHOOLYEAR":"2024-2025"}},{"type":"Feature","geometry":{"type":"Point","coordinates":[-75.740239,39.422675]},"properties":{"NCESSCH":"100001900123","LEAID":"1000019","NAME":"MOT Charter School","STATE":"DE","CITY":"Middletown","ZIP":"19709","CNTY":"10003","NMCNTY":"New Castle County","LOCALE":"41","SCHOOLYEAR":"2024-2025"}},{"type":"Feature","geometry":{"type":"Point","coordinates":[-75.54525,39.678269]},"properties":{"NCESSCH":"100002400256","LEAID":"1000024","NAME":"Charter School of New Castle","STATE":"DE","CITY":"New Castle","ZIP":"19720","CNTY":"10003","NMCNTY":"New Castle County","LOCALE":"21","SCHOOLYEAR":"2024-2025"}},{"type":"Feature","geometry":{"type":"Point","coordinates":[-75.598801,39.759383]},"properties":{"NCESSCH":"100002600259","LEAID":"1000026","NAME":"Odyssey Charter School","STATE":"DE","CITY":"Wilmington","ZIP":"19805","CNTY":"10003","NMCNTY":"New Castle County","LOCALE":"21","SCHOOLYEAR":"2024-2025"}},{"type":"Feature","geometry":{"type":"Point","coordinates":[-75.702281,39.68773]},"properties":{"NCESSCH":"100005000342","LEAID":"1000050","NAME":"ASPIRA Delaware","STATE":"DE","CITY":"Newark","ZIP":"19711","CNTY":"10003","NMCNTY":"New Castle County","LOCALE":"21","SCHOOLYEAR":"2024-2025"}},{"type":"Feature","geometry":{"type":"Point","coordinates":[-75.625743,39.749515]},"properties":{"NCESSCH":"100005200346","LEAID":"1000052","NAME":"Gateway Charter School","STATE":"DE","CITY":"Wilmington","ZIP":"19808","CNTY":"10003","NMCNTY":"New Castle County","LOCALE":"21","SCHOOLYEAR":"2024-2025"}},{"type":"Feature","geometry":{"type":"Point","coordinates":[-75.675389,39.662352]},"properties":{"NCESSCH":"100005300359","LEAID":"1000053","NAME":"Academia Antonia Alonso","STATE":"DE","CITY":"Newark","ZIP":"19702","CNTY":"10003","NMCNTY":"New Castle County","LOCALE":"21","SCHOOLYEAR":"2024-2025"}},{"type":"Feature","geometry":{"type":"Point","coordinates":[-75.545531,39.74483]},"properties":{"NCESSCH":"100005400362","LEAID":"1000054","NAME":"First State Montessori Academy","STATE":"DE","CITY":"Wilmington","ZIP":"19801","CNTY":"10003","NMCNTY":"New Castle County","LOCALE":"13","SCHOOLYEAR":"2024-2025"}},{"type":"Feature","geometry":{"type":"Point","coordinates":[-75.550354,39.194682]},"properties":{"NCESSCH":"100005500363","LEAID":"1000055","NAME":"Early College School at Del State","STATE":"DE","CITY":"Dover","ZIP":"19901","CNTY":"10001","NMCNTY":"Kent County","LOCALE":"13","SCHOOLYEAR":"2024-2025"}},{"type":"Feature","geometry":{"type":"Point","coordinates":[-75.638188,39.293361]},"properties":{"NCESSCH":"100005700368","LEAID":"1000057","NAME":"First State Military Academy","STATE":"DE","CITY":"Clayton","ZIP":"19938","CNTY":"10001","NMCNTY":"Kent County","LOCALE":"41","SCHOOLYEAR":"2024-2025"}},{"type":"Feature","geometry":{"type":"Point","coordinates":[-75.546661,39.74992]},"properties":{"NCESSCH":"100005900372","LEAID":"1000059","NAME":"Freire Charter School","STATE":"DE","CITY":"Wilmington","ZIP":"19801","CNTY":"10003","NMCNTY":"New Castle County","LOCALE":"13","SCHOOLYEAR":"2024-2025"}},{"type":"Feature","geometry":{"type":"Point","coordinates":[-75.544101,39.74677]},"properties":{"NCESSCH":"100006200373","LEAID":"1000062","NAME":"Great Oaks Charter School","STATE":"DE","CITY":"Wilmington","ZIP":"19801","CNTY":"10003","NMCNTY":"New Castle County","LOCALE":"13","SCHOOLYEAR":"2024-2025"}},{"type":"Feature","geometry":{"type":"Point","coordinates":[-75.639406,38.645386]},"properties":{"NCESSCH":"100006300387","LEAID":"1000063","NAME":"Sussex Montessori School","STATE":"DE","CITY":"Seaford","ZIP":"19973","CNTY":"10005","NMCNTY":"Sussex County","LOCALE":"41","SCHOOLYEAR":"2024-2025"}},{"type":"Feature","geometry":{"type":"Point","coordinates":[-75.716111,39.44318]},"properties":{"NCESSCH":"100008000014","LEAID":"1000080","NAME":"Meredith (Everett) Middle School","STATE":"DE","CITY":"Middletown","ZIP":"19709","CNTY":"10003","NMCNTY":"New Castle County","LOCALE":"31","SCHOOLYEAR":"2024-2025"}},{"type":"Feature","geometry":{"type":"Point","coordinates":[-75.692653,39.449831]},"properties":{"NCESSCH":"100008000024","LEAID":"1000080","NAME":"Middletown High School","STATE":"DE","CITY":"Middletown","ZIP":"19709","CNTY":"10003","NMCNTY":"New Castle County","LOCALE":"31","SCHOOLYEAR":"2024-2025"}},{"type":"Feature","geometry":{"type":"Point","coordinates":[-75.709851,39.452205]},"properties":{"NCESSCH":"100008000026","LEAID":"1000080","NAME":"Redding (Louis L.) Middle School","STATE":"DE","CITY":"Middletown","ZIP":"19709","CNTY":"10003","NMCNTY":"New Castle County","LOCALE":"31","SCHOOLYEAR":"2024-2025"}},{"type":"Feature","geometry":{"type":"Point","coordinates":[-75.709947,39.446789]},"properties":{"NCESSCH":"100008000027","LEAID":"1000080","NAME":"Silver Lake Elementary School","STATE":"DE","CITY":"Middletown","ZIP":"19709","CNTY":"10003","NMCNTY":"New Castle County","LOCALE":"31","SCHOOLYEAR":"2024-2025"}},{"type":"Feature","geometry":{"type":"Point","coordinates":[-75.688111,39.395999]},"properties":{"NCESSCH":"100008000028","LEAID":"1000080","NAME":"Townsend Elementary School","STATE":"DE","CITY":"Townsend","ZIP":"19734","CNTY":"10003","NMCNTY":"New Castle County","LOCALE":"41","SCHOOLYEAR":"2024-2025"}},{"type":"Feature","geometry":{"type":"Point","coordinates":[-75.717695,39.443328]},"properties":{"NCESSCH":"100008000103","LEAID":"1000080","NAME":"Appoquinimink PreSchool Center","STATE":"DE","CITY":"Middletown","ZIP":"19709","CNTY":"10003","NMCNTY":"New Castle County","LOCALE":"31","SCHOOLYEAR":"2024-2025"}},{"type":"Feature","geometry":{"type":"Point","coordinates":[-75.741846,39.561102]},"properties":{"NCESSCH":"100008000121","LEAID":"1000080","NAME":"Loss (Olive B.) Elementary School","STATE":"DE","CITY":"Bear","ZIP":"19701","CNTY":"10003","NMCNTY":"New Castle County","LOCALE":"21","SCHOOLYEAR":"2024-2025"}},{"type":"Feature","geometry":{"type":"Point","coordinates":[-75.686509,39.458893]},"properties":{"NCESSCH":"100008000142","LEAID":"1000080","NAME":"Brick Mill Elementary School","STATE":"DE","CITY":"Middletown","ZIP":"19709","CNTY":"10003","NMCNTY":"New Castle County","LOCALE":"41","SCHOOLYEAR":"2024-2025"}},{"type":"Feature","geometry":{"type":"Point","coordinates":[-75.687366,39.503195]},"properties":{"NCESSCH":"100008000178","LEAID":"1000080","NAME":"Cedar Lane Early Childhood Center","STATE":"DE","CITY":"Middletown","ZIP":"19709","CNTY":"10003","NMCNTY":"New Castle County","LOCALE":"41","SCHOOLYEAR":"2024-2025"}},{"type":"Feature","geometry":{"type":"Point","coordinates":[-75.689128,39.503522]},"properties":{"NCESSCH":"100008000222","LEAID":"1000080","NAME":"Waters (Alfred G.) Middle School","STATE":"DE","CITY":"Middletown","ZIP":"19709","CNTY":"10003","NMCNTY":"New Castle County","LOCALE":"41","SCHOOLYEAR":"2024-2025"}},{"type":"Feature","geometry":{"type":"Point","coordinates":[-75.747458,39.454185]},"properties":{"NCESSCH":"100008000225","LEAID":"1000080","NAME":"Appoquinimink High School","STATE":"DE","CITY":"Middletown","ZIP":"19709","CNTY":"10003","NMCNTY":"New Castle County","LOCALE":"41","SCHOOLYEAR":"2024-2025"}},{"type":"Feature","geometry":{"type":"Point","coordinates":[-75.686667,39.395383]},"properties":{"NCESSCH":"100008000314","LEAID":"1000080","NAME":"Townsend Early Childhood Center","STATE":"DE","CITY":"Townsend","ZIP":"19734","CNTY":"10003","NMCNTY":"New Castle County","LOCALE":"41","SCHOOLYEAR":"2024-2025"}},{"type":"Feature","geometry":{"type":"Point","coordinates":[-75.687583,39.501485]},"properties":{"NCESSCH":"100008000332","LEAID":"1000080","NAME":"Cedar Lane Elementary School","STATE":"DE","CITY":"Middletown","ZIP":"19709","CNTY":"10003","NMCNTY":"New Castle County","LOCALE":"41","SCHOOLYEAR":"2024-2025"}},{"type":"Feature","geometry":{"type":"Point","coordinates":[-75.743882,39.455403]},"properties":{"NCESSCH":"100008000339","LEAID":"1000080","NAME":"Bunker Hill Elementary School","STATE":"DE","CITY":"Middletown","ZIP":"19709","CNTY":"10003","NMCNTY":"New Castle County","LOCALE":"41","SCHOOLYEAR":"2024-2025"}},{"type":"Feature","geometry":{"type":"Point","coordinates":[-75.65116,39.436596]},"properties":{"NCESSCH":"100008000347","LEAID":"1000080","NAME":"Old State Elementary School","STATE":"DE","CITY":"Townsend","ZIP":"19734","CNTY":"10003","NMCNTY":"New Castle County","LOCALE":"41","SCHOOLYEAR":"2024-2025"}},{"type":"Feature","geometry":{"type":"Point","coordinates":[-75.648392,39.436007]},"properties":{"NCESSCH":"100008000348","LEAID":"1000080","NAME":"Spring Meadow Early Childhood Center","STATE":"DE","CITY":"Townsend","ZIP":"19734","CNTY":"10003","NMCNTY":"New Castle County","LOCALE":"41","SCHOOLYEAR":"2024-2025"}},{"type":"Feature","geometry":{"type":"Point","coordinates":[-75.680254,39.533002]},"properties":{"NCESSCH":"100008000380","LEAID":"1000080","NAME":"Lorewood Grove Elementary School","STATE":"DE","CITY":"Middletown","ZIP":"19709","CNTY":"10003","NMCNTY":"New Castle County","LOCALE":"41","SCHOOLYEAR":"2024-2025"}},{"type":"Feature","geometry":{"type":"Point","coordinates":[-75.652315,39.438117]},"properties":{"NCESSCH":"100008000390","LEAID":"1000080","NAME":"Odessa High School","STATE":"DE","CITY":"Townsend","ZIP":"19734","CNTY":"10003","NMCNTY":"New Castle County","LOCALE":"41","SCHOOLYEAR":"2024-2025"}},{"type":"Feature","geometry":{"type":"Point","coordinates":[-75.650134,39.438124]},"properties":{"NCESSCH":"100008000391","LEAID":"1000080","NAME":"Cantwells Bridge Middle School","STATE":"DE","CITY":"Townsend","ZIP":"19734","CNTY":"10003","NMCNTY":"New Castle County","LOCALE":"41","SCHOOLYEAR":"2024-2025"}},{"type":"Feature","geometry":{"type":"Point","coordinates":[-75.686509,39.458893]},"properties":{"NCESSCH":"100008000393","LEAID":"1000080","NAME":"Brick Mill Early Childhood Center","STATE":"DE","CITY":"Middletown","ZIP":"19709","CNTY":"10003","NMCNTY":"New Castle County","LOCALE":"41","SCHOOLYEAR":"2024-2025"}},{"type":"Feature","geometry":{"type":"Point","coordinates":[-75.715564,39.524921]},"properties":{"NCESSCH":"100008000394","LEAID":"1000080","NAME":"Crystal Run Elementary School","STATE":"DE","CITY":"Middletown","ZIP":"19709","CNTY":"10003","NMCNTY":"New Castle County","LOCALE":"41","SCHOOLYEAR":"2024-2025"}},{"type":"Feature","geometry":{"type":"Point","coordinates":[-75.149356,38.757843]},"properties":{"NCESSCH":"100017000029","LEAID":"1000170","NAME":"Cape Henlopen High School","STATE":"DE","CITY":"Lewes","ZIP":"19958","CNTY":"10005","NMCNTY":"Sussex County","LOCALE":"32","SCHOOLYEAR":"2024-2025"}},{"type":"Feature","geometry":{"type":"Point","coordinates":[-75.318745,38.780655]},"properties":{"NCESSCH":"100017000030","LEAID":"1000170","NAME":"H. O. Brittingham Elementary School","STATE":"DE","CITY":"Milton","ZIP":"19968","CNTY":"10005","NMCNTY":"Sussex County","LOCALE":"42","SCHOOLYEAR":"2024-2025"}},{"type":"Feature","geometry":{"type":"Point","coordinates":[-75.312362,38.764522]},"properties":{"NCESSCH":"100017000033","LEAID":"1000170","NAME":"Mariner Middle School","STATE":"DE","CITY":"Milton","ZIP":"19968","CNTY":"10005","NMCNTY":"Sussex County","LOCALE":"41","SCHOOLYEAR":"2024-2025"}},{"type":"Feature","geometry":{"type":"Point","coordinates":[-75.088319,38.709179]},"properties":{"NCESSCH":"100017000035","LEAID":"1000170","NAME":"Rehoboth Elementary School","STATE":"DE","CITY":"Rehoboth Beach","ZIP":"19971","CNTY":"10005","NMCNTY":"Sussex County","LOCALE":"32","SCHOOLYEAR":"2024-2025"}},{"type":"Feature","geometry":{"type":"Point","coordinates":[-75.146387,38.768553]},"properties":{"NCESSCH":"100017000036","LEAID":"1000170","NAME":"Lewes Elementary School","STATE":"DE","CITY":"Lewes","ZIP":"19958","CNTY":"10005","NMCNTY":"Sussex County","LOCALE":"32","SCHOOLYEAR":"2024-2025"}},{"type":"Feature","geometry":{"type":"Point","coordinates":[-75.148716,38.714398]},"properties":{"NCESSCH":"100017000037","LEAID":"1000170","NAME":"Beacon Middle School","STATE":"DE","CITY":"Lewes","ZIP":"19958","CNTY":"10005","NMCNTY":"Sussex County","LOCALE":"32","SCHOOLYEAR":"2024-2025"}},{"type":"Feature","geometry":{"type":"Point","coordinates":[-75.314879,38.772032]},"properties":{"NCESSCH":"100017000140","LEAID":"1000170","NAME":"Milton Elementary School","STATE":"DE","CITY":"Milton","ZIP":"19968","CNTY":"10005","NMCNTY":"Sussex County","LOCALE":"42","SCHOOLYEAR":"2024-2025"}},{"type":"Feature","geometry":{"type":"Point","coordinates":[-75.231624,38.749112]},"properties":{"NCESSCH":"100017000304","LEAID":"1000170","NAME":"Sussex Consortium","STATE":"DE","CITY":"Lewes","ZIP":"19958","CNTY":"10005","NMCNTY":"Sussex County","LOCALE":"41","SCHOOLYEAR":"2024-2025"}},{"type":"Feature","geometry":{"type":"Point","coordinates":[-75.152268,38.716423]},"properties":{"NCESSCH":"100017000382","LEAID":"1000170","NAME":"Love Creek Elementary School","STATE":"DE","CITY":"Lewes","ZIP":"19958","CNTY":"10005","NMCNTY":"Sussex County","LOCALE":"32","SCHOOLYEAR":"2024-2025"}},{"type":"Feature","geometry":{"type":"Point","coordinates":[-75.14835,38.768063]},"properties":{"NCESSCH":"100017000396","LEAID":"1000170","NAME":"Frederick D Thomas Middle School","STATE":"DE","CITY":"Lewes","ZIP":"19958","CNTY":"10005","NMCNTY":"Sussex County","LOCALE":"32","SCHOOLYEAR":"2024-2025"}},{"type":"Feature","geometry":{"type":"Point","coordinates":[-75.550031,39.11981]},"properties":{"NCESSCH":"100018000018","LEAID":"1000180","NAME":"Kent Elementary Intensive Learning Center","STATE":"DE","CITY":"Camden","ZIP":"19934","CNTY":"10001","NMCNTY":"Kent County","LOCALE":"22","SCHOOLYEAR":"2024-2025"}},{"type":"Feature","geometry":{"type":"Point","coordinates":[-75.511851,39.10171]},"properties":{"NCESSCH":"100018000038","LEAID":"1000180","NAME":"Allen Frear Elementary School","STATE":"DE","CITY":"Camden","ZIP":"19934","CNTY":"10001","NMCNTY":"Kent County","LOCALE":"22","SCHOOLYEAR":"2024-2025"}},{"type":"Feature","geometry":{"type":"Point","coordinates":[-75.541239,39.118561]},"properties":{"NCESSCH":"100018000040","LEAID":"1000180","NAME":"Caesar Rodney High School","STATE":"DE","CITY":"Camden","ZIP":"19934","CNTY":"10001","NMCNTY":"Kent County","LOCALE":"22","SCHOOLYEAR":"2024-2025"}},{"type":"Feature","geometry":{"type":"Point","coordinates":[-75.487902,39.117689]},"properties":{"NCESSCH":"100018000041","LEAID":"1000180","NAME":"Dover Air Force Base Middle School","STATE":"DE","CITY":"Dover","ZIP":"19901","CNTY":"10001","NMCNTY":"Kent County","LOCALE":"22","SCHOOLYEAR":"2024-2025"}},{"type":"Feature","geometry":{"type":"Point","coordinates":[-75.510914,39.102274]},"properties":{"NCESSCH":"100018000043","LEAID":"1000180","NAME":"John S. Charlton School","STATE":"DE","CITY":"Camden","ZIP":"19934","CNTY":"10001","NMCNTY":"Kent County","LOCALE":"22","SCHOOLYEAR":"2024-2025"}},{"type":"Feature","geometry":{"type":"Point","coordinates":[-75.487902,39.117689]},"properties":{"NCESSCH":"100018000044","LEAID":"1000180","NAME":"Major George S. Welch Elementary School","STATE":"DE","CITY":"Dover","ZIP":"19901","CNTY":"10001","NMCNTY":"Kent County","LOCALE":"22","SCHOOLYEAR":"2024-2025"}},{"type":"Feature","geometry":{"type":"Point","coordinates":[-75.552681,39.101245]},"properties":{"NCESSCH":"100018000045","LEAID":"1000180","NAME":"Nellie Hughes Stokes Elementary School","STATE":"DE","CITY":"Dover","ZIP":"19904","CNTY":"10001","NMCNTY":"Kent County","LOCALE":"22","SCHOOLYEAR":"2024-2025"}},{"type":"Feature","geometry":{"type":"Point","coordinates":[-75.533589,39.099512]},"properties":{"NCESSCH":"100018000046","LEAID":"1000180","NAME":"Star Hill Elementary School","STATE":"DE","CITY":"Dover","ZIP":"19901","CNTY":"10001","NMCNTY":"Kent County","LOCALE":"22","SCHOOLYEAR":"2024-2025"}},{"type":"Feature","geometry":{"type":"Point","coordinates":[-75.550031,39.11981]},"properties":{"NCESSCH":"100018000047","LEAID":"1000180","NAME":"W. B. Simpson Elementary School","STATE":"DE","CITY":"Camden","ZIP":"19934","CNTY":"10001","NMCNTY":"Kent County","LOCALE":"22","SCHOOLYEAR":"2024-2025"}},{"type":"Feature","geometry":{"type":"Point","coordinates":[-75.538922,39.131585]},"properties":{"NCESSCH":"100018000048","LEAID":"1000180","NAME":"W. Reily Brown Elementary School","STATE":"DE","CITY":"Dover","ZIP":"19904","CNTY":"10001","NMCNTY":"Kent County","LOCALE":"13","SCHOOLYEAR":"2024-2025"}},{"type":"Feature","geometry":{"type":"Point","coordinates":[-75.511493,39.099829]},"properties":{"NCESSCH":"100018000071","LEAID":"1000180","NAME":"F. Niel Postlethwait Middle School","STATE":"DE","CITY":"Camden","ZIP":"19934","CNTY":"10001","NMCNTY":"Kent County","LOCALE":"22","SCHOOLYEAR":"2024-2025"}},{"type":"Feature","geometry":{"type":"Point","coordinates":[-75.550092,39.116157]},"properties":{"NCESSCH":"100018000072","LEAID":"1000180","NAME":"Fred Fifer III Middle School","STATE":"DE","CITY":"Camden","ZIP":"19934","CNTY":"10001","NMCNTY":"Kent County","LOCALE":"22","SCHOOLYEAR":"2024-2025"}},{"type":"Feature","geometry":{"type":"Point","coordinates":[-75.474593,39.072074]},"properties":{"NCESSCH":"100018000309","LEAID":"1000180","NAME":"J. Ralph McIlvaine Early Childhood Center","STATE":"DE","CITY":"Magnolia","ZIP":"19962","CNTY":"10001","NMCNTY":"Kent County","LOCALE":"22","SCHOOLYEAR":"2024-2025"}},{"type":"Feature","geometry":{"type":"Point","coordinates":[-75.505811,39.080943]},"properties":{"NCESSCH":"100018000395","LEAID":"1000180","NAME":"David E. Robinson Elementary School","STATE":"DE","CITY":"Wyoming","ZIP":"19934","CNTY":"10001","NMCNTY":"Kent County","LOCALE":"41","SCHOOLYEAR":"2024-2025"}},{"type":"Feature","geometry":{"type":"Point","coordinates":[-75.480358,39.084299]},"properties":{"NCESSCH":"100018000398","LEAID":"1000180","NAME":"Magnolia Middle School","STATE":"DE","CITY":"Magnolia","ZIP":"19962","CNTY":"10001","NMCNTY":"Kent County","LOCALE":"22","SCHOOLYEAR":"2024-2025"}},{"type":"Feature","geometry":{"type":"Point","coordinates":[-75.553717,39.179149]},"properties":{"NCESSCH":"100019000011","LEAID":"1000190","NAME":"North Dover Elementary School","STATE":"DE","CITY":"Dover","ZIP":"19904","CNTY":"10001","NMCNTY":"Kent County","LOCALE":"13","SCHOOLYEAR":"2024-2025"}},{"type":"Feature","geometry":{"type":"Point","coordinates":[-75.573708,39.156602]},"properties":{"NCESSCH":"100019000050","LEAID":"1000190","NAME":"Dover High School","STATE":"DE","CITY":"Dover","ZIP":"19904","CNTY":"10001","NMCNTY":"Kent County","LOCALE":"13","SCHOOLYEAR":"2024-2025"}},{"type":"Feature","geometry":{"type":"Point","coordinates":[-75.504918,39.156382]},"properties":{"NCESSCH":"100019000051","LEAID":"1000190","NAME":"East Dover Elementary School","STATE":"DE","CITY":"Dover","ZIP":"19901","CNTY":"10001","NMCNTY":"Kent County","LOCALE":"13","SCHOOLYEAR":"2024-2025"}},{"type":"Feature","geometry":{"type":"Point","coordinates":[-75.539267,39.169985]},"properties":{"NCESSCH":"100019000052","LEAID":"1000190","NAME":"Fairview Elementary School","STATE":"DE","CITY":"Dover","ZIP":"19904","CNTY":"10001","NMCNTY":"Kent County","LOCALE":"13","SCHOOLYEAR":"2024-2025"}},{"type":"Feature","geometry":{"type":"Point","coordinates":[-75.716528,39.166421]},"properties":{"NCESSCH":"100019000053","LEAID":"1000190","NAME":"Hartly Elementary School","STATE":"DE","CITY":"Hartly","ZIP":"19953","CNTY":"10001","NMCNTY":"Kent County","LOCALE":"42","SCHOOLYEAR":"2024-2025"}},{"type":"Feature","geometry":{"type":"Point","coordinates":[-75.540398,39.161204]},"properties":{"NCESSCH":"100019000054","LEAID":"1000190","NAME":"Kent County Community School","STATE":"DE","CITY":"Dover","ZIP":"19904","CNTY":"10001","NMCNTY":"Kent County","LOCALE":"13","SCHOOLYEAR":"2024-2025"}},{"type":"Feature","geometry":{"type":"Point","coordinates":[-75.519758,39.14842]},"properties":{"NCESSCH":"100019000055","LEAID":"1000190","NAME":"South Dover Elementary School","STATE":"DE","CITY":"Dover","ZIP":"19901","CNTY":"10001","NMCNTY":"Kent County","LOCALE":"13","SCHOOLYEAR":"2024-2025"}},{"type":"Feature","geometry":{"type":"Point","coordinates":[-75.521839,39.178106]},"properties":{"NCESSCH":"100019000056","LEAID":"1000190","NAME":"Towne Point Elementary School","STATE":"DE","CITY":"Dover","ZIP":"19901","CNTY":"10001","NMCNTY":"Kent County","LOCALE":"13","SCHOOLYEAR":"2024-2025"}},{"type":"Feature","geometry":{"type":"Point","coordinates":[-75.538985,39.1597]},"properties":{"NCESSCH":"100019000057","LEAID":"1000190","NAME":"Booker T. Washington Elementary School","STATE":"DE","CITY":"Dover","ZIP":"19904","CNTY":"10001","NMCNTY":"Kent County","LOCALE":"13","SCHOOLYEAR":"2024-2025"}},{"type":"Feature","geometry":{"type":"Point","coordinates":[-75.540398,39.161204]},"properties":{"NCESSCH":"100019000058","LEAID":"1000190","NAME":"William Henry Middle School","STATE":"DE","CITY":"Dover","ZIP":"19904","CNTY":"10001","NMCNTY":"Kent County","LOCALE":"13","SCHOOLYEAR":"2024-2025"}},{"type":"Feature","geometry":{"type":"Point","coordinates":[-75.53864,39.164102]},"properties":{"NCESSCH":"100019000328","LEAID":"1000190","NAME":"Kent County Secondary ILC","STATE":"DE","CITY":"Dover","ZIP":"19904","CNTY":"10001","NMCNTY":"Kent County","LOCALE":"13","SCHOOLYEAR":"2024-2025"}},{"type":"Feature","geometry":{"type":"Point","coordinates":[-75.551467,39.151673]},"properties":{"NCESSCH":"100019000392","LEAID":"1000190","NAME":"Capital Early Childhood Center","STATE":"DE","CITY":"Dover","ZIP":"19904","CNTY":"10001","NMCNTY":"Kent County","LOCALE":"13","SCHOOLYEAR":"2024-2025"}},{"type":"Feature","geometry":{"type":"Point","coordinates":[-75.539769,39.176478]},"properties":{"NCESSCH":"100019000399","LEAID":"1000190","NAME":"Middle School of Excellence","STATE":"DE","CITY":"Dover","ZIP":"19904","CNTY":"10001","NMCNTY":"Kent County","LOCALE":"13","SCHOOLYEAR":"2024-2025"}},{"type":"Feature","geometry":{"type":"Point","coordinates":[-75.539769,39.176478]},"properties":{"NCESSCH":"100019000400","LEAID":"1000190","NAME":"Middle School of Innovation","STATE":"DE","CITY":"Dover","ZIP":"19904","CNTY":"10001","NMCNTY":"Kent County","LOCALE":"13","SCHOOLYEAR":"2024-2025"}},{"type":"Feature","geometry":{"type":"Point","coordinates":[-75.683646,39.645091]},"properties":{"NCESSCH":"100020000005","LEAID":"1000200","NAME":"Marshall (Thurgood) Elementary School","STATE":"DE","CITY":"Newark","ZIP":"19702","CNTY":"10003","NMCNTY":"New Castle County","LOCALE":"21","SCHOOLYEAR":"2024-2025"}},{"type":"Feature","geometry":{"type":"Point","coordinates":[-75.580483,39.738272]},"properties":{"NCESSCH":"100020000010","LEAID":"1000200","NAME":"Douglass School","STATE":"DE","CITY":"Wilmington","ZIP":"19805","CNTY":"10003","NMCNTY":"New Castle County","LOCALE":"13","SCHOOLYEAR":"2024-2025"}},{"type":"Feature","geometry":{"type":"Point","coordinates":[-75.727961,39.603614]},"properties":{"NCESSCH":"100020000117","LEAID":"1000200","NAME":"Keene (William B.) Elementary School","STATE":"DE","CITY":"Newark","ZIP":"19702","CNTY":"10003","NMCNTY":"New Castle County","LOCALE":"21","SCHOOLYEAR":"2024-2025"}},{"type":"Feature","geometry":{"type":"Point","coordinates":[-75.706368,39.674431]},"properties":{"NCESSCH":"100020000210","LEAID":"1000200","NAME":"Delaware School for the Deaf","STATE":"DE","CITY":"Newark","ZIP":"19713","CNTY":"10003","NMCNTY":"New Castle County","LOCALE":"21","SCHOOLYEAR":"2024-2025"}},{"type":"Feature","geometry":{"type":"Point","coordinates":[-75.707001,39.716291]},"properties":{"NCESSCH":"100020000214","LEAID":"1000200","NAME":"Wilson (Etta J.) Elementary School","STATE":"DE","CITY":"Newark","ZIP":"19711","CNTY":"10003","NMCNTY":"New Castle County","LOCALE":"21","SCHOOLYEAR":"2024-2025"}},{"type":"Feature","geometry":{"type":"Point","coordinates":[-75.540265,39.744295]},"properties":{"NCESSCH":"100020000217","LEAID":"1000200","NAME":"Stubbs Early Education Center","STATE":"DE","CITY":"Wilmington","ZIP":"19801","CNTY":"10003","NMCNTY":"New Castle County","LOCALE":"13","SCHOOLYEAR":"2024-2025"}},{"type":"Feature","geometry":{"type":"Point","coordinates":[-75.710104,39.673719]},"properties":{"NCESSCH":"100020000218","LEAID":"1000200","NAME":"Smith (Jennie E.) Elementary School","STATE":"DE","CITY":"Newark","ZIP":"19713","CNTY":"10003","NMCNTY":"New Castle County","LOCALE":"21","SCHOOLYEAR":"2024-2025"}},{"type":"Feature","geometry":{"type":"Point","coordinates":[-75.570809,39.736962]},"properties":{"NCESSCH":"100020000220","LEAID":"1000200","NAME":"Pulaski Early Education Center","STATE":"DE","CITY":"Wilmington","ZIP":"19805","CNTY":"10003","NMCNTY":"New Castle County","LOCALE":"13","SCHOOLYEAR":"2024-2025"}},{"type":"Feature","geometry":{"type":"Point","coordinates":[-75.748418,39.655219]},"properties":{"NCESSCH":"100020000221","LEAID":"1000200","NAME":"McVey (Joseph M.) Elementary School","STATE":"DE","CITY":"Newark","ZIP":"19713","CNTY":"10003","NMCNTY":"New Castle County","LOCALE":"21","SCHOOLYEAR":"2024-2025"}},{"type":"Feature","geometry":{"type":"Point","coordinates":[-75.735043,39.701646]},"properties":{"NCESSCH":"100020000223","LEAID":"1000200","NAME":"Maclary (R. Elisabeth) Elementary School","STATE":"DE","CITY":"Newark","ZIP":"19711","CNTY":"10003","NMCNTY":"New Castle County","LOCALE":"21","SCHOOLYEAR":"2024-2025"}},{"type":"Feature","geometry":{"type":"Point","coordinates":[-75.680298,39.621325]},"properties":{"NCESSCH":"100020000224","LEAID":"1000200","NAME":"Leasure (May B.) Elementary School","STATE":"DE","CITY":"Newark","ZIP":"19702","CNTY":"10003","NMCNTY":"New Castle County","LOCALE":"21","SCHOOLYEAR":"2024-2025"}},{"type":"Feature","geometry":{"type":"Point","coordinates":[-75.67313,39.667077]},"properties":{"NCESSCH":"100020000227","LEAID":"1000200","NAME":"Pyle (Sarah) Academy","STATE":"DE","CITY":"Newark","ZIP":"19702","CNTY":"10003","NMCNTY":"New Castle County","LOCALE":"21","SCHOOLYEAR":"2024-2025"}},{"type":"Feature","geometry":{"type":"Point","coordinates":[-75.776666,39.683519]},"properties":{"NCESSCH":"100020000228","LEAID":"1000200","NAME":"Downes (John R.) Elementary School","STATE":"DE","CITY":"Newark","ZIP":"19711","CNTY":"10003","NMCNTY":"New Castle County","LOCALE":"21","SCHOOLYEAR":"2024-2025"}},{"type":"Feature","geometry":{"type":"Point","coordinates":[-75.662592,39.667408]},"properties":{"NCESSCH":"100020000229","LEAID":"1000200","NAME":"Jones (Albert H.) Elementary School","STATE":"DE","CITY":"Newark","ZIP":"19702","CNTY":"10003","NMCNTY":"New Castle County","LOCALE":"21","SCHOOLYEAR":"2024-2025"}},{"type":"Feature","geometry":{"type":"Point","coordinates":[-75.726821,39.667945]},"properties":{"NCESSCH":"100020000231","LEAID":"1000200","NAME":"Brookside Elementary School","STATE":"DE","CITY":"Newark","ZIP":"19713","CNTY":"10003","NMCNTY":"New Castle County","LOCALE":"21","SCHOOLYEAR":"2024-2025"}},{"type":"Feature","geometry":{"type":"Point","coordinates":[-75.571576,39.74351]},"properties":{"NCESSCH":"100020000232","LEAID":"1000200","NAME":"The Bayard School","STATE":"DE","CITY":"Wilmington","ZIP":"19805","CNTY":"10003","NMCNTY":"New Castle County","LOCALE":"13","SCHOOLYEAR":"2024-2025"}},{"type":"Feature","geometry":{"type":"Point","coordinates":[-75.544304,39.740094]},"properties":{"NCESSCH":"100020000233","LEAID":"1000200","NAME":"Maurice Pritchett SR. Academy","STATE":"DE","CITY":"Wilmington","ZIP":"19801","CNTY":"10003","NMCNTY":"New Castle County","LOCALE":"13","SCHOOLYEAR":"2024-2025"}},{"type":"Feature","geometry":{"type":"Point","coordinates":[-75.705229,39.697279]},"properties":{"NCESSCH":"100020000234","LEAID":"1000200","NAME":"Shue-Medill Middle School","STATE":"DE","CITY":"Newark","ZIP":"19711","CNTY":"10003","NMCNTY":"New Castle County","LOCALE":"21","SCHOOLYEAR":"2024-2025"}},{"type":"Feature","geometry":{"type":"Point","coordinates":[-75.710569,39.672219]},"properties":{"NCESSCH":"100020000235","LEAID":"1000200","NAME":"Kirk (George V.) Middle School","STATE":"DE","CITY":"Newark","ZIP":"19713","CNTY":"10003","NMCNTY":"New Castle County","LOCALE":"21","SCHOOLYEAR":"2024-2025"}},{"type":"Feature","geometry":{"type":"Point","coordinates":[-75.717969,39.658553]},"properties":{"NCESSCH":"100020000236","LEAID":"1000200","NAME":"Gauger-Cobbs Middle School","STATE":"DE","CITY":"Newark","ZIP":"19713","CNTY":"10003","NMCNTY":"New Castle County","LOCALE":"21","SCHOOLYEAR":"2024-2025"}},{"type":"Feature","geometry":{"type":"Point","coordinates":[-75.738905,39.680681]},"properties":{"NCESSCH":"100020000238","LEAID":"1000200","NAME":"Newark High School","STATE":"DE","CITY":"Newark","ZIP":"19711","CNTY":"10003","NMCNTY":"New Castle County","LOCALE":"21","SCHOOLYEAR":"2024-2025"}},{"type":"Feature","geometry":{"type":"Point","coordinates":[-75.741715,39.630194]},"properties":{"NCESSCH":"100020000239","LEAID":"1000200","NAME":"Glasgow High School","STATE":"DE","CITY":"Newark","ZIP":"19702","CNTY":"10003","NMCNTY":"New Castle County","LOCALE":"21","SCHOOLYEAR":"2024-2025"}},{"type":"Feature","geometry":{"type":"Point","coordinates":[-75.695504,39.665237]},"properties":{"NCESSCH":"100020000240","LEAID":"1000200","NAME":"Christiana High School","STATE":"DE","CITY":"Newark","ZIP":"19713","CNTY":"10003","NMCNTY":"New Castle County","LOCALE":"21","SCHOOLYEAR":"2024-2025"}},{"type":"Feature","geometry":{"type":"Point","coordinates":[-75.711037,39.674441]},"properties":{"NCESSCH":"100020000305","LEAID":"1000200","NAME":"Brennen School (The)","STATE":"DE","CITY":"Newark","ZIP":"19713","CNTY":"10003","NMCNTY":"New Castle County","LOCALE":"21","SCHOOLYEAR":"2024-2025"}},{"type":"Feature","geometry":{"type":"Point","coordinates":[-75.677681,39.68132]},"properties":{"NCESSCH":"100020000312","LEAID":"1000200","NAME":"Gallaher (Robert S.) Elementary School","STATE":"DE","CITY":"Newark","ZIP":"19713","CNTY":"10003","NMCNTY":"New Castle County","LOCALE":"21","SCHOOLYEAR":"2024-2025"}},{"type":"Feature","geometry":{"type":"Point","coordinates":[-75.762205,39.673091]},"properties":{"NCESSCH":"100020000316","LEAID":"1000200","NAME":"West Park Place Elementary School","STATE":"DE","CITY":"Newark","ZIP":"19711","CNTY":"10003","NMCNTY":"New Castle County","LOCALE":"21","SCHOOLYEAR":"2024-2025"}},{"type":"Feature","geometry":{"type":"Point","coordinates":[-75.753537,39.625515]},"properties":{"NCESSCH":"100020000323","LEAID":"1000200","NAME":"Brader (Henry M.) Elementary School","STATE":"DE","CITY":"Newark","ZIP":"19702","CNTY":"10003","NMCNTY":"New Castle County","LOCALE":"21","SCHOOLYEAR":"2024-2025"}},{"type":"Feature","geometry":{"type":"Point","coordinates":[-75.696187,39.616026]},"properties":{"NCESSCH":"100020000343","LEAID":"1000200","NAME":"Oberle (William) Elementary School","STATE":"DE","CITY":"Bear","ZIP":"19701","CNTY":"10003","NMCNTY":"New Castle County","LOCALE":"21","SCHOOLYEAR":"2024-2025"}},{"type":"Feature","geometry":{"type":"Point","coordinates":[-75.708891,39.67245]},"properties":{"NCESSCH":"100020000349","LEAID":"1000200","NAME":"Christina Early Education Center","STATE":"DE","CITY":"Newark","ZIP":"19713","CNTY":"10003","NMCNTY":"New Castle County","LOCALE":"21","SCHOOLYEAR":"2024-2025"}},{"type":"Feature","geometry":{"type":"Point","coordinates":[-75.626184,39.564969]},"properties":{"NCESSCH":"100023000118","LEAID":"1000230","NAME":"Southern Elementary School","STATE":"DE","CITY":"New Castle","ZIP":"19720","CNTY":"10003","NMCNTY":"New Castle County","LOCALE":"41","SCHOOLYEAR":"2024-2025"}},{"type":"Feature","geometry":{"type":"Point","coordinates":[-75.557785,39.686614]},"properties":{"NCESSCH":"100023000196","LEAID":"1000230","NAME":"Leach (John G.) School","STATE":"DE","CITY":"New Castle","ZIP":"19720","CNTY":"10003","NMCNTY":"New Castle County","LOCALE":"21","SCHOOLYEAR":"2024-2025"}},{"type":"Feature","geometry":{"type":"Point","coordinates":[-75.583033,39.683857]},"properties":{"NCESSCH":"100023000197","LEAID":"1000230","NAME":"Wilmington Manor Elementary School","STATE":"DE","CITY":"New Castle","ZIP":"19720","CNTY":"10003","NMCNTY":"New Castle County","LOCALE":"21","SCHOOLYEAR":"2024-2025"}},{"type":"Feature","geometry":{"type":"Point","coordinates":[-75.62546,39.667545]},"properties":{"NCESSCH":"100023000198","LEAID":"1000230","NAME":"Pleasantville Elementary School","STATE":"DE","CITY":"New Castle","ZIP":"19720","CNTY":"10003","NMCNTY":"New Castle County","LOCALE":"21","SCHOOLYEAR":"2024-2025"}},{"type":"Feature","geometry":{"type":"Point","coordinates":[-75.558682,39.689947]},"properties":{"NCESSCH":"100023000200","LEAID":"1000230","NAME":"Eisenberg (Harry O.) Elementary School","STATE":"DE","CITY":"New Castle","ZIP":"19720","CNTY":"10003","NMCNTY":"New Castle County","LOCALE":"21","SCHOOLYEAR":"2024-2025"}},{"type":"Feature","geometry":{"type":"Point","coordinates":[-75.558775,39.687114]},"properties":{"NCESSCH":"100023000203","LEAID":"1000230","NAME":"The Colwyck Center","STATE":"DE","CITY":"New Castle","ZIP":"19720","CNTY":"10003","NMCNTY":"New Castle County","LOCALE":"21","SCHOOLYEAR":"2024-2025"}},{"type":"Feature","geometry":{"type":"Point","coordinates":[-75.56764,39.681271]},"properties":{"NCESSCH":"100023000204","LEAID":"1000230","NAME":"Castle Hills Elementary School","STATE":"DE","CITY":"New Castle","ZIP":"19720","CNTY":"10003","NMCNTY":"New Castle County","LOCALE":"21","SCHOOLYEAR":"2024-2025"}},{"type":"Feature","geometry":{"type":"Point","coordinates":[-75.576373,39.66521]},"properties":{"NCESSCH":"100023000205","LEAID":"1000230","NAME":"Downie (Carrie) Elementary School","STATE":"DE","CITY":"New Castle","ZIP":"19720","CNTY":"10003","NMCNTY":"New Castle County","LOCALE":"21","SCHOOLYEAR":"2024-2025"}},{"type":"Feature","geometry":{"type":"Point","coordinates":[-75.585756,39.676918]},"properties":{"NCESSCH":"100023000206","LEAID":"1000230","NAME":"Read (George) Middle School","STATE":"DE","CITY":"New Castle","ZIP":"19720","CNTY":"10003","NMCNTY":"New Castle County","LOCALE":"21","SCHOOLYEAR":"2024-2025"}},{"type":"Feature","geometry":{"type":"Point","coordinates":[-75.630084,39.564285]},"properties":{"NCESSCH":"100023000208","LEAID":"1000230","NAME":"Bedford (Gunning) Middle School","STATE":"DE","CITY":"New Castle","ZIP":"19720","CNTY":"10003","NMCNTY":"New Castle County","LOCALE":"41","SCHOOLYEAR":"2024-2025"}},{"type":"Feature","geometry":{"type":"Point","coordinates":[-75.584879,39.668622]},"properties":{"NCESSCH":"100023000209","LEAID":"1000230","NAME":"Penn (William) High School","STATE":"DE","CITY":"New Castle","ZIP":"19720","CNTY":"10003","NMCNTY":"New Castle County","LOCALE":"21","SCHOOLYEAR":"2024-2025"}},{"type":"Feature","geometry":{"type":"Point","coordinates":[-75.666936,39.583435]},"properties":{"NCESSCH":"100023000237","LEAID":"1000230","NAME":"Wilbur (Kathleen H.) Elementary","STATE":"DE","CITY":"Bear","ZIP":"19701","CNTY":"10003","NMCNTY":"New Castle County","LOCALE":"21","SCHOOLYEAR":"2024-2025"}},{"type":"Feature","geometry":{"type":"Point","coordinates":[-75.558808,39.697897]},"properties":{"NCESSCH":"100023000271","LEAID":"1000230","NAME":"McCullough (Calvin R. ) Middle School","STATE":"DE","CITY":"New Castle","ZIP":"19720","CNTY":"10003","NMCNTY":"New Castle County","LOCALE":"21","SCHOOLYEAR":"2024-2025"}},{"type":"Feature","geometry":{"type":"Point","coordinates":[-75.570711,39.66445]},"properties":{"NCESSCH":"100023000366","LEAID":"1000230","NAME":"New Castle Elementary School","STATE":"DE","CITY":"New Castle","ZIP":"19720","CNTY":"10003","NMCNTY":"New Castle County","LOCALE":"21","SCHOOLYEAR":"2024-2025"}},{"type":"Feature","geometry":{"type":"Point","coordinates":[-75.587034,39.670569]},"properties":{"NCESSCH":"100023000378","LEAID":"1000230","NAME":"The Wallace Wallin School","STATE":"DE","CITY":"New Castle","ZIP":"19720","CNTY":"10003","NMCNTY":"New Castle County","LOCALE":"21","SCHOOLYEAR":"2024-2025"}},{"type":"Feature","geometry":{"type":"Point","coordinates":[-75.566858,38.458803]},"properties":{"NCESSCH":"100027000078","LEAID":"1000270","NAME":"Delmar Middle School","STATE":"DE","CITY":"Delmar","ZIP":"19940","CNTY":"10005","NMCNTY":"Sussex County","LOCALE":"23","SCHOOLYEAR":"2024-2025"}},{"type":"Feature","geometry":{"type":"Point","coordinates":[-75.566858,38.458803]},"properties":{"NCESSCH":"100027000080","LEAID":"1000270","NAME":"Delmar High School","STATE":"DE","CITY":"Delmar","ZIP":"19940","CNTY":"10005","NMCNTY":"Sussex County","LOCALE":"23","SCHOOLYEAR":"2024-2025"}},{"type":"Feature","geometry":{"type":"Point","coordinates":[-75.566906,38.458736]},"properties":{"NCESSCH":"100027000386","LEAID":"1000270","NAME":"Delmar Middle Level ILC","STATE":"DE","CITY":"Delmar","ZIP":"19940","CNTY":"10005","NMCNTY":"Sussex County","LOCALE":"23","SCHOOLYEAR":"2024-2025"}},{"type":"Feature","geometry":{"type":"Point","coordinates":[-75.223341,38.52022]},"properties":{"NCESSCH":"100068000065","LEAID":"1000680","NAME":"Carver (G.W.) Educational Center","STATE":"DE","CITY":"Frankford","ZIP":"19945","CNTY":"10005","NMCNTY":"Sussex County","LOCALE":"41","SCHOOLYEAR":"2024-2025"}},{"type":"Feature","geometry":{"type":"Point","coordinates":[-75.399552,38.705418]},"properties":{"NCESSCH":"100068000067","LEAID":"1000680","NAME":"North Georgetown Elementary School","STATE":"DE","CITY":"Georgetown","ZIP":"19947","CNTY":"10005","NMCNTY":"Sussex County","LOCALE":"41","SCHOOLYEAR":"2024-2025"}},{"type":"Feature","geometry":{"type":"Point","coordinates":[-75.185758,38.630552]},"properties":{"NCESSCH":"100068000074","LEAID":"1000680","NAME":"Long Neck Elementary School","STATE":"DE","CITY":"Millsboro","ZIP":"19966","CNTY":"10005","NMCNTY":"Sussex County","LOCALE":"32","SCHOOLYEAR":"2024-2025"}},{"type":"Feature","geometry":{"type":"Point","coordinates":[-75.22569,38.461993]},"properties":{"NCESSCH":"100068000075","LEAID":"1000680","NAME":"Southern Delaware School of the Arts","STATE":"DE","CITY":"Selbyville","ZIP":"19975","CNTY":"10005","NMCNTY":"Sussex County","LOCALE":"42","SCHOOLYEAR":"2024-2025"}},{"type":"Feature","geometry":{"type":"Point","coordinates":[-75.278395,38.585098]},"properties":{"NCESSCH":"100068000081","LEAID":"1000680","NAME":"East Millsboro Elementary School","STATE":"DE","CITY":"Millsboro","ZIP":"19966","CNTY":"10005","NMCNTY":"Sussex County","LOCALE":"32","SCHOOLYEAR":"2024-2025"}},{"type":"Feature","geometry":{"type":"Point","coordinates":[-75.236864,38.536132]},"properties":{"NCESSCH":"100068000082","LEAID":"1000680","NAME":"Clayton (John M.) Elementary School","STATE":"DE","CITY":"Frankford","ZIP":"19945","CNTY":"10005","NMCNTY":"Sussex County","LOCALE":"41","SCHOOLYEAR":"2024-2025"}},{"type":"Feature","geometry":{"type":"Point","coordinates":[-75.390301,38.68464]},"properties":{"NCESSCH":"100068000083","LEAID":"1000680","NAME":"Georgetown Elementary School","STATE":"DE","CITY":"Georgetown","ZIP":"19947","CNTY":"10005","NMCNTY":"Sussex County","LOCALE":"32","SCHOOLYEAR":"2024-2025"}},{"type":"Feature","geometry":{"type":"Point","coordinates":[-75.322233,38.632034]},"properties":{"NCESSCH":"100068000084","LEAID":"1000680","NAME":"Ennis (Howard T.) School","STATE":"DE","CITY":"Georgetown","ZIP":"19947","CNTY":"10005","NMCNTY":"Sussex County","LOCALE":"41","SCHOOLYEAR":"2024-2025"}},{"type":"Feature","geometry":{"type":"Point","coordinates":[-75.230262,38.54241]},"properties":{"NCESSCH":"100068000085","LEAID":"1000680","NAME":"Indian River High School","STATE":"DE","CITY":"Dagsboro","ZIP":"19945","CNTY":"10005","NMCNTY":"Sussex County","LOCALE":"41","SCHOOLYEAR":"2024-2025"}},{"type":"Feature","geometry":{"type":"Point","coordinates":[-75.099936,38.54519]},"properties":{"NCESSCH":"100068000086","LEAID":"1000680","NAME":"Lord Baltimore Elementary School","STATE":"DE","CITY":"Ocean View","ZIP":"19970","CNTY":"10005","NMCNTY":"Sussex County","LOCALE":"32","SCHOOLYEAR":"2024-2025"}},{"type":"Feature","geometry":{"type":"Point","coordinates":[-75.20908,38.462213]},"properties":{"NCESSCH":"100068000087","LEAID":"1000680","NAME":"Selbyville Middle School","STATE":"DE","CITY":"Selbyville","ZIP":"19975","CNTY":"10005","NMCNTY":"Sussex County","LOCALE":"42","SCHOOLYEAR":"2024-2025"}},{"type":"Feature","geometry":{"type":"Point","coordinates":[-75.215213,38.461501]},"properties":{"NCESSCH":"100068000088","LEAID":"1000680","NAME":"Showell (Phillip C.) Elementary School","STATE":"DE","CITY":"Selbyville","ZIP":"19975","CNTY":"10005","NMCNTY":"Sussex County","LOCALE":"42","SCHOOLYEAR":"2024-2025"}},{"type":"Feature","geometry":{"type":"Point","coordinates":[-75.32611,38.630347]},"properties":{"NCESSCH":"100068000090","LEAID":"1000680","NAME":"Sussex Central High School","STATE":"DE","CITY":"Georgetown","ZIP":"19947","CNTY":"10005","NMCNTY":"Sussex County","LOCALE":"41","SCHOOLYEAR":"2024-2025"}},{"type":"Feature","geometry":{"type":"Point","coordinates":[-75.390301,38.68464]},"properties":{"NCESSCH":"100068000245","LEAID":"1000680","NAME":"Georgetown Middle School","STATE":"DE","CITY":"Georgetown","ZIP":"19947","CNTY":"10005","NMCNTY":"Sussex County","LOCALE":"32","SCHOOLYEAR":"2024-2025"}},{"type":"Feature","geometry":{"type":"Point","coordinates":[-75.287866,38.590166]},"properties":{"NCESSCH":"100068000303","LEAID":"1000680","NAME":"Millsboro Middle School","STATE":"DE","CITY":"Millsboro","ZIP":"19966","CNTY":"10005","NMCNTY":"Sussex County","LOCALE":"32","SCHOOLYEAR":"2024-2025"}},{"type":"Feature","geometry":{"type":"Point","coordinates":[-75.226375,38.461346]},"properties":{"NCESSCH":"100068000384","LEAID":"1000680","NAME":"Indian River Intensive Learning Center","STATE":"DE","CITY":"Selbyville","ZIP":"19975","CNTY":"10005","NMCNTY":"Sussex County","LOCALE":"42","SCHOOLYEAR":"2024-2025"}},{"type":"Feature","geometry":{"type":"Point","coordinates":[-75.32611,38.630347]},"properties":{"NCESSCH":"100068000405","LEAID":"1000680","NAME":"Sussex Central Middle","STATE":"DE","CITY":"Georgetown","ZIP":"19947","CNTY":"10005","NMCNTY":"Sussex County","LOCALE":"41","SCHOOLYEAR":"2024-2025"}},{"type":"Feature","geometry":{"type":"Point","coordinates":[-75.546424,39.072384]},"properties":{"NCESSCH":"100075000092","LEAID":"1000750","NAME":"POLYTECH High School","STATE":"DE","CITY":"Woodside","ZIP":"19980","CNTY":"10001","NMCNTY":"Kent County","LOCALE":"22","SCHOOLYEAR":"2024-2025"}},{"type":"Feature","geometry":{"type":"Point","coordinates":[-75.552648,38.990291]},"properties":{"NCESSCH":"100079000077","LEAID":"1000790","NAME":"Lake Forest Central Elementary School","STATE":"DE","CITY":"Felton","ZIP":"19943","CNTY":"10001","NMCNTY":"Kent County","LOCALE":"41","SCHOOLYEAR":"2024-2025"}},{"type":"Feature","geometry":{"type":"Point","coordinates":[-75.473271,39.006922]},"properties":{"NCESSCH":"100079000094","LEAID":"1000790","NAME":"Lake Forest East Elementary School","STATE":"DE","CITY":"Frederica","ZIP":"19946","CNTY":"10001","NMCNTY":"Kent County","LOCALE":"41","SCHOOLYEAR":"2024-2025"}},{"type":"Feature","geometry":{"type":"Point","coordinates":[-75.551488,38.98788]},"properties":{"NCESSCH":"100079000095","LEAID":"1000790","NAME":"Lake Forest High School","STATE":"DE","CITY":"Felton","ZIP":"19943","CNTY":"10001","NMCNTY":"Kent County","LOCALE":"41","SCHOOLYEAR":"2024-2025"}},{"type":"Feature","geometry":{"type":"Point","coordinates":[-75.570005,39.007651]},"properties":{"NCESSCH":"100079000096","LEAID":"1000790","NAME":"Lake Forest North Elementary School","STATE":"DE","CITY":"Felton","ZIP":"19943","CNTY":"10001","NMCNTY":"Kent County","LOCALE":"22","SCHOOLYEAR":"2024-2025"}},{"type":"Feature","geometry":{"type":"Point","coordinates":[-75.583168,38.930357]},"properties":{"NCESSCH":"100079000097","LEAID":"1000790","NAME":"Lake Forest South Elementary School","STATE":"DE","CITY":"Harrington","ZIP":"19952","CNTY":"10001","NMCNTY":"Kent County","LOCALE":"31","SCHOOLYEAR":"2024-2025"}},{"type":"Feature","geometry":{"type":"Point","coordinates":[-75.582053,38.928763]},"properties":{"NCESSCH":"100079000098","LEAID":"1000790","NAME":"Chipman (W.T.) Middle School","STATE":"DE","CITY":"Harrington","ZIP":"19952","CNTY":"10001","NMCNTY":"Kent County","LOCALE":"31","SCHOOLYEAR":"2024-2025"}},{"type":"Feature","geometry":{"type":"Point","coordinates":[-75.582939,38.922685]},"properties":{"NCESSCH":"100079000383","LEAID":"1000790","NAME":"Delaware Early Childhood Center","STATE":"DE","CITY":"Harrington","ZIP":"19952","CNTY":"10001","NMCNTY":"Kent County","LOCALE":"31","SCHOOLYEAR":"2024-2025"}},{"type":"Feature","geometry":{"type":"Point","coordinates":[-75.565613,38.54651]},"properties":{"NCESSCH":"100081000100","LEAID":"1000810","NAME":"Laurel Senior High School","STATE":"DE","CITY":"Laurel","ZIP":"19956","CNTY":"10005","NMCNTY":"Sussex County","LOCALE":"32","SCHOOLYEAR":"2024-2025"}},{"type":"Feature","geometry":{"type":"Point","coordinates":[-75.568182,38.564313]},"properties":{"NCESSCH":"100081000101","LEAID":"1000810","NAME":"North Laurel Early Learning Academy","STATE":"DE","CITY":"Laurel","ZIP":"19956","CNTY":"10005","NMCNTY":"Sussex County","LOCALE":"32","SCHOOLYEAR":"2024-2025"}},{"type":"Feature","geometry":{"type":"Point","coordinates":[-75.567668,38.55138]},"properties":{"NCESSCH":"100081000364","LEAID":"1000810","NAME":"Laurel Elementary School","STATE":"DE","CITY":"Laurel","ZIP":"19956","CNTY":"10005","NMCNTY":"Sussex County","LOCALE":"32","SCHOOLYEAR":"2024-2025"}},{"type":"Feature","geometry":{"type":"Point","coordinates":[-75.566342,38.545982]},"properties":{"NCESSCH":"100081000365","LEAID":"1000810","NAME":"Laurel Middle School","STATE":"DE","CITY":"Laurel","ZIP":"19956","CNTY":"10005","NMCNTY":"Sussex County","LOCALE":"32","SCHOOLYEAR":"2024-2025"}},{"type":"Feature","geometry":{"type":"Point","coordinates":[-75.417796,38.869511]},"properties":{"NCESSCH":"100108000002","LEAID":"1001080","NAME":"Morris (Evelyn I.) Early Childhood","STATE":"DE","CITY":"Lincoln","ZIP":"19960","CNTY":"10005","NMCNTY":"Sussex County","LOCALE":"41","SCHOOLYEAR":"2024-2025"}},{"type":"Feature","geometry":{"type":"Point","coordinates":[-75.431363,38.920555]},"properties":{"NCESSCH":"100108000107","LEAID":"1001080","NAME":"Banneker (Benjamin) Elementary School","STATE":"DE","CITY":"Milford","ZIP":"19963","CNTY":"10001","NMCNTY":"Kent County","LOCALE":"31","SCHOOLYEAR":"2024-2025"}},{"type":"Feature","geometry":{"type":"Point","coordinates":[-75.417682,38.90673]},"properties":{"NCESSCH":"100108000109","LEAID":"1001080","NAME":"Ross (Lulu M.) Elementary School","STATE":"DE","CITY":"Milford","ZIP":"19963","CNTY":"10005","NMCNTY":"Sussex County","LOCALE":"31","SCHOOLYEAR":"2024-2025"}},{"type":"Feature","geometry":{"type":"Point","coordinates":[-75.436993,38.904277]},"properties":{"NCESSCH":"100108000110","LEAID":"1001080","NAME":"Milford Middle School","STATE":"DE","CITY":"Milford","ZIP":"19963","CNTY":"10005","NMCNTY":"Sussex County","LOCALE":"31","SCHOOLYEAR":"2024-2025"}},{"type":"Feature","geometry":{"type":"Point","coordinates":[-75.427329,38.930013]},"properties":{"NCESSCH":"100108000111","LEAID":"1001080","NAME":"Milford Senior High School","STATE":"DE","CITY":"Milford","ZIP":"19963","CNTY":"10001","NMCNTY":"Kent County","LOCALE":"31","SCHOOLYEAR":"2024-2025"}},{"type":"Feature","geometry":{"type":"Point","coordinates":[-75.416011,38.905655]},"properties":{"NCESSCH":"100108000344","LEAID":"1001080","NAME":"Mispillion Elementary","STATE":"DE","CITY":"Milford","ZIP":"19963","CNTY":"10005","NMCNTY":"Sussex County","LOCALE":"31","SCHOOLYEAR":"2024-2025"}},{"type":"Feature","geometry":{"type":"Point","coordinates":[-75.427076,38.930662]},"properties":{"NCESSCH":"100108000345","LEAID":"1001080","NAME":"Milford Central Academy","STATE":"DE","CITY":"Milford","ZIP":"19963","CNTY":"10001","NMCNTY":"Kent County","LOCALE":"31","SCHOOLYEAR":"2024-2025"}},{"type":"Feature","geometry":{"type":"Point","coordinates":[-75.536421,39.804678]},"properties":{"NCESSCH":"100124000009","LEAID":"1001240","NAME":"Springer Middle School","STATE":"DE","CITY":"Wilmington","ZIP":"19803","CNTY":"10003","NMCNTY":"New Castle County","LOCALE":"21","SCHOOLYEAR":"2024-2025"}},{"type":"Feature","geometry":{"type":"Point","coordinates":[-75.463898,39.803759]},"properties":{"NCESSCH":"100124000062","LEAID":"1001240","NAME":"Claymont Elementary School","STATE":"DE","CITY":"Claymont","ZIP":"19703","CNTY":"10003","NMCNTY":"New Castle County","LOCALE":"21","SCHOOLYEAR":"2024-2025"}},{"type":"Feature","geometry":{"type":"Point","coordinates":[-75.521366,39.800147]},"properties":{"NCESSCH":"100124000242","LEAID":"1001240","NAME":"Brandywine High School","STATE":"DE","CITY":"Wilmington","ZIP":"19803","CNTY":"10003","NMCNTY":"New Castle County","LOCALE":"21","SCHOOLYEAR":"2024-2025"}},{"type":"Feature","geometry":{"type":"Point","coordinates":[-75.532905,39.764358]},"properties":{"NCESSCH":"100124000243","LEAID":"1001240","NAME":"duPont (Pierre S.) Middle School","STATE":"DE","CITY":"Wilmington","ZIP":"19802","CNTY":"10003","NMCNTY":"New Castle County","LOCALE":"13","SCHOOLYEAR":"2024-2025"}},{"type":"Feature","geometry":{"type":"Point","coordinates":[-75.504958,39.772475]},"properties":{"NCESSCH":"100124000246","LEAID":"1001240","NAME":"Mount Pleasant High School","STATE":"DE","CITY":"Wilmington","ZIP":"19809","CNTY":"10003","NMCNTY":"New Castle County","LOCALE":"21","SCHOOLYEAR":"2024-2025"}},{"type":"Feature","geometry":{"type":"Point","coordinates":[-75.524851,39.830295]},"properties":{"NCESSCH":"100124000247","LEAID":"1001240","NAME":"Concord High School","STATE":"DE","CITY":"Wilmington","ZIP":"19810","CNTY":"10003","NMCNTY":"New Castle County","LOCALE":"21","SCHOOLYEAR":"2024-2025"}},{"type":"Feature","geometry":{"type":"Point","coordinates":[-75.526061,39.820681]},"properties":{"NCESSCH":"100124000277","LEAID":"1001240","NAME":"Bush (Charles W.) Pre-School","STATE":"DE","CITY":"Wilmington","ZIP":"19810","CNTY":"10003","NMCNTY":"New Castle County","LOCALE":"21","SCHOOLYEAR":"2024-2025"}},{"type":"Feature","geometry":{"type":"Point","coordinates":[-75.472347,39.792398]},"properties":{"NCESSCH":"100124000281","LEAID":"1001240","NAME":"Maple Lane Elementary School","STATE":"DE","CITY":"Claymont","ZIP":"19703","CNTY":"10003","NMCNTY":"New Castle County","LOCALE":"21","SCHOOLYEAR":"2024-2025"}},{"type":"Feature","geometry":{"type":"Point","coordinates":[-75.535151,39.784541]},"properties":{"NCESSCH":"100124000282","LEAID":"1001240","NAME":"Lombardy Elementary School","STATE":"DE","CITY":"Wilmington","ZIP":"19803","CNTY":"10003","NMCNTY":"New Castle County","LOCALE":"21","SCHOOLYEAR":"2024-2025"}},{"type":"Feature","geometry":{"type":"Point","coordinates":[-75.494288,39.823123]},"properties":{"NCESSCH":"100124000283","LEAID":"1001240","NAME":"Lancashire Elementary School","STATE":"DE","CITY":"Wilmington","ZIP":"19810","CNTY":"10003","NMCNTY":"New Castle County","LOCALE":"21","SCHOOLYEAR":"2024-2025"}},{"type":"Feature","geometry":{"type":"Point","coordinates":[-75.529944,39.76294]},"properties":{"NCESSCH":"100124000285","LEAID":"1001240","NAME":"Harlan (David W. ) Elementary School","STATE":"DE","CITY":"Wilmington","ZIP":"19802","CNTY":"10003","NMCNTY":"New Castle County","LOCALE":"13","SCHOOLYEAR":"2024-2025"}},{"type":"Feature","geometry":{"type":"Point","coordinates":[-75.50462,39.806213]},"properties":{"NCESSCH":"100124000288","LEAID":"1001240","NAME":"Forwood Elementary School","STATE":"DE","CITY":"Wilmington","ZIP":"19810","CNTY":"10003","NMCNTY":"New Castle County","LOCALE":"21","SCHOOLYEAR":"2024-2025"}},{"type":"Feature","geometry":{"type":"Point","coordinates":[-75.50222,39.788304]},"properties":{"NCESSCH":"100124000291","LEAID":"1001240","NAME":"Carrcroft Elementary School","STATE":"DE","CITY":"Wilmington","ZIP":"19803","CNTY":"10003","NMCNTY":"New Castle County","LOCALE":"21","SCHOOLYEAR":"2024-2025"}},{"type":"Feature","geometry":{"type":"Point","coordinates":[-75.526061,39.820681]},"properties":{"NCESSCH":"100124000293","LEAID":"1001240","NAME":"Hanby Elementary School","STATE":"DE","CITY":"Wilmington","ZIP":"19810","CNTY":"10003","NMCNTY":"New Castle County","LOCALE":"21","SCHOOLYEAR":"2024-2025"}},{"type":"Feature","geometry":{"type":"Point","coordinates":[-75.47227,39.823057]},"properties":{"NCESSCH":"100124000294","LEAID":"1001240","NAME":"Talley Middle School","STATE":"DE","CITY":"Wilmington","ZIP":"19810","CNTY":"10003","NMCNTY":"New Castle County","LOCALE":"21","SCHOOLYEAR":"2024-2025"}},{"type":"Feature","geometry":{"type":"Point","coordinates":[-75.496318,39.770648]},"properties":{"NCESSCH":"100124000318","LEAID":"1001240","NAME":"Mount Pleasant Elementary School","STATE":"DE","CITY":"Wilmington","ZIP":"19809","CNTY":"10003","NMCNTY":"New Castle County","LOCALE":"21","SCHOOLYEAR":"2024-2025"}},{"type":"Feature","geometry":{"type":"Point","coordinates":[-75.465265,39.802593]},"properties":{"NCESSCH":"100124000385","LEAID":"1001240","NAME":"Brandywine SITE","STATE":"DE","CITY":"Claymont","ZIP":"19703","CNTY":"10003","NMCNTY":"New Castle County","LOCALE":"21","SCHOOLYEAR":"2024-2025"}},{"type":"Feature","geometry":{"type":"Point","coordinates":[-75.626918,39.726107]},"properties":{"NCESSCH":"100128000154","LEAID":"1001280","NAME":"Delcastle Technical High School","STATE":"DE","CITY":"Wilmington","ZIP":"19804","CNTY":"10003","NMCNTY":"New Castle County","LOCALE":"21","SCHOOLYEAR":"2024-2025"}},{"type":"Feature","geometry":{"type":"Point","coordinates":[-75.666753,39.527945]},"properties":{"NCESSCH":"100128000181","LEAID":"1001280","NAME":"St. Georges Technical High School","STATE":"DE","CITY":"Middletown","ZIP":"19709","CNTY":"10003","NMCNTY":"New Castle County","LOCALE":"31","SCHOOLYEAR":"2024-2025"}},{"type":"Feature","geometry":{"type":"Point","coordinates":[-75.740333,39.600918]},"properties":{"NCESSCH":"100128000296","LEAID":"1001280","NAME":"Hodgson (Paul M.) Vocational Technical High School","STATE":"DE","CITY":"Newark","ZIP":"19702","CNTY":"10003","NMCNTY":"New Castle County","LOCALE":"21","SCHOOLYEAR":"2024-2025"}},{"type":"Feature","geometry":{"type":"Point","coordinates":[-75.540976,39.745623]},"properties":{"NCESSCH":"100128000297","LEAID":"1001280","NAME":"Howard High School of Technology","STATE":"DE","CITY":"Wilmington","ZIP":"19801","CNTY":"10003","NMCNTY":"New Castle County","LOCALE":"13","SCHOOLYEAR":"2024-2025"}},{"type":"Feature","geometry":{"type":"Point","coordinates":[-75.587458,39.753689]},"properties":{"NCESSCH":"100130000004","LEAID":"1001300","NAME":"Calloway (Cab) School of the Arts","STATE":"DE","CITY":"Wilmington","ZIP":"19807","CNTY":"10003","NMCNTY":"New Castle County","LOCALE":"13","SCHOOLYEAR":"2024-2025"}},{"type":"Feature","geometry":{"type":"Point","coordinates":[-75.653719,39.743237]},"properties":{"NCESSCH":"100130000104","LEAID":"1001300","NAME":"Brandywine Springs School","STATE":"DE","CITY":"Wilmington","ZIP":"19808","CNTY":"10003","NMCNTY":"New Castle County","LOCALE":"21","SCHOOLYEAR":"2024-2025"}},{"type":"Feature","geometry":{"type":"Point","coordinates":[-75.549772,39.751461]},"properties":{"NCESSCH":"100130000116","LEAID":"1001300","NAME":"First State School","STATE":"DE","CITY":"Wilmington","ZIP":"19899","CNTY":"10003","NMCNTY":"New Castle County","LOCALE":"13","SCHOOLYEAR":"2024-2025"}},{"type":"Feature","geometry":{"type":"Point","coordinates":[-75.714059,39.766705]},"properties":{"NCESSCH":"100130000179","LEAID":"1001300","NAME":"North Star Elementary School","STATE":"DE","CITY":"Hockessin","ZIP":"19707","CNTY":"10003","NMCNTY":"New Castle County","LOCALE":"21","SCHOOLYEAR":"2024-2025"}},{"type":"Feature","geometry":{"type":"Point","coordinates":[-75.544975,39.752299]},"properties":{"NCESSCH":"100130000219","LEAID":"1001300","NAME":"Shortlidge (Evan G.) Academy","STATE":"DE","CITY":"Wilmington","ZIP":"19802","CNTY":"10003","NMCNTY":"New Castle County","LOCALE":"13","SCHOOLYEAR":"2024-2025"}},{"type":"Feature","geometry":{"type":"Point","coordinates":[-75.590726,39.722985]},"properties":{"NCESSCH":"100130000248","LEAID":"1001300","NAME":"Richardson Park Learning Center","STATE":"DE","CITY":"Wilmington","ZIP":"19804","CNTY":"10003","NMCNTY":"New Castle County","LOCALE":"21","SCHOOLYEAR":"2024-2025"}},{"type":"Feature","geometry":{"type":"Point","coordinates":[-75.683986,39.704197]},"properties":{"NCESSCH":"100130000249","LEAID":"1001300","NAME":"Meadowood Program","STATE":"DE","CITY":"Newark","ZIP":"19711","CNTY":"10003","NMCNTY":"New Castle County","LOCALE":"21","SCHOOLYEAR":"2024-2025"}},{"type":"Feature","geometry":{"type":"Point","coordinates":[-75.548751,39.758548]},"properties":{"NCESSCH":"100130000250","LEAID":"1001300","NAME":"Warner Elementary School","STATE":"DE","CITY":"Wilmington","ZIP":"19802","CNTY":"10003","NMCNTY":"New Castle County","LOCALE":"13","SCHOOLYEAR":"2024-2025"}},{"type":"Feature","geometry":{"type":"Point","coordinates":[-75.591049,39.723395]},"properties":{"NCESSCH":"100130000252","LEAID":"1001300","NAME":"Richardson Park Elementary School","STATE":"DE","CITY":"Wilmington","ZIP":"19804","CNTY":"10003","NMCNTY":"New Castle County","LOCALE":"21","SCHOOLYEAR":"2024-2025"}},{"type":"Feature","geometry":{"type":"Point","coordinates":[-75.638213,39.735426]},"properties":{"NCESSCH":"100130000254","LEAID":"1001300","NAME":"Mote (Anna P.) Elementary School","STATE":"DE","CITY":"Wilmington","ZIP":"19808","CNTY":"10003","NMCNTY":"New Castle County","LOCALE":"21","SCHOOLYEAR":"2024-2025"}},{"type":"Feature","geometry":{"type":"Point","coordinates":[-75.624901,39.742099]},"properties":{"NCESSCH":"100130000255","LEAID":"1001300","NAME":"Marbrook Elementary School","STATE":"DE","CITY":"Wilmington","ZIP":"19808","CNTY":"10003","NMCNTY":"New Castle County","LOCALE":"21","SCHOOLYEAR":"2024-2025"}},{"type":"Feature","geometry":{"type":"Point","coordinates":[-75.557837,39.749423]},"properties":{"NCESSCH":"100130000258","LEAID":"1001300","NAME":"Lewis (William C.) Dual Language Elementary School","STATE":"DE","CITY":"Wilmington","ZIP":"19806","CNTY":"10003","NMCNTY":"New Castle County","LOCALE":"13","SCHOOLYEAR":"2024-2025"}},{"type":"Feature","geometry":{"type":"Point","coordinates":[-75.565868,39.761859]},"properties":{"NCESSCH":"100130000261","LEAID":"1001300","NAME":"Johnson (Joseph E. Jr) Elementary School","STATE":"DE","CITY":"Wilmington","ZIP":"19806","CNTY":"10003","NMCNTY":"New Castle County","LOCALE":"13","SCHOOLYEAR":"2024-2025"}},{"type":"Feature","geometry":{"type":"Point","coordinates":[-75.685281,39.722664]},"properties":{"NCESSCH":"100130000262","LEAID":"1001300","NAME":"Heritage Elementary School","STATE":"DE","CITY":"Wilmington","ZIP":"19808","CNTY":"10003","NMCNTY":"New Castle County","LOCALE":"21","SCHOOLYEAR":"2024-2025"}},{"type":"Feature","geometry":{"type":"Point","coordinates":[-75.599358,39.743566]},"properties":{"NCESSCH":"100130000264","LEAID":"1001300","NAME":"Baltz (Austin D.) Elementary School","STATE":"DE","CITY":"Wilmington","ZIP":"19805","CNTY":"10003","NMCNTY":"New Castle County","LOCALE":"21","SCHOOLYEAR":"2024-2025"}},{"type":"Feature","geometry":{"type":"Point","coordinates":[-75.683304,39.705036]},"properties":{"NCESSCH":"100130000265","LEAID":"1001300","NAME":"Forest Oak Elementary School","STATE":"DE","CITY":"Newark","ZIP":"19711","CNTY":"10003","NMCNTY":"New Castle County","LOCALE":"21","SCHOOLYEAR":"2024-2025"}},{"type":"Feature","geometry":{"type":"Point","coordinates":[-75.651011,39.714239]},"properties":{"NCESSCH":"100130000266","LEAID":"1001300","NAME":"Stanton Middle School","STATE":"DE","CITY":"Wilmington","ZIP":"19804","CNTY":"10003","NMCNTY":"New Castle County","LOCALE":"21","SCHOOLYEAR":"2024-2025"}},{"type":"Feature","geometry":{"type":"Point","coordinates":[-75.687359,39.724214]},"properties":{"NCESSCH":"100130000267","LEAID":"1001300","NAME":"Skyline Middle School","STATE":"DE","CITY":"Wilmington","ZIP":"19808","CNTY":"10003","NMCNTY":"New Castle County","LOCALE":"21","SCHOOLYEAR":"2024-2025"}},{"type":"Feature","geometry":{"type":"Point","coordinates":[-75.691619,39.8004]},"properties":{"NCESSCH":"100130000269","LEAID":"1001300","NAME":"duPont (H.B.) Middle School","STATE":"DE","CITY":"Hockessin","ZIP":"19707","CNTY":"10003","NMCNTY":"New Castle County","LOCALE":"21","SCHOOLYEAR":"2024-2025"}},{"type":"Feature","geometry":{"type":"Point","coordinates":[-75.601314,39.722655]},"properties":{"NCESSCH":"100130000270","LEAID":"1001300","NAME":"Conrad Schools of Science","STATE":"DE","CITY":"Wilmington","ZIP":"19804","CNTY":"10003","NMCNTY":"New Castle County","LOCALE":"21","SCHOOLYEAR":"2024-2025"}},{"type":"Feature","geometry":{"type":"Point","coordinates":[-75.583407,39.767728]},"properties":{"NCESSCH":"100130000272","LEAID":"1001300","NAME":"duPont (Alexis I.) Middle School","STATE":"DE","CITY":"Greenville","ZIP":"19807","CNTY":"10003","NMCNTY":"New Castle County","LOCALE":"21","SCHOOLYEAR":"2024-2025"}},{"type":"Feature","geometry":{"type":"Point","coordinates":[-75.666397,39.757859]},"properties":{"NCESSCH":"100130000274","LEAID":"1001300","NAME":"McKean (Thomas) High School","STATE":"DE","CITY":"Wilmington","ZIP":"19808","CNTY":"10003","NMCNTY":"New Castle County","LOCALE":"21","SCHOOLYEAR":"2024-2025"}},{"type":"Feature","geometry":{"type":"Point","coordinates":[-75.674025,39.728045]},"properties":{"NCESSCH":"100130000275","LEAID":"1001300","NAME":"Dickinson (John) School","STATE":"DE","CITY":"Wilmington","ZIP":"19808","CNTY":"10003","NMCNTY":"New Castle County","LOCALE":"21","SCHOOLYEAR":"2024-2025"}},{"type":"Feature","geometry":{"type":"Point","coordinates":[-75.600907,39.777687]},"properties":{"NCESSCH":"100130000276","LEAID":"1001300","NAME":"duPont (Alexis I.) High School","STATE":"DE","CITY":"Wilmington","ZIP":"19807","CNTY":"10003","NMCNTY":"New Castle County","LOCALE":"21","SCHOOLYEAR":"2024-2025"}},{"type":"Feature","geometry":{"type":"Point","coordinates":[-75.607883,39.717838]},"properties":{"NCESSCH":"100130000315","LEAID":"1001300","NAME":"Richey Elementary School","STATE":"DE","CITY":"Wilmington","ZIP":"19804","CNTY":"10003","NMCNTY":"New Castle County","LOCALE":"21","SCHOOLYEAR":"2024-2025"}},{"type":"Feature","geometry":{"type":"Point","coordinates":[-75.692872,39.733869]},"properties":{"NCESSCH":"100130000334","LEAID":"1001300","NAME":"Linden Hill Elementary School","STATE":"DE","CITY":"Wilmington","ZIP":"19808","CNTY":"10003","NMCNTY":"New Castle County","LOCALE":"21","SCHOOLYEAR":"2024-2025"}},{"type":"Feature","geometry":{"type":"Point","coordinates":[-75.669133,39.766887]},"properties":{"NCESSCH":"100130000371","LEAID":"1001300","NAME":"William F. Cooke Jr. Elementary","STATE":"DE","CITY":"Hockessin","ZIP":"19707","CNTY":"10003","NMCNTY":"New Castle County","LOCALE":"21","SCHOOLYEAR":"2024-2025"}},{"type":"Feature","geometry":{"type":"Point","coordinates":[-75.652732,39.712302]},"properties":{"NCESSCH":"100130000389","LEAID":"1001300","NAME":"Red Clay Early Years Program","STATE":"DE","CITY":"Wilmington","ZIP":"19804","CNTY":"10003","NMCNTY":"New Castle County","LOCALE":"21","SCHOOLYEAR":"2024-2025"}},{"type":"Feature","geometry":{"type":"Point","coordinates":[-75.606348,38.630991]},"properties":{"NCESSCH":"100153000020","LEAID":"1001530","NAME":"Blades Elementary School","STATE":"DE","CITY":"Blades","ZIP":"19973","CNTY":"10005","NMCNTY":"Sussex County","LOCALE":"32","SCHOOLYEAR":"2024-2025"}},{"type":"Feature","geometry":{"type":"Point","coordinates":[-75.616138,38.65139]},"properties":{"NCESSCH":"100153000155","LEAID":"1001530","NAME":"Seaford Central Elementary School","STATE":"DE","CITY":"Seaford","ZIP":"19973","CNTY":"10005","NMCNTY":"Sussex County","LOCALE":"32","SCHOOLYEAR":"2024-2025"}},{"type":"Feature","geometry":{"type":"Point","coordinates":[-75.61213,38.648538]},"properties":{"NCESSCH":"100153000156","LEAID":"1001530","NAME":"Seaford Middle School","STATE":"DE","CITY":"Seaford","ZIP":"19973","CNTY":"10005","NMCNTY":"Sussex County","LOCALE":"32","SCHOOLYEAR":"2024-2025"}},{"type":"Feature","geometry":{"type":"Point","coordinates":[-75.603848,38.645643]},"properties":{"NCESSCH":"100153000157","LEAID":"1001530","NAME":"Frederick Douglass Elementary School","STATE":"DE","CITY":"Seaford","ZIP":"19973","CNTY":"10005","NMCNTY":"Sussex County","LOCALE":"32","SCHOOLYEAR":"2024-2025"}},{"type":"Feature","geometry":{"type":"Point","coordinates":[-75.6136,38.651909]},"properties":{"NCESSCH":"100153000158","LEAID":"1001530","NAME":"Seaford Senior High School","STATE":"DE","CITY":"Seaford","ZIP":"19973","CNTY":"10005","NMCNTY":"Sussex County","LOCALE":"32","SCHOOLYEAR":"2024-2025"}},{"type":"Feature","geometry":{"type":"Point","coordinates":[-75.631872,38.642909]},"properties":{"NCESSCH":"100153000160","LEAID":"1001530","NAME":"West Seaford Elementary School","STATE":"DE","CITY":"Seaford","ZIP":"19973","CNTY":"10005","NMCNTY":"Sussex County","LOCALE":"32","SCHOOLYEAR":"2024-2025"}},{"type":"Feature","geometry":{"type":"Point","coordinates":[-75.616138,38.65139]},"properties":{"NCESSCH":"100153000322","LEAID":"1001530","NAME":"Sussex Orthopedic Program","STATE":"DE","CITY":"Seaford","ZIP":"19973","CNTY":"10005","NMCNTY":"Sussex County","LOCALE":"32","SCHOOLYEAR":"2024-2025"}},{"type":"Feature","geometry":{"type":"Point","coordinates":[-75.623778,39.302595]},"properties":{"NCESSCH":"100162000141","LEAID":"1001620","NAME":"Smyrna Middle School","STATE":"DE","CITY":"Smyrna","ZIP":"19977","CNTY":"10001","NMCNTY":"Kent County","LOCALE":"22","SCHOOLYEAR":"2024-2025"}},{"type":"Feature","geometry":{"type":"Point","coordinates":[-75.611093,39.273813]},"properties":{"NCESSCH":"100162000216","LEAID":"1001620","NAME":"Sunnyside Elementary School","STATE":"DE","CITY":"Smyrna","ZIP":"19977","CNTY":"10001","NMCNTY":"Kent County","LOCALE":"22","SCHOOLYEAR":"2024-2025"}},{"type":"Feature","geometry":{"type":"Point","coordinates":[-75.608378,39.295494]},"properties":{"NCESSCH":"100162000298","LEAID":"1001620","NAME":"Smyrna Elementary School","STATE":"DE","CITY":"Smyrna","ZIP":"19977","CNTY":"10001","NMCNTY":"Kent County","LOCALE":"22","SCHOOLYEAR":"2024-2025"}},{"type":"Feature","geometry":{"type":"Point","coordinates":[-75.627131,39.299669]},"properties":{"NCESSCH":"100162000299","LEAID":"1001620","NAME":"Smyrna High School","STATE":"DE","CITY":"Smyrna","ZIP":"19977","CNTY":"10001","NMCNTY":"Kent County","LOCALE":"22","SCHOOLYEAR":"2024-2025"}},{"type":"Feature","geometry":{"type":"Point","coordinates":[-75.605322,39.298593]},"properties":{"NCESSCH":"100162000300","LEAID":"1001620","NAME":"Moore (John Bassett) School","STATE":"DE","CITY":"Smyrna","ZIP":"19977","CNTY":"10001","NMCNTY":"Kent County","LOCALE":"22","SCHOOLYEAR":"2024-2025"}},{"type":"Feature","geometry":{"type":"Point","coordinates":[-75.613502,39.304473]},"properties":{"NCESSCH":"100162000301","LEAID":"1001620","NAME":"North Smyrna Elementary School","STATE":"DE","CITY":"Smyrna","ZIP":"19977","CNTY":"10001","NMCNTY":"Kent County","LOCALE":"22","SCHOOLYEAR":"2024-2025"}},{"type":"Feature","geometry":{"type":"Point","coordinates":[-75.636185,39.288014]},"properties":{"NCESSCH":"100162000302","LEAID":"1001620","NAME":"Clayton Elementary School","STATE":"DE","CITY":"Clayton","ZIP":"19938","CNTY":"10001","NMCNTY":"Kent County","LOCALE":"22","SCHOOLYEAR":"2024-2025"}},{"type":"Feature","geometry":{"type":"Point","coordinates":[-75.646447,39.271809]},"properties":{"NCESSCH":"100162000352","LEAID":"1001620","NAME":"Clayton Intermediate School","STATE":"DE","CITY":"Clayton","ZIP":"19938","CNTY":"10001","NMCNTY":"Kent County","LOCALE":"41","SCHOOLYEAR":"2024-2025"}},{"type":"Feature","geometry":{"type":"Point","coordinates":[-75.442171,38.644047]},"properties":{"NCESSCH":"100168000170","LEAID":"1001680","NAME":"Sussex Technical High School","STATE":"DE","CITY":"Georgetown","ZIP":"19947","CNTY":"10005","NMCNTY":"Sussex County","LOCALE":"42","SCHOOLYEAR":"2024-2025"}},{"type":"Feature","geometry":{"type":"Point","coordinates":[-75.600862,38.739916]},"properties":{"NCESSCH":"100185000073","LEAID":"1001850","NAME":"Woodbridge Middle School","STATE":"DE","CITY":"Bridgeville","ZIP":"19933","CNTY":"10005","NMCNTY":"Sussex County","LOCALE":"32","SCHOOLYEAR":"2024-2025"}},{"type":"Feature","geometry":{"type":"Point","coordinates":[-75.587103,38.803811]},"properties":{"NCESSCH":"100185000193","LEAID":"1001850","NAME":"Woodbridge Early Childhood Education Center","STATE":"DE","CITY":"Greenwood","ZIP":"19950","CNTY":"10005","NMCNTY":"Sussex County","LOCALE":"42","SCHOOLYEAR":"2024-2025"}},{"type":"Feature","geometry":{"type":"Point","coordinates":[-75.612573,38.778295]},"properties":{"NCESSCH":"100185000194","LEAID":"1001850","NAME":"Woodbridge High School","STATE":"DE","CITY":"Greenwood","ZIP":"19950","CNTY":"10005","NMCNTY":"Sussex County","LOCALE":"41","SCHOOLYEAR":"2024-2025"}},{"type":"Feature","geometry":{"type":"Point","coordinates":[-75.602758,38.750464]},"properties":{"NCESSCH":"100185000370","LEAID":"1001850","NAME":"Phillis Wheatley Elementary School","STATE":"DE","CITY":"Bridgeville","ZIP":"19933","CNTY":"10005","NMCNTY":"Sussex County","LOCALE":"32","SCHOOLYEAR":"2024-2025"}},{"type":"Feature","geometry":{"type":"Point","coordinates":[-75.164477,38.49427]},"properties":{"NCESSCH":"100185000401","LEAID":"1001850","NAME":"SCOPE - South","STATE":"DE","CITY":"Frankford","ZIP":"19945","CNTY":"10005","NMCNTY":"Sussex County","LOCALE":"41","SCHOOLYEAR":"2024-2025"}},{"type":"Feature","geometry":{"type":"Point","coordinates":[-75.595542,38.75957]},"properties":{"NCESSCH":"100185000402","LEAID":"1001850","NAME":"SCOPE - North","STATE":"DE","CITY":"Bridgeville","ZIP":"19933","CNTY":"10005","NMCNTY":"Sussex County","LOCALE":"41","SCHOOLYEAR":"2024-2025"}},{"type":"Feature","geometry":{"type":"Point","coordinates":[-75.409378,38.693698]},"properties":{"NCESSCH":"100185100403","LEAID":"1001851","NAME":"Bryan Allen Stevenson School of Excellence","STATE":"DE","CITY":"Georgetown","ZIP":"19947","CNTY":"10005","NMCNTY":"Sussex County","LOCALE":"32","SCHOOLYEAR":"2024-2025"}}]}