{"type":"FeatureCollection","features":[{"type":"Feature","geometry":{"type":"Point","coordinates":[-92.594917,47.518553]},"properties":{"NCESSCH":"270000101610","LEAID":"2700001","NAME":"MERRITT ELEMENTARY","STATE":"MN","CITY":"MOUNTAIN IRON","ZIP":"55768","CNTY":"27137","NMCNTY":"St. Louis County","LOCALE":"33","SCHOOLYEAR":"2024-2025"}},{"type":"Feature","geometry":{"type":"Point","coordinates":[-92.594917,47.518553]},"properties":{"NCESSCH":"270000101613","LEAID":"2700001","NAME":"MOUNTAIN IRON-BUHL SECONDARY","STATE":"MN","CITY":"MOUNTAIN IRON","ZIP":"55768","CNTY":"27137","NMCNTY":"St. Louis County","LOCALE":"33","SCHOOLYEAR":"2024-2025"}},{"type":"Feature","geometry":{"type":"Point","coordinates":[-93.735299,43.73399]},"properties":{"NCESSCH":"270000501769","LEAID":"2700005","NAME":"UNITED SOUTH CENTRAL ELEMENTARY","STATE":"MN","CITY":"WELLS","ZIP":"56097","CNTY":"27043","NMCNTY":"Faribault County","LOCALE":"43","SCHOOLYEAR":"2024-2025"}},{"type":"Feature","geometry":{"type":"Point","coordinates":[-93.735299,43.73399]},"properties":{"NCESSCH":"270000501770","LEAID":"2700005","NAME":"UNITED SOUTH CENTRAL HIGH SCHOOL","STATE":"MN","CITY":"WELLS","ZIP":"56097","CNTY":"27043","NMCNTY":"Faribault County","LOCALE":"43","SCHOOLYEAR":"2024-2025"}},{"type":"Feature","geometry":{"type":"Point","coordinates":[-93.956238,43.91824]},"properties":{"NCESSCH":"270000600888","LEAID":"2700006","NAME":"Maple River Secondary","STATE":"MN","CITY":"MAPLETON","ZIP":"56065","CNTY":"27013","NMCNTY":"Blue Earth County","LOCALE":"42","SCHOOLYEAR":"2024-2025"}},{"type":"Feature","geometry":{"type":"Point","coordinates":[-93.956238,43.91824]},"properties":{"NCESSCH":"270000605542","LEAID":"2700006","NAME":"Maple River Elementary","STATE":"MN","CITY":"MAPLETON","ZIP":"56065","CNTY":"27013","NMCNTY":"Blue Earth County","LOCALE":"42","SCHOOLYEAR":"2024-2025"}},{"type":"Feature","geometry":{"type":"Point","coordinates":[-93.956238,43.91824]},"properties":{"NCESSCH":"270000612811","LEAID":"2700006","NAME":"ECSE","STATE":"MN","CITY":"MAPLETON","ZIP":"56065","CNTY":"27013","NMCNTY":"Blue Earth County","LOCALE":"42","SCHOOLYEAR":"2024-2025"}},{"type":"Feature","geometry":{"type":"Point","coordinates":[-92.388267,43.697062]},"properties":{"NCESSCH":"270000701468","LEAID":"2700007","NAME":"Kingsland Elementary School","STATE":"MN","CITY":"SPRING VALLEY","ZIP":"55975","CNTY":"27045","NMCNTY":"Fillmore County","LOCALE":"42","SCHOOLYEAR":"2024-2025"}},{"type":"Feature","geometry":{"type":"Point","coordinates":[-92.388267,43.697062]},"properties":{"NCESSCH":"270000701469","LEAID":"2700007","NAME":"Kingsland Junior/Senior High School","STATE":"MN","CITY":"SPRING VALLEY","ZIP":"55975","CNTY":"27045","NMCNTY":"Fillmore County","LOCALE":"42","SCHOOLYEAR":"2024-2025"}},{"type":"Feature","geometry":{"type":"Point","coordinates":[-91.951335,47.707918]},"properties":{"NCESSCH":"270000800158","LEAID":"2700008","NAME":"BABBITT ELEMENTARY","STATE":"MN","CITY":"BABBITT","ZIP":"55706","CNTY":"27137","NMCNTY":"St. Louis County","LOCALE":"43","SCHOOLYEAR":"2024-2025"}},{"type":"Feature","geometry":{"type":"Point","coordinates":[-91.951335,47.707918]},"properties":{"NCESSCH":"270000800159","LEAID":"2700008","NAME":"NORTHEAST RANGE SECONDARY","STATE":"MN","CITY":"BABBITT","ZIP":"55706","CNTY":"27137","NMCNTY":"St. Louis County","LOCALE":"43","SCHOOLYEAR":"2024-2025"}},{"type":"Feature","geometry":{"type":"Point","coordinates":[-92.70894,47.403799]},"properties":{"NCESSCH":"270000801513","LEAID":"2700008","NAME":"CHERRY ELEMENTARY","STATE":"MN","CITY":"IRON","ZIP":"55751","CNTY":"27137","NMCNTY":"St. Louis County","LOCALE":"42","SCHOOLYEAR":"2024-2025"}},{"type":"Feature","geometry":{"type":"Point","coordinates":[-92.70894,47.403799]},"properties":{"NCESSCH":"270000801514","LEAID":"2700008","NAME":"CHERRY SECONDARY","STATE":"MN","CITY":"IRON","ZIP":"55751","CNTY":"27137","NMCNTY":"St. Louis County","LOCALE":"42","SCHOOLYEAR":"2024-2025"}},{"type":"Feature","geometry":{"type":"Point","coordinates":[-92.273139,47.806835]},"properties":{"NCESSCH":"270000801684","LEAID":"2700008","NAME":"Tower-Soudan Elementary","STATE":"MN","CITY":"TOWER","ZIP":"55790","CNTY":"27137","NMCNTY":"St. Louis County","LOCALE":"43","SCHOOLYEAR":"2024-2025"}},{"type":"Feature","geometry":{"type":"Point","coordinates":[-92.774013,47.887636]},"properties":{"NCESSCH":"270000804456","LEAID":"2700008","NAME":"NORTH WOODS ELEMENTARY","STATE":"MN","CITY":"COOK","ZIP":"55723","CNTY":"27137","NMCNTY":"St. Louis County","LOCALE":"43","SCHOOLYEAR":"2024-2025"}},{"type":"Feature","geometry":{"type":"Point","coordinates":[-92.774013,47.887636]},"properties":{"NCESSCH":"270000804459","LEAID":"2700008","NAME":"NORTH WOODS SECONDARY","STATE":"MN","CITY":"COOK","ZIP":"55723","CNTY":"27137","NMCNTY":"St. Louis County","LOCALE":"43","SCHOOLYEAR":"2024-2025"}},{"type":"Feature","geometry":{"type":"Point","coordinates":[-92.545994,46.96582]},"properties":{"NCESSCH":"270000804509","LEAID":"2700008","NAME":"SOUTH RIDGE ELEMENTARY","STATE":"MN","CITY":"CULVER","ZIP":"55779","CNTY":"27137","NMCNTY":"St. Louis County","LOCALE":"42","SCHOOLYEAR":"2024-2025"}},{"type":"Feature","geometry":{"type":"Point","coordinates":[-92.545994,46.96582]},"properties":{"NCESSCH":"270000804544","LEAID":"2700008","NAME":"SOUTH RIDGE SECONDARY","STATE":"MN","CITY":"CULVER","ZIP":"55779","CNTY":"27137","NMCNTY":"St. Louis County","LOCALE":"42","SCHOOLYEAR":"2024-2025"}},{"type":"Feature","geometry":{"type":"Point","coordinates":[-93.443002,44.224706]},"properties":{"NCESSCH":"270001301103","LEAID":"2700013","NAME":"MORRISTOWN ELEMENTARY","STATE":"MN","CITY":"MORRISTOWN","ZIP":"55052","CNTY":"27131","NMCNTY":"Rice County","LOCALE":"42","SCHOOLYEAR":"2024-2025"}},{"type":"Feature","geometry":{"type":"Point","coordinates":[-93.443002,44.224706]},"properties":{"NCESSCH":"270001301104","LEAID":"2700013","NAME":"WATERVILLE-ELYSIAN-MORRISTOWN JR.","STATE":"MN","CITY":"MORRISTOWN","ZIP":"55052","CNTY":"27131","NMCNTY":"Rice County","LOCALE":"42","SCHOOLYEAR":"2024-2025"}},{"type":"Feature","geometry":{"type":"Point","coordinates":[-93.562391,44.217341]},"properties":{"NCESSCH":"270001301752","LEAID":"2700013","NAME":"WATERVILLE ELEMENTARY","STATE":"MN","CITY":"WATERVILLE","ZIP":"56096","CNTY":"27079","NMCNTY":"Le Sueur County","LOCALE":"42","SCHOOLYEAR":"2024-2025"}},{"type":"Feature","geometry":{"type":"Point","coordinates":[-93.562391,44.217341]},"properties":{"NCESSCH":"270001301753","LEAID":"2700013","NAME":"WATERVILLE-ELYSIAN-MORRISTOWN SR.","STATE":"MN","CITY":"WATERVILLE","ZIP":"56096","CNTY":"27079","NMCNTY":"Le Sueur County","LOCALE":"42","SCHOOLYEAR":"2024-2025"}},{"type":"Feature","geometry":{"type":"Point","coordinates":[-95.131745,46.420591]},"properties":{"NCESSCH":"270001402222","LEAID":"2700014","NAME":"Freshwater Education District ALC","STATE":"MN","CITY":"WADENA","ZIP":"56482","CNTY":"27159","NMCNTY":"Wadena County","LOCALE":"41","SCHOOLYEAR":"2024-2025"}},{"type":"Feature","geometry":{"type":"Point","coordinates":[-95.131745,46.420591]},"properties":{"NCESSCH":"270001403297","LEAID":"2700014","NAME":"White Pine Academy","STATE":"MN","CITY":"WADENA","ZIP":"56482","CNTY":"27159","NMCNTY":"Wadena County","LOCALE":"41","SCHOOLYEAR":"2024-2025"}},{"type":"Feature","geometry":{"type":"Point","coordinates":[-95.131745,46.420591]},"properties":{"NCESSCH":"270001403670","LEAID":"2700014","NAME":"EARLY CHILDHOOD SPECIAL EDUCATION","STATE":"MN","CITY":"WADENA","ZIP":"56482","CNTY":"27159","NMCNTY":"Wadena County","LOCALE":"41","SCHOOLYEAR":"2024-2025"}},{"type":"Feature","geometry":{"type":"Point","coordinates":[-95.131745,46.420591]},"properties":{"NCESSCH":"270001403675","LEAID":"2700014","NAME":"LEAF RIVER ACADEMY","STATE":"MN","CITY":"WADENA","ZIP":"56482","CNTY":"27159","NMCNTY":"Wadena County","LOCALE":"41","SCHOOLYEAR":"2024-2025"}},{"type":"Feature","geometry":{"type":"Point","coordinates":[-95.131745,46.420591]},"properties":{"NCESSCH":"270001404821","LEAID":"2700014","NAME":"Elm Tree Academy","STATE":"MN","CITY":"WADENA","ZIP":"56482","CNTY":"27159","NMCNTY":"Wadena County","LOCALE":"41","SCHOOLYEAR":"2024-2025"}},{"type":"Feature","geometry":{"type":"Point","coordinates":[-95.095086,46.75201]},"properties":{"NCESSCH":"270001412990","LEAID":"2700014","NAME":"Freshwater Menahga ALC","STATE":"MN","CITY":"MENAHGA","ZIP":"56464","CNTY":"27159","NMCNTY":"Wadena County","LOCALE":"43","SCHOOLYEAR":"2024-2025"}},{"type":"Feature","geometry":{"type":"Point","coordinates":[-94.798332,46.389222]},"properties":{"NCESSCH":"270001412991","LEAID":"2700014","NAME":"Freshwater Staples ALC","STATE":"MN","CITY":"STAPLES","ZIP":"56479","CNTY":"27159","NMCNTY":"Wadena County","LOCALE":"43","SCHOOLYEAR":"2024-2025"}},{"type":"Feature","geometry":{"type":"Point","coordinates":[-95.130808,46.44651]},"properties":{"NCESSCH":"270001412992","LEAID":"2700014","NAME":"Freshwater Wadena ALC","STATE":"MN","CITY":"WADENA","ZIP":"56482","CNTY":"27159","NMCNTY":"Wadena County","LOCALE":"33","SCHOOLYEAR":"2024-2025"}},{"type":"Feature","geometry":{"type":"Point","coordinates":[-94.863504,45.970478]},"properties":{"NCESSCH":"270001412993","LEAID":"2700014","NAME":"Freshwater Long Prairie ALC","STATE":"MN","CITY":"LONG PRAIRIE","ZIP":"56347","CNTY":"27153","NMCNTY":"Todd County","LOCALE":"43","SCHOOLYEAR":"2024-2025"}},{"type":"Feature","geometry":{"type":"Point","coordinates":[-94.470999,46.327487]},"properties":{"NCESSCH":"270001412994","LEAID":"2700014","NAME":"Freshwater Pillager ALC","STATE":"MN","CITY":"PILLAGER","ZIP":"56473","CNTY":"27021","NMCNTY":"Cass County","LOCALE":"42","SCHOOLYEAR":"2024-2025"}},{"type":"Feature","geometry":{"type":"Point","coordinates":[-94.871851,46.085785]},"properties":{"NCESSCH":"270001413020","LEAID":"2700014","NAME":"F.E.D. Browerville Credit Recovery","STATE":"MN","CITY":"BROWERVILLE","ZIP":"56438","CNTY":"27153","NMCNTY":"Todd County","LOCALE":"43","SCHOOLYEAR":"2024-2025"}},{"type":"Feature","geometry":{"type":"Point","coordinates":[-94.7967,46.3586]},"properties":{"NCESSCH":"270001413021","LEAID":"2700014","NAME":"FED Staples-Motley Credit Recovery","STATE":"MN","CITY":"STAPLES","ZIP":"56479","CNTY":"27153","NMCNTY":"Todd County","LOCALE":"43","SCHOOLYEAR":"2024-2025"}},{"type":"Feature","geometry":{"type":"Point","coordinates":[-95.062093,46.263877]},"properties":{"NCESSCH":"270001413022","LEAID":"2700014","NAME":"FED Bertha-Hewitt Credit Recovery","STATE":"MN","CITY":"BERTHA","ZIP":"56437","CNTY":"27153","NMCNTY":"Todd County","LOCALE":"43","SCHOOLYEAR":"2024-2025"}},{"type":"Feature","geometry":{"type":"Point","coordinates":[-93.711346,46.533886]},"properties":{"NCESSCH":"270001413023","LEAID":"2700014","NAME":"F.E.D. Aitkin Credit Recovery","STATE":"MN","CITY":"AITKIN","ZIP":"56431","CNTY":"27001","NMCNTY":"Aitkin County","LOCALE":"43","SCHOOLYEAR":"2024-2025"}},{"type":"Feature","geometry":{"type":"Point","coordinates":[-94.470999,46.327487]},"properties":{"NCESSCH":"270001413024","LEAID":"2700014","NAME":"F.E.D. Pillager Credit Recovery","STATE":"MN","CITY":"PILLAGER","ZIP":"56473","CNTY":"27021","NMCNTY":"Cass County","LOCALE":"42","SCHOOLYEAR":"2024-2025"}},{"type":"Feature","geometry":{"type":"Point","coordinates":[-94.317002,46.600147]},"properties":{"NCESSCH":"270001413025","LEAID":"2700014","NAME":"F.E.D. Pequot Lakes Credit Recovery","STATE":"MN","CITY":"PEQUOT LAKES","ZIP":"56472","CNTY":"27035","NMCNTY":"Crow Wing County","LOCALE":"43","SCHOOLYEAR":"2024-2025"}},{"type":"Feature","geometry":{"type":"Point","coordinates":[-94.096919,45.978991]},"properties":{"NCESSCH":"270001413026","LEAID":"2700014","NAME":"F.E.D. Pierz Credit Recovery","STATE":"MN","CITY":"PIERZ","ZIP":"56364","CNTY":"27097","NMCNTY":"Morrison County","LOCALE":"42","SCHOOLYEAR":"2024-2025"}},{"type":"Feature","geometry":{"type":"Point","coordinates":[-95.871336,46.281998]},"properties":{"NCESSCH":"270001413027","LEAID":"2700014","NAME":"F.E.D. Underwood Credit Recovery","STATE":"MN","CITY":"UNDERWOOD","ZIP":"56586","CNTY":"27111","NMCNTY":"Otter Tail County","LOCALE":"42","SCHOOLYEAR":"2024-2025"}},{"type":"Feature","geometry":{"type":"Point","coordinates":[-96.264528,47.26132]},"properties":{"NCESSCH":"270001413028","LEAID":"2700014","NAME":"FED Norman County East Credit Rec","STATE":"MN","CITY":"TWIN VALLEY","ZIP":"56584","CNTY":"27107","NMCNTY":"Norman County","LOCALE":"43","SCHOOLYEAR":"2024-2025"}},{"type":"Feature","geometry":{"type":"Point","coordinates":[-94.282138,45.8287]},"properties":{"NCESSCH":"270001413029","LEAID":"2700014","NAME":"F.E.D. Royalton Credit Recovery","STATE":"MN","CITY":"ROYALTON","ZIP":"56373","CNTY":"27097","NMCNTY":"Morrison County","LOCALE":"42","SCHOOLYEAR":"2024-2025"}},{"type":"Feature","geometry":{"type":"Point","coordinates":[-95.328116,46.1497]},"properties":{"NCESSCH":"270001413083","LEAID":"2700014","NAME":"F.E.D. Parkers Prairie Credit Recov","STATE":"MN","CITY":"PARKERS PRAIRIE","ZIP":"56361","CNTY":"27111","NMCNTY":"Otter Tail County","LOCALE":"43","SCHOOLYEAR":"2024-2025"}},{"type":"Feature","geometry":{"type":"Point","coordinates":[-92.967283,45.50798]},"properties":{"NCESSCH":"270001505143","LEAID":"2700015","NAME":"Chisago County Schools' Life Work C","STATE":"MN","CITY":"NORTH BRANCH","ZIP":"55056","CNTY":"27025","NMCNTY":"Chisago County","LOCALE":"41","SCHOOLYEAR":"2024-2025"}},{"type":"Feature","geometry":{"type":"Point","coordinates":[-92.828068,45.390888]},"properties":{"NCESSCH":"270001505144","LEAID":"2700015","NAME":"Skillbuilding Opportunities for Aca","STATE":"MN","CITY":"LINDSTROM","ZIP":"55045","CNTY":"27025","NMCNTY":"Chisago County","LOCALE":"32","SCHOOLYEAR":"2024-2025"}},{"type":"Feature","geometry":{"type":"Point","coordinates":[-92.971431,45.816382]},"properties":{"NCESSCH":"270001505145","LEAID":"2700015","NAME":"Vision","STATE":"MN","CITY":"PINE CITY","ZIP":"55063","CNTY":"27115","NMCNTY":"Pine County","LOCALE":"43","SCHOOLYEAR":"2024-2025"}},{"type":"Feature","geometry":{"type":"Point","coordinates":[-92.939777,46.016096]},"properties":{"NCESSCH":"270001505146","LEAID":"2700015","NAME":"Pine County Transition Program","STATE":"MN","CITY":"HINCKLEY","ZIP":"55037","CNTY":"27115","NMCNTY":"Pine County","LOCALE":"43","SCHOOLYEAR":"2024-2025"}},{"type":"Feature","geometry":{"type":"Point","coordinates":[-92.828068,45.390888]},"properties":{"NCESSCH":"270001505147","LEAID":"2700015","NAME":"Pathway to Change","STATE":"MN","CITY":"LINDSTROM","ZIP":"55045","CNTY":"27025","NMCNTY":"Chisago County","LOCALE":"32","SCHOOLYEAR":"2024-2025"}},{"type":"Feature","geometry":{"type":"Point","coordinates":[-95.364999,45.901839]},"properties":{"NCESSCH":"270001602224","LEAID":"2700016","NAME":"Runestone Alternative School","STATE":"MN","CITY":"ALEXANDRIA","ZIP":"56308","CNTY":"27041","NMCNTY":"Douglas County","LOCALE":"33","SCHOOLYEAR":"2024-2025"}},{"type":"Feature","geometry":{"type":"Point","coordinates":[-95.365,45.901778]},"properties":{"NCESSCH":"270001602751","LEAID":"2700016","NAME":"MIDDLE LEVEL LEARNING CENTER","STATE":"MN","CITY":"ALEXANDRIA","ZIP":"56308","CNTY":"27041","NMCNTY":"Douglas County","LOCALE":"33","SCHOOLYEAR":"2024-2025"}},{"type":"Feature","geometry":{"type":"Point","coordinates":[-92.828068,45.390888]},"properties":{"NCESSCH":"270001700351","LEAID":"2700017","NAME":"Chisago Lakes Middle","STATE":"MN","CITY":"LINDSTROM","ZIP":"55045","CNTY":"27025","NMCNTY":"Chisago County","LOCALE":"32","SCHOOLYEAR":"2024-2025"}},{"type":"Feature","geometry":{"type":"Point","coordinates":[-92.883133,45.359137]},"properties":{"NCESSCH":"270001700352","LEAID":"2700017","NAME":"Chisago Lakes El.","STATE":"MN","CITY":"CHISAGO CITY","ZIP":"55013","CNTY":"27025","NMCNTY":"Chisago County","LOCALE":"32","SCHOOLYEAR":"2024-2025"}},{"type":"Feature","geometry":{"type":"Point","coordinates":[-92.843695,45.37443]},"properties":{"NCESSCH":"270001700353","LEAID":"2700017","NAME":"Chisago Lakes Senior High","STATE":"MN","CITY":"LINDSTROM","ZIP":"55045","CNTY":"27025","NMCNTY":"Chisago County","LOCALE":"32","SCHOOLYEAR":"2024-2025"}},{"type":"Feature","geometry":{"type":"Point","coordinates":[-92.65581,45.407196]},"properties":{"NCESSCH":"270001701672","LEAID":"2700017","NAME":"Taylors Falls Elementary","STATE":"MN","CITY":"TAYLORS FALLS","ZIP":"55084","CNTY":"27025","NMCNTY":"Chisago County","LOCALE":"42","SCHOOLYEAR":"2024-2025"}},{"type":"Feature","geometry":{"type":"Point","coordinates":[-92.90295,45.376668]},"properties":{"NCESSCH":"270001701673","LEAID":"2700017","NAME":"Lakeside El.","STATE":"MN","CITY":"CHISAGO CITY","ZIP":"55013","CNTY":"27025","NMCNTY":"Chisago County","LOCALE":"41","SCHOOLYEAR":"2024-2025"}},{"type":"Feature","geometry":{"type":"Point","coordinates":[-92.883133,45.359137]},"properties":{"NCESSCH":"270001702855","LEAID":"2700017","NAME":"Chisago Lakes Family Center","STATE":"MN","CITY":"CHISAGO CITY","ZIP":"55013","CNTY":"27025","NMCNTY":"Chisago County","LOCALE":"32","SCHOOLYEAR":"2024-2025"}},{"type":"Feature","geometry":{"type":"Point","coordinates":[-92.843695,45.37443]},"properties":{"NCESSCH":"270001703889","LEAID":"2700017","NAME":"Chisago Lakes HS Alt Learning Prog","STATE":"MN","CITY":"LINDSTROM","ZIP":"55045","CNTY":"27025","NMCNTY":"Chisago County","LOCALE":"32","SCHOOLYEAR":"2024-2025"}},{"type":"Feature","geometry":{"type":"Point","coordinates":[-92.896198,45.377132]},"properties":{"NCESSCH":"270001705311","LEAID":"2700017","NAME":"Trio Wolf Creek Charter School","STATE":"MN","CITY":"CHISAGO CITY","ZIP":"55013","CNTY":"27025","NMCNTY":"Chisago County","LOCALE":"32","SCHOOLYEAR":"2024-2025"}},{"type":"Feature","geometry":{"type":"Point","coordinates":[-92.90295,45.376668]},"properties":{"NCESSCH":"270001712720","LEAID":"2700017","NAME":"Wildcat Academy Elementary School","STATE":"MN","CITY":"CHISAGO CITY","ZIP":"55013","CNTY":"27025","NMCNTY":"Chisago County","LOCALE":"41","SCHOOLYEAR":"2024-2025"}},{"type":"Feature","geometry":{"type":"Point","coordinates":[-92.90295,45.376668]},"properties":{"NCESSCH":"270001712721","LEAID":"2700017","NAME":"Wildcat Academy Middle School","STATE":"MN","CITY":"CHISAGO CITY","ZIP":"55013","CNTY":"27025","NMCNTY":"Chisago County","LOCALE":"41","SCHOOLYEAR":"2024-2025"}},{"type":"Feature","geometry":{"type":"Point","coordinates":[-92.90295,45.376668]},"properties":{"NCESSCH":"270001712722","LEAID":"2700017","NAME":"Wildcat Academy High School","STATE":"MN","CITY":"CHISAGO CITY","ZIP":"55013","CNTY":"27025","NMCNTY":"Chisago County","LOCALE":"41","SCHOOLYEAR":"2024-2025"}},{"type":"Feature","geometry":{"type":"Point","coordinates":[-95.455288,45.624899]},"properties":{"NCESSCH":"270001902298","LEAID":"2700019","NAME":"MINNEWASKA SECONDARY","STATE":"MN","CITY":"GLENWOOD","ZIP":"56334","CNTY":"27121","NMCNTY":"Pope County","LOCALE":"41","SCHOOLYEAR":"2024-2025"}},{"type":"Feature","geometry":{"type":"Point","coordinates":[-95.455288,45.624899]},"properties":{"NCESSCH":"270001903535","LEAID":"2700019","NAME":"Minnewaska Area Intermediate School","STATE":"MN","CITY":"GLENWOOD","ZIP":"56334","CNTY":"27121","NMCNTY":"Pope County","LOCALE":"41","SCHOOLYEAR":"2024-2025"}},{"type":"Feature","geometry":{"type":"Point","coordinates":[-95.383719,45.646144]},"properties":{"NCESSCH":"270001903536","LEAID":"2700019","NAME":"MINNEWASKA AREA ELEMENTARY","STATE":"MN","CITY":"GLENWOOD","ZIP":"56334","CNTY":"27121","NMCNTY":"Pope County","LOCALE":"33","SCHOOLYEAR":"2024-2025"}},{"type":"Feature","geometry":{"type":"Point","coordinates":[-95.455288,45.624899]},"properties":{"NCESSCH":"270001903537","LEAID":"2700019","NAME":"MINNEWASKA SECONDARY ALTERNATIVE PG","STATE":"MN","CITY":"GLENWOOD","ZIP":"56334","CNTY":"27121","NMCNTY":"Pope County","LOCALE":"41","SCHOOLYEAR":"2024-2025"}},{"type":"Feature","geometry":{"type":"Point","coordinates":[-95.383719,45.646144]},"properties":{"NCESSCH":"270001903538","LEAID":"2700019","NAME":"MINNEWASKA EARLY CHILDHOOD SP.ED.","STATE":"MN","CITY":"GLENWOOD","ZIP":"56334","CNTY":"27121","NMCNTY":"Pope County","LOCALE":"33","SCHOOLYEAR":"2024-2025"}},{"type":"Feature","geometry":{"type":"Point","coordinates":[-95.535951,45.612559]},"properties":{"NCESSCH":"270001903600","LEAID":"2700019","NAME":"Minnewaska Area WIN Academy","STATE":"MN","CITY":"STARBUCK","ZIP":"56381","CNTY":"27121","NMCNTY":"Pope County","LOCALE":"33","SCHOOLYEAR":"2024-2025"}},{"type":"Feature","geometry":{"type":"Point","coordinates":[-95.455288,45.624899]},"properties":{"NCESSCH":"270001904237","LEAID":"2700019","NAME":"MINNEWASKA AREA JUNIOR HIGH","STATE":"MN","CITY":"GLENWOOD","ZIP":"56334","CNTY":"27121","NMCNTY":"Pope County","LOCALE":"41","SCHOOLYEAR":"2024-2025"}},{"type":"Feature","geometry":{"type":"Point","coordinates":[-95.142576,46.440489]},"properties":{"NCESSCH":"270002200431","LEAID":"2700022","NAME":"WADENA-DEER CREEK ELEMENTARY","STATE":"MN","CITY":"WADENA","ZIP":"56482","CNTY":"27159","NMCNTY":"Wadena County","LOCALE":"33","SCHOOLYEAR":"2024-2025"}},{"type":"Feature","geometry":{"type":"Point","coordinates":[-95.147628,46.443006]},"properties":{"NCESSCH":"270002201733","LEAID":"2700022","NAME":"WADENA-DEER CREEK SENIOR HIGH","STATE":"MN","CITY":"WADENA","ZIP":"56482","CNTY":"27159","NMCNTY":"Wadena County","LOCALE":"33","SCHOOLYEAR":"2024-2025"}},{"type":"Feature","geometry":{"type":"Point","coordinates":[-95.147628,46.443006]},"properties":{"NCESSCH":"270002204587","LEAID":"2700022","NAME":"WADENA-DEER CREEK 5TH AND 6TH GRADE","STATE":"MN","CITY":"WADENA","ZIP":"56482","CNTY":"27159","NMCNTY":"Wadena County","LOCALE":"33","SCHOOLYEAR":"2024-2025"}},{"type":"Feature","geometry":{"type":"Point","coordinates":[-94.718852,44.743566]},"properties":{"NCESSCH":"270002300288","LEAID":"2700023","NAME":"Buffalo Lake-Hector-Stewart Element","STATE":"MN","CITY":"HECTOR","ZIP":"55342","CNTY":"27129","NMCNTY":"Renville County","LOCALE":"43","SCHOOLYEAR":"2024-2025"}},{"type":"Feature","geometry":{"type":"Point","coordinates":[-94.718852,44.743566]},"properties":{"NCESSCH":"270002300704","LEAID":"2700023","NAME":"Buffalo Lake-Hector-Stewart Seconda","STATE":"MN","CITY":"HECTOR","ZIP":"55342","CNTY":"27129","NMCNTY":"Renville County","LOCALE":"43","SCHOOLYEAR":"2024-2025"}},{"type":"Feature","geometry":{"type":"Point","coordinates":[-94.616586,44.737342]},"properties":{"NCESSCH":"270002312933","LEAID":"2700023","NAME":"Little Stangs Learning Center","STATE":"MN","CITY":"BUFFALO LAKE","ZIP":"55314","CNTY":"27129","NMCNTY":"Renville County","LOCALE":"43","SCHOOLYEAR":"2024-2025"}},{"type":"Feature","geometry":{"type":"Point","coordinates":[-96.76533,48.194421]},"properties":{"NCESSCH":"270002401742","LEAID":"2700024","NAME":"WARREN ELEMENTARY","STATE":"MN","CITY":"WARREN","ZIP":"56762","CNTY":"27089","NMCNTY":"Marshall County","LOCALE":"42","SCHOOLYEAR":"2024-2025"}},{"type":"Feature","geometry":{"type":"Point","coordinates":[-96.767447,48.194275]},"properties":{"NCESSCH":"270002401743","LEAID":"2700024","NAME":"WARREN-ALVARADO-OSLO SECONDARY","STATE":"MN","CITY":"WARREN","ZIP":"56762","CNTY":"27089","NMCNTY":"Marshall County","LOCALE":"42","SCHOOLYEAR":"2024-2025"}},{"type":"Feature","geometry":{"type":"Point","coordinates":[-93.450541,44.999728]},"properties":{"NCESSCH":"270002502584","LEAID":"2700025","NAME":"District Service Center","STATE":"MN","CITY":"PLYMOUTH","ZIP":"55441","CNTY":"27053","NMCNTY":"Hennepin County","LOCALE":"13","SCHOOLYEAR":"2024-2025"}},{"type":"Feature","geometry":{"type":"Point","coordinates":[-93.443679,44.835442]},"properties":{"NCESSCH":"270002502765","LEAID":"2700025","NAME":"CTC Pathways","STATE":"MN","CITY":"EDEN PRAIRIE","ZIP":"55347","CNTY":"27053","NMCNTY":"Hennepin County","LOCALE":"13","SCHOOLYEAR":"2024-2025"}},{"type":"Feature","geometry":{"type":"Point","coordinates":[-93.310844,44.868045]},"properties":{"NCESSCH":"270002502871","LEAID":"2700025","NAME":"South Education Center Academy","STATE":"MN","CITY":"RICHFIELD","ZIP":"55423","CNTY":"27053","NMCNTY":"Hennepin County","LOCALE":"21","SCHOOLYEAR":"2024-2025"}},{"type":"Feature","geometry":{"type":"Point","coordinates":[-93.412898,44.957781]},"properties":{"NCESSCH":"270002502875","LEAID":"2700025","NAME":"270 Hopkins Alternative","STATE":"MN","CITY":"MINNETONKA","ZIP":"55305","CNTY":"27053","NMCNTY":"Hennepin County","LOCALE":"13","SCHOOLYEAR":"2024-2025"}},{"type":"Feature","geometry":{"type":"Point","coordinates":[-93.492887,44.872023]},"properties":{"NCESSCH":"270002503242","LEAID":"2700025","NAME":"ALC Eden Prairie HS-IS","STATE":"MN","CITY":"EDEN PRAIRIE","ZIP":"55346","CNTY":"27053","NMCNTY":"Hennepin County","LOCALE":"13","SCHOOLYEAR":"2024-2025"}},{"type":"Feature","geometry":{"type":"Point","coordinates":[-93.285176,44.875412]},"properties":{"NCESSCH":"270002503245","LEAID":"2700025","NAME":"ALC Richfield HS-IS","STATE":"MN","CITY":"RICHFIELD","ZIP":"55423","CNTY":"27053","NMCNTY":"Hennepin County","LOCALE":"21","SCHOOLYEAR":"2024-2025"}},{"type":"Feature","geometry":{"type":"Point","coordinates":[-93.310844,44.868045]},"properties":{"NCESSCH":"270002503253","LEAID":"2700025","NAME":"SECA - IS","STATE":"MN","CITY":"RICHFIELD","ZIP":"55423","CNTY":"27053","NMCNTY":"Hennepin County","LOCALE":"21","SCHOOLYEAR":"2024-2025"}},{"type":"Feature","geometry":{"type":"Point","coordinates":[-93.285176,44.875412]},"properties":{"NCESSCH":"270002503255","LEAID":"2700025","NAME":"ALC Richefield - Success at 15","STATE":"MN","CITY":"RICHFIELD","ZIP":"55423","CNTY":"27053","NMCNTY":"Hennepin County","LOCALE":"21","SCHOOLYEAR":"2024-2025"}},{"type":"Feature","geometry":{"type":"Point","coordinates":[-93.449255,44.933065]},"properties":{"NCESSCH":"270002503396","LEAID":"2700025","NAME":"270 Hopkins West Jr High ALC","STATE":"MN","CITY":"MINNETONKA","ZIP":"55305","CNTY":"27053","NMCNTY":"Hennepin County","LOCALE":"13","SCHOOLYEAR":"2024-2025"}},{"type":"Feature","geometry":{"type":"Point","coordinates":[-93.413825,44.954409]},"properties":{"NCESSCH":"270002503397","LEAID":"2700025","NAME":"270 Hopkins North Jr High ALC","STATE":"MN","CITY":"MINNETONKA","ZIP":"55305","CNTY":"27053","NMCNTY":"Hennepin County","LOCALE":"13","SCHOOLYEAR":"2024-2025"}},{"type":"Feature","geometry":{"type":"Point","coordinates":[-93.421159,44.963752]},"properties":{"NCESSCH":"270002503549","LEAID":"2700025","NAME":"School #522","STATE":"MN","CITY":"MINNETONKA","ZIP":"55305","CNTY":"27053","NMCNTY":"Hennepin County","LOCALE":"13","SCHOOLYEAR":"2024-2025"}},{"type":"Feature","geometry":{"type":"Point","coordinates":[-93.672008,44.954911]},"properties":{"NCESSCH":"270002503554","LEAID":"2700025","NAME":"277 Westonka Area Learning Academy","STATE":"MN","CITY":"MINNETRISTA","ZIP":"55364","CNTY":"27053","NMCNTY":"Hennepin County","LOCALE":"41","SCHOOLYEAR":"2024-2025"}},{"type":"Feature","geometry":{"type":"Point","coordinates":[-93.670102,44.955256]},"properties":{"NCESSCH":"270002503555","LEAID":"2700025","NAME":"ALC Westonka - IS","STATE":"MN","CITY":"MINNETRISTA","ZIP":"55364","CNTY":"27053","NMCNTY":"Hennepin County","LOCALE":"41","SCHOOLYEAR":"2024-2025"}},{"type":"Feature","geometry":{"type":"Point","coordinates":[-93.361287,44.943053]},"properties":{"NCESSCH":"270002503561","LEAID":"2700025","NAME":"283-St. Louis Park ALC","STATE":"MN","CITY":"SAINT LOUIS PARK","ZIP":"55426","CNTY":"27053","NMCNTY":"Hennepin County","LOCALE":"13","SCHOOLYEAR":"2024-2025"}},{"type":"Feature","geometry":{"type":"Point","coordinates":[-93.361287,44.943053]},"properties":{"NCESSCH":"270002503562","LEAID":"2700025","NAME":"283 St Louis Pk Independent Study","STATE":"MN","CITY":"SAINT LOUIS PARK","ZIP":"55426","CNTY":"27053","NMCNTY":"Hennepin County","LOCALE":"13","SCHOOLYEAR":"2024-2025"}},{"type":"Feature","geometry":{"type":"Point","coordinates":[-93.492887,44.872023]},"properties":{"NCESSCH":"270002503594","LEAID":"2700025","NAME":"ALC - Eden Prairie HS - IS EY","STATE":"MN","CITY":"EDEN PRAIRIE","ZIP":"55346","CNTY":"27053","NMCNTY":"Hennepin County","LOCALE":"13","SCHOOLYEAR":"2024-2025"}},{"type":"Feature","geometry":{"type":"Point","coordinates":[-93.450541,44.999728]},"properties":{"NCESSCH":"270002503597","LEAID":"2700025","NAME":"District 287 - ALC - IS","STATE":"MN","CITY":"PLYMOUTH","ZIP":"55441","CNTY":"27053","NMCNTY":"Hennepin County","LOCALE":"13","SCHOOLYEAR":"2024-2025"}},{"type":"Feature","geometry":{"type":"Point","coordinates":[-93.386604,45.053694]},"properties":{"NCESSCH":"270002503655","LEAID":"2700025","NAME":"North Education Center Academy","STATE":"MN","CITY":"NEW HOPE","ZIP":"55428","CNTY":"27053","NMCNTY":"Hennepin County","LOCALE":"21","SCHOOLYEAR":"2024-2025"}},{"type":"Feature","geometry":{"type":"Point","coordinates":[-93.595466,44.994644]},"properties":{"NCESSCH":"270002504078","LEAID":"2700025","NAME":"Orono HS IS","STATE":"MN","CITY":"LONG LAKE","ZIP":"55356","CNTY":"27053","NMCNTY":"Hennepin County","LOCALE":"41","SCHOOLYEAR":"2024-2025"}},{"type":"Feature","geometry":{"type":"Point","coordinates":[-93.450541,44.999728]},"properties":{"NCESSCH":"270002504190","LEAID":"2700025","NAME":"Northern Star Online","STATE":"MN","CITY":"PLYMOUTH","ZIP":"55441","CNTY":"27053","NMCNTY":"Hennepin County","LOCALE":"13","SCHOOLYEAR":"2024-2025"}},{"type":"Feature","geometry":{"type":"Point","coordinates":[-93.361287,44.943053]},"properties":{"NCESSCH":"270002504216","LEAID":"2700025","NAME":"283-Ind Stdy 15 and Under - I.S.","STATE":"MN","CITY":"SAINT LOUIS PARK","ZIP":"55426","CNTY":"27053","NMCNTY":"Hennepin County","LOCALE":"13","SCHOOLYEAR":"2024-2025"}},{"type":"Feature","geometry":{"type":"Point","coordinates":[-93.386604,45.053694]},"properties":{"NCESSCH":"270002504381","LEAID":"2700025","NAME":"NECA Independent Study","STATE":"MN","CITY":"NEW HOPE","ZIP":"55428","CNTY":"27053","NMCNTY":"Hennepin County","LOCALE":"21","SCHOOLYEAR":"2024-2025"}},{"type":"Feature","geometry":{"type":"Point","coordinates":[-93.421201,44.90117]},"properties":{"NCESSCH":"270002504416","LEAID":"2700025","NAME":"W-Alt-IS","STATE":"MN","CITY":"MINNETONKA","ZIP":"55343","CNTY":"27053","NMCNTY":"Hennepin County","LOCALE":"13","SCHOOLYEAR":"2024-2025"}},{"type":"Feature","geometry":{"type":"Point","coordinates":[-93.336605,44.86376]},"properties":{"NCESSCH":"270002504467","LEAID":"2700025","NAME":"School #532","STATE":"MN","CITY":"EDINA","ZIP":"55435","CNTY":"27053","NMCNTY":"Hennepin County","LOCALE":"13","SCHOOLYEAR":"2024-2025"}},{"type":"Feature","geometry":{"type":"Point","coordinates":[-93.429945,44.980281]},"properties":{"NCESSCH":"270002504471","LEAID":"2700025","NAME":"School #535","STATE":"MN","CITY":"PLYMOUTH","ZIP":"55441","CNTY":"27053","NMCNTY":"Hennepin County","LOCALE":"13","SCHOOLYEAR":"2024-2025"}},{"type":"Feature","geometry":{"type":"Point","coordinates":[-93.374598,45.066202]},"properties":{"NCESSCH":"270002504476","LEAID":"2700025","NAME":"4126 - Prairie Seeds Academy - IS","STATE":"MN","CITY":"BROOKLYN PARK","ZIP":"55428","CNTY":"27053","NMCNTY":"Hennepin County","LOCALE":"21","SCHOOLYEAR":"2024-2025"}},{"type":"Feature","geometry":{"type":"Point","coordinates":[-93.354233,45.125302]},"properties":{"NCESSCH":"270002504532","LEAID":"2700025","NAME":"School #531","STATE":"MN","CITY":"BROOKLYN PARK","ZIP":"55443","CNTY":"27053","NMCNTY":"Hennepin County","LOCALE":"21","SCHOOLYEAR":"2024-2025"}},{"type":"Feature","geometry":{"type":"Point","coordinates":[-93.412419,44.934131]},"properties":{"NCESSCH":"270002504533","LEAID":"2700025","NAME":"School #527","STATE":"MN","CITY":"HOPKINS","ZIP":"55305","CNTY":"27053","NMCNTY":"Hennepin County","LOCALE":"21","SCHOOLYEAR":"2024-2025"}},{"type":"Feature","geometry":{"type":"Point","coordinates":[-93.352158,45.126007]},"properties":{"NCESSCH":"270002504537","LEAID":"2700025","NAME":"School #530","STATE":"MN","CITY":"BROOKLYN PARK","ZIP":"55443","CNTY":"27053","NMCNTY":"Hennepin County","LOCALE":"21","SCHOOLYEAR":"2024-2025"}},{"type":"Feature","geometry":{"type":"Point","coordinates":[-93.412898,44.957781]},"properties":{"NCESSCH":"270002504573","LEAID":"2700025","NAME":"270 - HAP - IS","STATE":"MN","CITY":"MINNETONKA","ZIP":"55305","CNTY":"27053","NMCNTY":"Hennepin County","LOCALE":"13","SCHOOLYEAR":"2024-2025"}},{"type":"Feature","geometry":{"type":"Point","coordinates":[-93.421201,44.90117]},"properties":{"NCESSCH":"270002504603","LEAID":"2700025","NAME":"West Education Center Alternative","STATE":"MN","CITY":"MINNETONKA","ZIP":"55343","CNTY":"27053","NMCNTY":"Hennepin County","LOCALE":"13","SCHOOLYEAR":"2024-2025"}},{"type":"Feature","geometry":{"type":"Point","coordinates":[-93.443679,44.835442]},"properties":{"NCESSCH":"270002504618","LEAID":"2700025","NAME":"Hennepin Gateway To College","STATE":"MN","CITY":"EDEN PRAIRIE","ZIP":"55347","CNTY":"27053","NMCNTY":"Hennepin County","LOCALE":"13","SCHOOLYEAR":"2024-2025"}},{"type":"Feature","geometry":{"type":"Point","coordinates":[-93.418351,44.90035]},"properties":{"NCESSCH":"270002504823","LEAID":"2700025","NAME":"4122 - Eagle Ridge Academy - IS","STATE":"MN","CITY":"MINNETONKA","ZIP":"55343","CNTY":"27053","NMCNTY":"Hennepin County","LOCALE":"13","SCHOOLYEAR":"2024-2025"}},{"type":"Feature","geometry":{"type":"Point","coordinates":[-93.195463,44.962601]},"properties":{"NCESSCH":"270002504833","LEAID":"2700025","NAME":"MN Online High School - I.S.","STATE":"MN","CITY":"SAINT PAUL","ZIP":"55114","CNTY":"27123","NMCNTY":"Ramsey County","LOCALE":"11","SCHOOLYEAR":"2024-2025"}},{"type":"Feature","geometry":{"type":"Point","coordinates":[-93.443779,45.06765]},"properties":{"NCESSCH":"270002504880","LEAID":"2700025","NAME":"School #533","STATE":"MN","CITY":"MAPLE GROVE","ZIP":"55369","CNTY":"27053","NMCNTY":"Hennepin County","LOCALE":"21","SCHOOLYEAR":"2024-2025"}},{"type":"Feature","geometry":{"type":"Point","coordinates":[-93.443679,44.835442]},"properties":{"NCESSCH":"270002504887","LEAID":"2700025","NAME":"ALC - Gateway - EY","STATE":"MN","CITY":"EDEN PRAIRIE","ZIP":"55347","CNTY":"27053","NMCNTY":"Hennepin County","LOCALE":"13","SCHOOLYEAR":"2024-2025"}},{"type":"Feature","geometry":{"type":"Point","coordinates":[-93.421201,44.90117]},"properties":{"NCESSCH":"270002504901","LEAID":"2700025","NAME":"ALC - W-ALT - EY","STATE":"MN","CITY":"MINNETONKA","ZIP":"55343","CNTY":"27053","NMCNTY":"Hennepin County","LOCALE":"13","SCHOOLYEAR":"2024-2025"}},{"type":"Feature","geometry":{"type":"Point","coordinates":[-93.386604,45.053694]},"properties":{"NCESSCH":"270002504922","LEAID":"2700025","NAME":"ALC - NECA - EY","STATE":"MN","CITY":"NEW HOPE","ZIP":"55428","CNTY":"27053","NMCNTY":"Hennepin County","LOCALE":"21","SCHOOLYEAR":"2024-2025"}},{"type":"Feature","geometry":{"type":"Point","coordinates":[-93.310844,44.868045]},"properties":{"NCESSCH":"270002504957","LEAID":"2700025","NAME":"ALC - SECA - EY","STATE":"MN","CITY":"RICHFIELD","ZIP":"55423","CNTY":"27053","NMCNTY":"Hennepin County","LOCALE":"21","SCHOOLYEAR":"2024-2025"}},{"type":"Feature","geometry":{"type":"Point","coordinates":[-93.477845,44.991446]},"properties":{"NCESSCH":"270002505014","LEAID":"2700025","NAME":"School #519","STATE":"MN","CITY":"PLYMOUTH","ZIP":"55447","CNTY":"27053","NMCNTY":"Hennepin County","LOCALE":"13","SCHOOLYEAR":"2024-2025"}},{"type":"Feature","geometry":{"type":"Point","coordinates":[-93.454551,45.01137]},"properties":{"NCESSCH":"270002505056","LEAID":"2700025","NAME":"School #540","STATE":"MN","CITY":"PLYMOUTH","ZIP":"55441","CNTY":"27053","NMCNTY":"Hennepin County","LOCALE":"13","SCHOOLYEAR":"2024-2025"}},{"type":"Feature","geometry":{"type":"Point","coordinates":[-93.443679,44.835442]},"properties":{"NCESSCH":"270002505128","LEAID":"2700025","NAME":"Gateway to College - IS","STATE":"MN","CITY":"EDEN PRAIRIE","ZIP":"55347","CNTY":"27053","NMCNTY":"Hennepin County","LOCALE":"13","SCHOOLYEAR":"2024-2025"}},{"type":"Feature","geometry":{"type":"Point","coordinates":[-93.450541,44.999728]},"properties":{"NCESSCH":"270002505314","LEAID":"2700025","NAME":"Tier One","STATE":"MN","CITY":"PLYMOUTH","ZIP":"55441","CNTY":"27053","NMCNTY":"Hennepin County","LOCALE":"13","SCHOOLYEAR":"2024-2025"}},{"type":"Feature","geometry":{"type":"Point","coordinates":[-93.450541,44.999728]},"properties":{"NCESSCH":"270002505315","LEAID":"2700025","NAME":"Tier Two","STATE":"MN","CITY":"PLYMOUTH","ZIP":"55441","CNTY":"27053","NMCNTY":"Hennepin County","LOCALE":"13","SCHOOLYEAR":"2024-2025"}},{"type":"Feature","geometry":{"type":"Point","coordinates":[-93.450541,44.999728]},"properties":{"NCESSCH":"270002505316","LEAID":"2700025","NAME":"Tier Three","STATE":"MN","CITY":"PLYMOUTH","ZIP":"55441","CNTY":"27053","NMCNTY":"Hennepin County","LOCALE":"13","SCHOOLYEAR":"2024-2025"}},{"type":"Feature","geometry":{"type":"Point","coordinates":[-93.595466,44.994644]},"properties":{"NCESSCH":"270002505522","LEAID":"2700025","NAME":"Orono HS ALC","STATE":"MN","CITY":"LONG LAKE","ZIP":"55356","CNTY":"27053","NMCNTY":"Hennepin County","LOCALE":"41","SCHOOLYEAR":"2024-2025"}},{"type":"Feature","geometry":{"type":"Point","coordinates":[-93.492887,44.872023]},"properties":{"NCESSCH":"270002505524","LEAID":"2700025","NAME":"Eden Prairie HS ALC","STATE":"MN","CITY":"EDEN PRAIRIE","ZIP":"55346","CNTY":"27053","NMCNTY":"Hennepin County","LOCALE":"13","SCHOOLYEAR":"2024-2025"}},{"type":"Feature","geometry":{"type":"Point","coordinates":[-93.672008,44.954911]},"properties":{"NCESSCH":"270002505525","LEAID":"2700025","NAME":"Mound Westonka HS ALC","STATE":"MN","CITY":"MINNETRISTA","ZIP":"55364","CNTY":"27053","NMCNTY":"Hennepin County","LOCALE":"41","SCHOOLYEAR":"2024-2025"}},{"type":"Feature","geometry":{"type":"Point","coordinates":[-93.285176,44.875412]},"properties":{"NCESSCH":"270002505526","LEAID":"2700025","NAME":"Richfield HS ALC","STATE":"MN","CITY":"RICHFIELD","ZIP":"55423","CNTY":"27053","NMCNTY":"Hennepin County","LOCALE":"21","SCHOOLYEAR":"2024-2025"}},{"type":"Feature","geometry":{"type":"Point","coordinates":[-93.418351,44.90035]},"properties":{"NCESSCH":"270002512817","LEAID":"2700025","NAME":"4122 - Eagle Ridge Academy - ALC","STATE":"MN","CITY":"MINNETONKA","ZIP":"55343","CNTY":"27053","NMCNTY":"Hennepin County","LOCALE":"13","SCHOOLYEAR":"2024-2025"}},{"type":"Feature","geometry":{"type":"Point","coordinates":[-93.078065,44.737251]},"properties":{"NCESSCH":"270002602111","LEAID":"2700026","NAME":"917 TESA","STATE":"MN","CITY":"ROSEMOUNT","ZIP":"55068","CNTY":"27037","NMCNTY":"Dakota County","LOCALE":"41","SCHOOLYEAR":"2024-2025"}},{"type":"Feature","geometry":{"type":"Point","coordinates":[-93.11454,44.741403]},"properties":{"NCESSCH":"270002602121","LEAID":"2700026","NAME":"917 IDEA","STATE":"MN","CITY":"ROSEMOUNT","ZIP":"55068","CNTY":"27037","NMCNTY":"Dakota County","LOCALE":"21","SCHOOLYEAR":"2024-2025"}},{"type":"Feature","geometry":{"type":"Point","coordinates":[-93.045879,44.89557]},"properties":{"NCESSCH":"270002602124","LEAID":"2700026","NAME":"917 Deaf/Hard of Hearing","STATE":"MN","CITY":"SOUTH SAINT PAUL","ZIP":"55075","CNTY":"27037","NMCNTY":"Dakota County","LOCALE":"21","SCHOOLYEAR":"2024-2025"}},{"type":"Feature","geometry":{"type":"Point","coordinates":[-93.078065,44.737251]},"properties":{"NCESSCH":"270002602125","LEAID":"2700026","NAME":"917 PACES","STATE":"MN","CITY":"ROSEMOUNT","ZIP":"55068","CNTY":"27037","NMCNTY":"Dakota County","LOCALE":"41","SCHOOLYEAR":"2024-2025"}},{"type":"Feature","geometry":{"type":"Point","coordinates":[-93.078065,44.737251]},"properties":{"NCESSCH":"270002602155","LEAID":"2700026","NAME":"917 DCALS Main","STATE":"MN","CITY":"ROSEMOUNT","ZIP":"55068","CNTY":"27037","NMCNTY":"Dakota County","LOCALE":"41","SCHOOLYEAR":"2024-2025"}},{"type":"Feature","geometry":{"type":"Point","coordinates":[-92.888689,44.741501]},"properties":{"NCESSCH":"270002602600","LEAID":"2700026","NAME":"917 Riverside School","STATE":"MN","CITY":"HASTINGS","ZIP":"55033","CNTY":"27037","NMCNTY":"Dakota County","LOCALE":"31","SCHOOLYEAR":"2024-2025"}},{"type":"Feature","geometry":{"type":"Point","coordinates":[-93.078065,44.737251]},"properties":{"NCESSCH":"270002603897","LEAID":"2700026","NAME":"917 DASH","STATE":"MN","CITY":"ROSEMOUNT","ZIP":"55068","CNTY":"27037","NMCNTY":"Dakota County","LOCALE":"41","SCHOOLYEAR":"2024-2025"}},{"type":"Feature","geometry":{"type":"Point","coordinates":[-93.11454,44.741403]},"properties":{"NCESSCH":"270002604218","LEAID":"2700026","NAME":"917 SUN","STATE":"MN","CITY":"ROSEMOUNT","ZIP":"55068","CNTY":"27037","NMCNTY":"Dakota County","LOCALE":"21","SCHOOLYEAR":"2024-2025"}},{"type":"Feature","geometry":{"type":"Point","coordinates":[-93.077475,44.891051]},"properties":{"NCESSCH":"270002604250","LEAID":"2700026","NAME":"917 DCALS North","STATE":"MN","CITY":"WEST SAINT PAUL","ZIP":"55118","CNTY":"27037","NMCNTY":"Dakota County","LOCALE":"21","SCHOOLYEAR":"2024-2025"}},{"type":"Feature","geometry":{"type":"Point","coordinates":[-93.078065,44.737251]},"properties":{"NCESSCH":"270002604253","LEAID":"2700026","NAME":"917 DCALS Main Extended Day EDOP","STATE":"MN","CITY":"ROSEMOUNT","ZIP":"55068","CNTY":"27037","NMCNTY":"Dakota County","LOCALE":"41","SCHOOLYEAR":"2024-2025"}},{"type":"Feature","geometry":{"type":"Point","coordinates":[-93.077475,44.891051]},"properties":{"NCESSCH":"270002604256","LEAID":"2700026","NAME":"917 DCALS North Extended Day (EDOP)","STATE":"MN","CITY":"WEST SAINT PAUL","ZIP":"55118","CNTY":"27037","NMCNTY":"Dakota County","LOCALE":"21","SCHOOLYEAR":"2024-2025"}},{"type":"Feature","geometry":{"type":"Point","coordinates":[-93.182441,44.73344]},"properties":{"NCESSCH":"270002604371","LEAID":"2700026","NAME":"917 TEA","STATE":"MN","CITY":"APPLE VALLEY","ZIP":"55124","CNTY":"27037","NMCNTY":"Dakota County","LOCALE":"21","SCHOOLYEAR":"2024-2025"}},{"type":"Feature","geometry":{"type":"Point","coordinates":[-92.888689,44.741501]},"properties":{"NCESSCH":"270002604798","LEAID":"2700026","NAME":"917 New Chance","STATE":"MN","CITY":"HASTINGS","ZIP":"55033","CNTY":"27037","NMCNTY":"Dakota County","LOCALE":"31","SCHOOLYEAR":"2024-2025"}},{"type":"Feature","geometry":{"type":"Point","coordinates":[-93.11454,44.741403]},"properties":{"NCESSCH":"270002605108","LEAID":"2700026","NAME":"917 CASE","STATE":"MN","CITY":"ROSEMOUNT","ZIP":"55068","CNTY":"27037","NMCNTY":"Dakota County","LOCALE":"21","SCHOOLYEAR":"2024-2025"}},{"type":"Feature","geometry":{"type":"Point","coordinates":[-93.11454,44.741403]},"properties":{"NCESSCH":"270002612950","LEAID":"2700026","NAME":"CORE","STATE":"MN","CITY":"ROSEMOUNT","ZIP":"55068","CNTY":"27037","NMCNTY":"Dakota County","LOCALE":"21","SCHOOLYEAR":"2024-2025"}},{"type":"Feature","geometry":{"type":"Point","coordinates":[-93.147354,44.972283]},"properties":{"NCESSCH":"270002802341","LEAID":"2700028","NAME":"Metro Deaf School","STATE":"MN","CITY":"SAINT PAUL","ZIP":"55108","CNTY":"27123","NMCNTY":"Ramsey County","LOCALE":"11","SCHOOLYEAR":"2024-2025"}},{"type":"Feature","geometry":{"type":"Point","coordinates":[-94.873661,47.505297]},"properties":{"NCESSCH":"270003102344","LEAID":"2700031","NAME":"NORTH COUNTRY VOC. COOP. CTR.","STATE":"MN","CITY":"BEMIDJI","ZIP":"56601","CNTY":"27007","NMCNTY":"Beltrami County","LOCALE":"33","SCHOOLYEAR":"2024-2025"}},{"type":"Feature","geometry":{"type":"Point","coordinates":[-93.872706,45.191805]},"properties":{"NCESSCH":"270003602350","LEAID":"2700036","NAME":"Wright Technical Center","STATE":"MN","CITY":"BUFFALO","ZIP":"55313","CNTY":"27171","NMCNTY":"Wright County","LOCALE":"31","SCHOOLYEAR":"2024-2025"}},{"type":"Feature","geometry":{"type":"Point","coordinates":[-93.872706,45.191805]},"properties":{"NCESSCH":"270003602351","LEAID":"2700036","NAME":"Wright Technical Center ALC","STATE":"MN","CITY":"BUFFALO","ZIP":"55313","CNTY":"27171","NMCNTY":"Wright County","LOCALE":"31","SCHOOLYEAR":"2024-2025"}},{"type":"Feature","geometry":{"type":"Point","coordinates":[-93.872706,45.191805]},"properties":{"NCESSCH":"270003602956","LEAID":"2700036","NAME":"Wright Technical Center ALC Middle","STATE":"MN","CITY":"BUFFALO","ZIP":"55313","CNTY":"27171","NMCNTY":"Wright County","LOCALE":"31","SCHOOLYEAR":"2024-2025"}},{"type":"Feature","geometry":{"type":"Point","coordinates":[-96.274514,47.881855]},"properties":{"NCESSCH":"270003802353","LEAID":"2700038","NAME":"PINE TO PRAIRIE COOP. CTR.","STATE":"MN","CITY":"RED LAKE FALLS","ZIP":"56750","CNTY":"27125","NMCNTY":"Red Lake County","LOCALE":"43","SCHOOLYEAR":"2024-2025"}},{"type":"Feature","geometry":{"type":"Point","coordinates":[-96.331141,48.35688]},"properties":{"NCESSCH":"270003902354","LEAID":"2700039","NAME":"NW REGION INTERDISTRICT COUNCIL","STATE":"MN","CITY":"NEWFOLDEN","ZIP":"56738","CNTY":"27089","NMCNTY":"Marshall County","LOCALE":"43","SCHOOLYEAR":"2024-2025"}},{"type":"Feature","geometry":{"type":"Point","coordinates":[-96.319624,46.885107]},"properties":{"NCESSCH":"270004002355","LEAID":"2700040","NAME":"Lake Agassiz Education Cooperative","STATE":"MN","CITY":"HAWLEY","ZIP":"56549","CNTY":"27027","NMCNTY":"Clay County","LOCALE":"42","SCHOOLYEAR":"2024-2025"}},{"type":"Feature","geometry":{"type":"Point","coordinates":[-96.319624,46.885107]},"properties":{"NCESSCH":"270004003643","LEAID":"2700040","NAME":"INTENSIVE INTERAGENCY PROGRAM","STATE":"MN","CITY":"HAWLEY","ZIP":"56549","CNTY":"27027","NMCNTY":"Clay County","LOCALE":"42","SCHOOLYEAR":"2024-2025"}},{"type":"Feature","geometry":{"type":"Point","coordinates":[-96.319624,46.885107]},"properties":{"NCESSCH":"270004005080","LEAID":"2700040","NAME":"Glacial Ridge Transitional Skills P","STATE":"MN","CITY":"HAWLEY","ZIP":"56549","CNTY":"27027","NMCNTY":"Clay County","LOCALE":"42","SCHOOLYEAR":"2024-2025"}},{"type":"Feature","geometry":{"type":"Point","coordinates":[-95.899957,45.582889]},"properties":{"NCESSCH":"270004102356","LEAID":"2700041","NAME":"Midwest Special Education Co-op","STATE":"MN","CITY":"MORRIS","ZIP":"56267","CNTY":"27149","NMCNTY":"Stevens County","LOCALE":"41","SCHOOLYEAR":"2024-2025"}},{"type":"Feature","geometry":{"type":"Point","coordinates":[-96.091354,46.295091]},"properties":{"NCESSCH":"270004304266","LEAID":"2700043","NAME":"Early Childhood Special Education","STATE":"MN","CITY":"FERGUS FALLS","ZIP":"56537","CNTY":"27111","NMCNTY":"Otter Tail County","LOCALE":"41","SCHOOLYEAR":"2024-2025"}},{"type":"Feature","geometry":{"type":"Point","coordinates":[-96.067829,46.28849]},"properties":{"NCESSCH":"270004304289","LEAID":"2700043","NAME":"FERGUS FALLS EC/ELEMENTARY SP ED","STATE":"MN","CITY":"FERGUS FALLS","ZIP":"56537","CNTY":"27111","NMCNTY":"Otter Tail County","LOCALE":"33","SCHOOLYEAR":"2024-2025"}},{"type":"Feature","geometry":{"type":"Point","coordinates":[-96.091354,46.295091]},"properties":{"NCESSCH":"270004304316","LEAID":"2700043","NAME":"K-8 Special Education","STATE":"MN","CITY":"FERGUS FALLS","ZIP":"56537","CNTY":"27111","NMCNTY":"Otter Tail County","LOCALE":"41","SCHOOLYEAR":"2024-2025"}},{"type":"Feature","geometry":{"type":"Point","coordinates":[-93.872706,45.191805]},"properties":{"NCESSCH":"270004502732","LEAID":"2700045","NAME":"Eastern Wright Program","STATE":"MN","CITY":"BUFFALO","ZIP":"55313","CNTY":"27171","NMCNTY":"Wright County","LOCALE":"31","SCHOOLYEAR":"2024-2025"}},{"type":"Feature","geometry":{"type":"Point","coordinates":[-94.071295,45.058985]},"properties":{"NCESSCH":"270004502960","LEAID":"2700045","NAME":"Meeker-Wright Early Childhood Sp Ed","STATE":"MN","CITY":"HOWARD LAKE","ZIP":"55349","CNTY":"27171","NMCNTY":"Wright County","LOCALE":"42","SCHOOLYEAR":"2024-2025"}},{"type":"Feature","geometry":{"type":"Point","coordinates":[-93.872706,45.191805]},"properties":{"NCESSCH":"270004502961","LEAID":"2700045","NAME":"Cornerstones Program","STATE":"MN","CITY":"BUFFALO","ZIP":"55313","CNTY":"27171","NMCNTY":"Wright County","LOCALE":"31","SCHOOLYEAR":"2024-2025"}},{"type":"Feature","geometry":{"type":"Point","coordinates":[-94.167931,45.064645]},"properties":{"NCESSCH":"270004502964","LEAID":"2700045","NAME":"Village Ranch Alternative Program","STATE":"MN","CITY":"COKATO","ZIP":"55321","CNTY":"27171","NMCNTY":"Wright County","LOCALE":"42","SCHOOLYEAR":"2024-2025"}},{"type":"Feature","geometry":{"type":"Point","coordinates":[-94.501847,45.123256]},"properties":{"NCESSCH":"270004503890","LEAID":"2700045","NAME":"Wings Alternative Program","STATE":"MN","CITY":"LITCHFIELD","ZIP":"55355","CNTY":"27093","NMCNTY":"Meeker County","LOCALE":"32","SCHOOLYEAR":"2024-2025"}},{"type":"Feature","geometry":{"type":"Point","coordinates":[-94.071295,45.058985]},"properties":{"NCESSCH":"270004504318","LEAID":"2700045","NAME":"Step TD Program","STATE":"MN","CITY":"HOWARD LAKE","ZIP":"55349","CNTY":"27171","NMCNTY":"Wright County","LOCALE":"42","SCHOOLYEAR":"2024-2025"}},{"type":"Feature","geometry":{"type":"Point","coordinates":[-94.071295,45.058985]},"properties":{"NCESSCH":"270004504351","LEAID":"2700045","NAME":"Journeys Alternative Program","STATE":"MN","CITY":"HOWARD LAKE","ZIP":"55349","CNTY":"27171","NMCNTY":"Wright County","LOCALE":"42","SCHOOLYEAR":"2024-2025"}},{"type":"Feature","geometry":{"type":"Point","coordinates":[-94.071295,45.058985]},"properties":{"NCESSCH":"270004504402","LEAID":"2700045","NAME":"Trek Program","STATE":"MN","CITY":"HOWARD LAKE","ZIP":"55349","CNTY":"27171","NMCNTY":"Wright County","LOCALE":"42","SCHOOLYEAR":"2024-2025"}},{"type":"Feature","geometry":{"type":"Point","coordinates":[-94.10133,45.256636]},"properties":{"NCESSCH":"270004505005","LEAID":"2700045","NAME":"Sholund School for Girls","STATE":"MN","CITY":"ANNANDALE","ZIP":"55302","CNTY":"27171","NMCNTY":"Wright County","LOCALE":"42","SCHOOLYEAR":"2024-2025"}},{"type":"Feature","geometry":{"type":"Point","coordinates":[-94.460521,43.664749]},"properties":{"NCESSCH":"270004602365","LEAID":"2700046","NAME":"SOUTHERN PLAINS EDUCATION COOP.","STATE":"MN","CITY":"FAIRMONT","ZIP":"56031","CNTY":"27091","NMCNTY":"Martin County","LOCALE":"33","SCHOOLYEAR":"2024-2025"}},{"type":"Feature","geometry":{"type":"Point","coordinates":[-94.460521,43.664749]},"properties":{"NCESSCH":"270004602369","LEAID":"2700046","NAME":"SOUTHERN PLAINS AREA LEARNING CNTR.","STATE":"MN","CITY":"FAIRMONT","ZIP":"56031","CNTY":"27091","NMCNTY":"Martin County","LOCALE":"33","SCHOOLYEAR":"2024-2025"}},{"type":"Feature","geometry":{"type":"Point","coordinates":[-94.460521,43.664749]},"properties":{"NCESSCH":"270004603691","LEAID":"2700046","NAME":"POSITIVE APPROACH TO LEARNING","STATE":"MN","CITY":"FAIRMONT","ZIP":"56031","CNTY":"27091","NMCNTY":"Martin County","LOCALE":"33","SCHOOLYEAR":"2024-2025"}},{"type":"Feature","geometry":{"type":"Point","coordinates":[-94.460521,43.664749]},"properties":{"NCESSCH":"270004604627","LEAID":"2700046","NAME":"SOUTHERN PLAINS BRIDGES","STATE":"MN","CITY":"FAIRMONT","ZIP":"56031","CNTY":"27091","NMCNTY":"Martin County","LOCALE":"33","SCHOOLYEAR":"2024-2025"}},{"type":"Feature","geometry":{"type":"Point","coordinates":[-94.903668,47.470068]},"properties":{"NCESSCH":"270005102371","LEAID":"2700051","NAME":"BEMIDJI REGIONAL INTERDIST. COUNCIL","STATE":"MN","CITY":"BEMIDJI","ZIP":"56601","CNTY":"27007","NMCNTY":"Beltrami County","LOCALE":"33","SCHOOLYEAR":"2024-2025"}},{"type":"Feature","geometry":{"type":"Point","coordinates":[-92.747621,44.047823]},"properties":{"NCESSCH":"270005402376","LEAID":"2700054","NAME":"ZUMBRO EDUCATION DISTRICT","STATE":"MN","CITY":"KASSON","ZIP":"55944","CNTY":"27039","NMCNTY":"Dodge County","LOCALE":"41","SCHOOLYEAR":"2024-2025"}},{"type":"Feature","geometry":{"type":"Point","coordinates":[-92.747621,44.047823]},"properties":{"NCESSCH":"270005402492","LEAID":"2700054","NAME":"ZUMBRO AREA LEARNING CENTER","STATE":"MN","CITY":"KASSON","ZIP":"55944","CNTY":"27039","NMCNTY":"Dodge County","LOCALE":"41","SCHOOLYEAR":"2024-2025"}},{"type":"Feature","geometry":{"type":"Point","coordinates":[-92.747621,44.047823]},"properties":{"NCESSCH":"270005402500","LEAID":"2700054","NAME":"ZUMBRO ED. DIST. FUTURES/CHOICE","STATE":"MN","CITY":"KASSON","ZIP":"55944","CNTY":"27039","NMCNTY":"Dodge County","LOCALE":"41","SCHOOLYEAR":"2024-2025"}},{"type":"Feature","geometry":{"type":"Point","coordinates":[-92.747621,44.047823]},"properties":{"NCESSCH":"270005404383","LEAID":"2700054","NAME":"TRANSITION 2 SUCCESS","STATE":"MN","CITY":"KASSON","ZIP":"55944","CNTY":"27039","NMCNTY":"Dodge County","LOCALE":"41","SCHOOLYEAR":"2024-2025"}},{"type":"Feature","geometry":{"type":"Point","coordinates":[-91.609392,44.021343]},"properties":{"NCESSCH":"270005503149","LEAID":"2700055","NAME":"RIVER VALLEY ACADEMY ALC","STATE":"MN","CITY":"WINONA","ZIP":"55987","CNTY":"27169","NMCNTY":"Winona County","LOCALE":"32","SCHOOLYEAR":"2024-2025"}},{"type":"Feature","geometry":{"type":"Point","coordinates":[-91.609392,44.021343]},"properties":{"NCESSCH":"270005503650","LEAID":"2700055","NAME":"HVED ECSE","STATE":"MN","CITY":"WINONA","ZIP":"55987","CNTY":"27169","NMCNTY":"Winona County","LOCALE":"32","SCHOOLYEAR":"2024-2025"}},{"type":"Feature","geometry":{"type":"Point","coordinates":[-92.001839,44.309818]},"properties":{"NCESSCH":"270005504535","LEAID":"2700055","NAME":"SAIL PROGRAM","STATE":"MN","CITY":"KELLOGG","ZIP":"55945","CNTY":"27157","NMCNTY":"Wabasha County","LOCALE":"43","SCHOOLYEAR":"2024-2025"}},{"type":"Feature","geometry":{"type":"Point","coordinates":[-91.352097,43.757352]},"properties":{"NCESSCH":"270005504960","LEAID":"2700055","NAME":"HVED Spectrum Program","STATE":"MN","CITY":"HOKAH","ZIP":"55941","CNTY":"27055","NMCNTY":"Houston County","LOCALE":"41","SCHOOLYEAR":"2024-2025"}},{"type":"Feature","geometry":{"type":"Point","coordinates":[-95.709679,44.949359]},"properties":{"NCESSCH":"270005802245","LEAID":"2700058","NAME":"MN River Valley ALC-Seatbased","STATE":"MN","CITY":"MONTEVIDEO","ZIP":"56265","CNTY":"27023","NMCNTY":"Chippewa County","LOCALE":"33","SCHOOLYEAR":"2024-2025"}},{"type":"Feature","geometry":{"type":"Point","coordinates":[-95.709679,44.949359]},"properties":{"NCESSCH":"270005803298","LEAID":"2700058","NAME":"MN RIVER VALLEY ALC-SUMMER","STATE":"MN","CITY":"MONTEVIDEO","ZIP":"56265","CNTY":"27023","NMCNTY":"Chippewa County","LOCALE":"33","SCHOOLYEAR":"2024-2025"}},{"type":"Feature","geometry":{"type":"Point","coordinates":[-95.709652,44.949366]},"properties":{"NCESSCH":"270005804709","LEAID":"2700058","NAME":"MN River Valley Ed-Online Learning","STATE":"MN","CITY":"MONTEVIDEO","ZIP":"56265","CNTY":"27023","NMCNTY":"Chippewa County","LOCALE":"33","SCHOOLYEAR":"2024-2025"}},{"type":"Feature","geometry":{"type":"Point","coordinates":[-93.961876,44.343363]},"properties":{"NCESSCH":"270006302389","LEAID":"2700063","NAME":"Minnesota Valley School","STATE":"MN","CITY":"SAINT PETER","ZIP":"56082","CNTY":"27103","NMCNTY":"Nicollet County","LOCALE":"31","SCHOOLYEAR":"2024-2025"}},{"type":"Feature","geometry":{"type":"Point","coordinates":[-93.961876,44.343363]},"properties":{"NCESSCH":"270006302493","LEAID":"2700063","NAME":"MN VALLEY ED. DIST. EARLY CHILDHOOD","STATE":"MN","CITY":"SAINT PETER","ZIP":"56082","CNTY":"27103","NMCNTY":"Nicollet County","LOCALE":"31","SCHOOLYEAR":"2024-2025"}},{"type":"Feature","geometry":{"type":"Point","coordinates":[-93.961876,44.343363]},"properties":{"NCESSCH":"270006304710","LEAID":"2700063","NAME":"Minnesota River School","STATE":"MN","CITY":"SAINT PETER","ZIP":"56082","CNTY":"27103","NMCNTY":"Nicollet County","LOCALE":"31","SCHOOLYEAR":"2024-2025"}},{"type":"Feature","geometry":{"type":"Point","coordinates":[-94.160471,45.586965]},"properties":{"NCESSCH":"270007102403","LEAID":"2700071","NAME":"Benton-Stearns Education District","STATE":"MN","CITY":"SAUK RAPIDS","ZIP":"56379","CNTY":"27009","NMCNTY":"Benton County","LOCALE":"22","SCHOOLYEAR":"2024-2025"}},{"type":"Feature","geometry":{"type":"Point","coordinates":[-94.207848,45.622518]},"properties":{"NCESSCH":"270007104581","LEAID":"2700071","NAME":"Benton-Stearns Education - ASD","STATE":"MN","CITY":"SARTELL","ZIP":"56377","CNTY":"27145","NMCNTY":"Stearns County","LOCALE":"22","SCHOOLYEAR":"2024-2025"}},{"type":"Feature","geometry":{"type":"Point","coordinates":[-94.212196,45.615723]},"properties":{"NCESSCH":"270007104772","LEAID":"2700071","NAME":"Benton-Stearns Ed District EC","STATE":"MN","CITY":"SARTELL","ZIP":"56377","CNTY":"27145","NMCNTY":"Stearns County","LOCALE":"22","SCHOOLYEAR":"2024-2025"}},{"type":"Feature","geometry":{"type":"Point","coordinates":[-94.160471,45.586965]},"properties":{"NCESSCH":"270007104986","LEAID":"2700071","NAME":"Benton Stearns Education District 1","STATE":"MN","CITY":"SAUK RAPIDS","ZIP":"56379","CNTY":"27009","NMCNTY":"Benton County","LOCALE":"22","SCHOOLYEAR":"2024-2025"}},{"type":"Feature","geometry":{"type":"Point","coordinates":[-94.207848,45.622518]},"properties":{"NCESSCH":"270007105287","LEAID":"2700071","NAME":"Benton-Stearns Education Pioneers","STATE":"MN","CITY":"SARTELL","ZIP":"56377","CNTY":"27145","NMCNTY":"Stearns County","LOCALE":"22","SCHOOLYEAR":"2024-2025"}},{"type":"Feature","geometry":{"type":"Point","coordinates":[-94.41513,45.473814]},"properties":{"NCESSCH":"270007105448","LEAID":"2700071","NAME":"Grafton School","STATE":"MN","CITY":"COLD SPRING","ZIP":"56320","CNTY":"27145","NMCNTY":"Stearns County","LOCALE":"41","SCHOOLYEAR":"2024-2025"}},{"type":"Feature","geometry":{"type":"Point","coordinates":[-94.332166,45.98954]},"properties":{"NCESSCH":"270007303304","LEAID":"2700073","NAME":"SUN Program","STATE":"MN","CITY":"LITTLE FALLS","ZIP":"56345","CNTY":"27097","NMCNTY":"Morrison County","LOCALE":"41","SCHOOLYEAR":"2024-2025"}},{"type":"Feature","geometry":{"type":"Point","coordinates":[-94.332166,45.98954]},"properties":{"NCESSCH":"270007303305","LEAID":"2700073","NAME":"MID STATE ED DIST STEPS TRANS. PROG","STATE":"MN","CITY":"LITTLE FALLS","ZIP":"56345","CNTY":"27097","NMCNTY":"Morrison County","LOCALE":"41","SCHOOLYEAR":"2024-2025"}},{"type":"Feature","geometry":{"type":"Point","coordinates":[-94.332166,45.98954]},"properties":{"NCESSCH":"270007303604","LEAID":"2700073","NAME":"WIN-Elementary School","STATE":"MN","CITY":"LITTLE FALLS","ZIP":"56345","CNTY":"27097","NMCNTY":"Morrison County","LOCALE":"41","SCHOOLYEAR":"2024-2025"}},{"type":"Feature","geometry":{"type":"Point","coordinates":[-94.332166,45.98954]},"properties":{"NCESSCH":"270007304436","LEAID":"2700073","NAME":"WIN-High School","STATE":"MN","CITY":"LITTLE FALLS","ZIP":"56345","CNTY":"27097","NMCNTY":"Morrison County","LOCALE":"41","SCHOOLYEAR":"2024-2025"}},{"type":"Feature","geometry":{"type":"Point","coordinates":[-94.332166,45.98954]},"properties":{"NCESSCH":"270007304864","LEAID":"2700073","NAME":"MSED PAES Lab","STATE":"MN","CITY":"LITTLE FALLS","ZIP":"56345","CNTY":"27097","NMCNTY":"Morrison County","LOCALE":"41","SCHOOLYEAR":"2024-2025"}},{"type":"Feature","geometry":{"type":"Point","coordinates":[-94.332166,45.98954]},"properties":{"NCESSCH":"270007305111","LEAID":"2700073","NAME":"MSED Birth to 3","STATE":"MN","CITY":"LITTLE FALLS","ZIP":"56345","CNTY":"27097","NMCNTY":"Morrison County","LOCALE":"41","SCHOOLYEAR":"2024-2025"}},{"type":"Feature","geometry":{"type":"Point","coordinates":[-94.332166,45.98954]},"properties":{"NCESSCH":"270007305181","LEAID":"2700073","NAME":"WIN-Middle School","STATE":"MN","CITY":"LITTLE FALLS","ZIP":"56345","CNTY":"27097","NMCNTY":"Morrison County","LOCALE":"41","SCHOOLYEAR":"2024-2025"}},{"type":"Feature","geometry":{"type":"Point","coordinates":[-96.088126,46.302282]},"properties":{"NCESSCH":"270008305103","LEAID":"2700083","NAME":"Lakes Country Academy","STATE":"MN","CITY":"FERGUS FALLS","ZIP":"56537","CNTY":"27111","NMCNTY":"Otter Tail County","LOCALE":"33","SCHOOLYEAR":"2024-2025"}},{"type":"Feature","geometry":{"type":"Point","coordinates":[-95.390273,45.886076]},"properties":{"NCESSCH":"270008305104","LEAID":"2700083","NAME":"Lakes Country Academy - ALEX","STATE":"MN","CITY":"ALEXANDRIA","ZIP":"56308","CNTY":"27041","NMCNTY":"Douglas County","LOCALE":"33","SCHOOLYEAR":"2024-2025"}},{"type":"Feature","geometry":{"type":"Point","coordinates":[-92.594063,47.517613]},"properties":{"NCESSCH":"270008403592","LEAID":"2700084","NAME":"NORTHEAST SERVICE COOPERATIVE OLL","STATE":"MN","CITY":"MOUNTAIN IRON","ZIP":"55768","CNTY":"27137","NMCNTY":"St. Louis County","LOCALE":"33","SCHOOLYEAR":"2024-2025"}},{"type":"Feature","geometry":{"type":"Point","coordinates":[-95.121215,43.872134]},"properties":{"NCESSCH":"270008604168","LEAID":"2700086","NAME":"SWWC ELC - Windom","STATE":"MN","CITY":"WINDOM","ZIP":"56101","CNTY":"27033","NMCNTY":"Cottonwood County","LOCALE":"43","SCHOOLYEAR":"2024-2025"}},{"type":"Feature","geometry":{"type":"Point","coordinates":[-95.121215,43.872134]},"properties":{"NCESSCH":"270008604169","LEAID":"2700086","NAME":"SWWC ALC - Windom","STATE":"MN","CITY":"WINDOM","ZIP":"56101","CNTY":"27033","NMCNTY":"Cottonwood County","LOCALE":"43","SCHOOLYEAR":"2024-2025"}},{"type":"Feature","geometry":{"type":"Point","coordinates":[-94.700134,44.93982]},"properties":{"NCESSCH":"270008604215","LEAID":"2700086","NAME":"SWWC ELC - Cosmos","STATE":"MN","CITY":"COSMOS","ZIP":"56228","CNTY":"27093","NMCNTY":"Meeker County","LOCALE":"43","SCHOOLYEAR":"2024-2025"}},{"type":"Feature","geometry":{"type":"Point","coordinates":[-96.318595,44.021514]},"properties":{"NCESSCH":"270008604353","LEAID":"2700086","NAME":"SWWC ELC - Pipestone","STATE":"MN","CITY":"PIPESTONE","ZIP":"56164","CNTY":"27117","NMCNTY":"Pipestone County","LOCALE":"43","SCHOOLYEAR":"2024-2025"}},{"type":"Feature","geometry":{"type":"Point","coordinates":[-95.003072,45.446856]},"properties":{"NCESSCH":"270008604361","LEAID":"2700086","NAME":"BBE LEARNING CENTER","STATE":"MN","CITY":"BELGRADE","ZIP":"56312","CNTY":"27145","NMCNTY":"Stearns County","LOCALE":"42","SCHOOLYEAR":"2024-2025"}},{"type":"Feature","geometry":{"type":"Point","coordinates":[-95.760161,44.454722]},"properties":{"NCESSCH":"270008604438","LEAID":"2700086","NAME":"SWWC ELC - Marshall","STATE":"MN","CITY":"MARSHALL","ZIP":"56258","CNTY":"27083","NMCNTY":"Lyon County","LOCALE":"33","SCHOOLYEAR":"2024-2025"}},{"type":"Feature","geometry":{"type":"Point","coordinates":[-96.339896,43.997491]},"properties":{"NCESSCH":"270008604547","LEAID":"2700086","NAME":"PIPESTONE LEARNING CENTER","STATE":"MN","CITY":"PIPESTONE","ZIP":"56164","CNTY":"27117","NMCNTY":"Pipestone County","LOCALE":"43","SCHOOLYEAR":"2024-2025"}},{"type":"Feature","geometry":{"type":"Point","coordinates":[-95.777542,44.447776]},"properties":{"NCESSCH":"270008604723","LEAID":"2700086","NAME":"Project Search-Avera Marshall","STATE":"MN","CITY":"MARSHALL","ZIP":"56258","CNTY":"27083","NMCNTY":"Lyon County","LOCALE":"33","SCHOOLYEAR":"2024-2025"}},{"type":"Feature","geometry":{"type":"Point","coordinates":[-94.954754,45.293822]},"properties":{"NCESSCH":"270008604724","LEAID":"2700086","NAME":"SWWC ELC - New London","STATE":"MN","CITY":"NEW LONDON","ZIP":"56273","CNTY":"27067","NMCNTY":"Kandiyohi County","LOCALE":"41","SCHOOLYEAR":"2024-2025"}},{"type":"Feature","geometry":{"type":"Point","coordinates":[-95.322247,45.195109]},"properties":{"NCESSCH":"270008604725","LEAID":"2700086","NAME":"KMS Learning Center","STATE":"MN","CITY":"KERKHOVEN","ZIP":"56252","CNTY":"27151","NMCNTY":"Swift County","LOCALE":"43","SCHOOLYEAR":"2024-2025"}},{"type":"Feature","geometry":{"type":"Point","coordinates":[-95.121215,43.872134]},"properties":{"NCESSCH":"270008604895","LEAID":"2700086","NAME":"SWWC ALC Midlevel - Windom","STATE":"MN","CITY":"WINDOM","ZIP":"56101","CNTY":"27033","NMCNTY":"Cottonwood County","LOCALE":"43","SCHOOLYEAR":"2024-2025"}},{"type":"Feature","geometry":{"type":"Point","coordinates":[-96.141479,44.274639]},"properties":{"NCESSCH":"270008605037","LEAID":"2700086","NAME":"RTR ALC","STATE":"MN","CITY":"TYLER","ZIP":"56178","CNTY":"27081","NMCNTY":"Lincoln County","LOCALE":"43","SCHOOLYEAR":"2024-2025"}},{"type":"Feature","geometry":{"type":"Point","coordinates":[-95.119619,43.866946]},"properties":{"NCESSCH":"270008605093","LEAID":"2700086","NAME":"STARRS ONLINE ACADEMY","STATE":"MN","CITY":"WINDOM","ZIP":"56101","CNTY":"27033","NMCNTY":"Cottonwood County","LOCALE":"43","SCHOOLYEAR":"2024-2025"}},{"type":"Feature","geometry":{"type":"Point","coordinates":[-95.696041,44.951031]},"properties":{"NCESSCH":"270008605170","LEAID":"2700086","NAME":"SWWC ELC - Montevideo","STATE":"MN","CITY":"MONTEVIDEO","ZIP":"56265","CNTY":"27023","NMCNTY":"Chippewa County","LOCALE":"33","SCHOOLYEAR":"2024-2025"}},{"type":"Feature","geometry":{"type":"Point","coordinates":[-96.301407,43.993709]},"properties":{"NCESSCH":"270008605324","LEAID":"2700086","NAME":"SWWC ALC - Pipestone","STATE":"MN","CITY":"PIPESTONE","ZIP":"56164","CNTY":"27117","NMCNTY":"Pipestone County","LOCALE":"43","SCHOOLYEAR":"2024-2025"}},{"type":"Feature","geometry":{"type":"Point","coordinates":[-96.301407,43.993709]},"properties":{"NCESSCH":"270008605325","LEAID":"2700086","NAME":"SWWC ALC Midlevel - Pipestone","STATE":"MN","CITY":"PIPESTONE","ZIP":"56164","CNTY":"27117","NMCNTY":"Pipestone County","LOCALE":"43","SCHOOLYEAR":"2024-2025"}},{"type":"Feature","geometry":{"type":"Point","coordinates":[-95.121215,43.872134]},"properties":{"NCESSCH":"270008605450","LEAID":"2700086","NAME":"STARSS Online Academy Elementary","STATE":"MN","CITY":"WINDOM","ZIP":"56101","CNTY":"27033","NMCNTY":"Cottonwood County","LOCALE":"43","SCHOOLYEAR":"2024-2025"}},{"type":"Feature","geometry":{"type":"Point","coordinates":[-95.254208,44.405508]},"properties":{"NCESSCH":"270008605451","LEAID":"2700086","NAME":"Wabasso Learn Center Credit Recover","STATE":"MN","CITY":"WABASSO","ZIP":"56293","CNTY":"27127","NMCNTY":"Redwood County","LOCALE":"43","SCHOOLYEAR":"2024-2025"}},{"type":"Feature","geometry":{"type":"Point","coordinates":[-94.998795,43.625289]},"properties":{"NCESSCH":"270008605452","LEAID":"2700086","NAME":"Jackson Co Central Credit Recovery","STATE":"MN","CITY":"JACKSON","ZIP":"56143","CNTY":"27063","NMCNTY":"Jackson County","LOCALE":"43","SCHOOLYEAR":"2024-2025"}},{"type":"Feature","geometry":{"type":"Point","coordinates":[-95.130756,43.875982]},"properties":{"NCESSCH":"270008605453","LEAID":"2700086","NAME":"Windom Learn Center Credit Recovery","STATE":"MN","CITY":"WINDOM","ZIP":"56101","CNTY":"27033","NMCNTY":"Cottonwood County","LOCALE":"43","SCHOOLYEAR":"2024-2025"}},{"type":"Feature","geometry":{"type":"Point","coordinates":[-95.936661,43.63245]},"properties":{"NCESSCH":"270008605455","LEAID":"2700086","NAME":"Adrian Credit Recovery","STATE":"MN","CITY":"ADRIAN","ZIP":"56110","CNTY":"27105","NMCNTY":"Nobles County","LOCALE":"43","SCHOOLYEAR":"2024-2025"}},{"type":"Feature","geometry":{"type":"Point","coordinates":[-95.893701,44.38595]},"properties":{"NCESSCH":"270008605456","LEAID":"2700086","NAME":"Lynd Learning Center Credit Recover","STATE":"MN","CITY":"LYND","ZIP":"56157","CNTY":"27083","NMCNTY":"Lyon County","LOCALE":"42","SCHOOLYEAR":"2024-2025"}},{"type":"Feature","geometry":{"type":"Point","coordinates":[-96.422138,44.506475]},"properties":{"NCESSCH":"270008605457","LEAID":"2700086","NAME":"Hendricks Learning Center - Credit","STATE":"MN","CITY":"HENDRICKS","ZIP":"56136","CNTY":"27081","NMCNTY":"Lincoln County","LOCALE":"43","SCHOOLYEAR":"2024-2025"}},{"type":"Feature","geometry":{"type":"Point","coordinates":[-94.152891,44.782943]},"properties":{"NCESSCH":"270008605559","LEAID":"2700086","NAME":"SWWC Alternative Learning Center -","STATE":"MN","CITY":"GLENCOE","ZIP":"55336","CNTY":"27085","NMCNTY":"McLeod County","LOCALE":"32","SCHOOLYEAR":"2024-2025"}},{"type":"Feature","geometry":{"type":"Point","coordinates":[-94.152891,44.782943]},"properties":{"NCESSCH":"270008605560","LEAID":"2700086","NAME":"SWWC ALC Midlevel - Glencoe","STATE":"MN","CITY":"GLENCOE","ZIP":"55336","CNTY":"27085","NMCNTY":"McLeod County","LOCALE":"32","SCHOOLYEAR":"2024-2025"}},{"type":"Feature","geometry":{"type":"Point","coordinates":[-96.279096,44.710984]},"properties":{"NCESSCH":"270008612739","LEAID":"2700086","NAME":"Canby Learning Center Credit Recov","STATE":"MN","CITY":"CANBY","ZIP":"56220","CNTY":"27173","NMCNTY":"Yellow Medicine County","LOCALE":"43","SCHOOLYEAR":"2024-2025"}},{"type":"Feature","geometry":{"type":"Point","coordinates":[-95.630957,44.225138]},"properties":{"NCESSCH":"270008612844","LEAID":"2700086","NAME":"Tracy Learning Center-Credit Recove","STATE":"MN","CITY":"TRACY","ZIP":"56175","CNTY":"27083","NMCNTY":"Lyon County","LOCALE":"43","SCHOOLYEAR":"2024-2025"}},{"type":"Feature","geometry":{"type":"Point","coordinates":[-95.59827,43.622127]},"properties":{"NCESSCH":"270008613086","LEAID":"2700086","NAME":"Project Search-Sanford Worthington","STATE":"MN","CITY":"WORTHINGTON","ZIP":"56187","CNTY":"27105","NMCNTY":"Nobles County","LOCALE":"33","SCHOOLYEAR":"2024-2025"}},{"type":"Feature","geometry":{"type":"Point","coordinates":[-95.667675,44.621822]},"properties":{"NCESSCH":"270008800407","LEAID":"2700088","NAME":"LAKEVIEW ELEMENTARY","STATE":"MN","CITY":"COTTONWOOD","ZIP":"56229","CNTY":"27083","NMCNTY":"Lyon County","LOCALE":"43","SCHOOLYEAR":"2024-2025"}},{"type":"Feature","geometry":{"type":"Point","coordinates":[-95.667675,44.621822]},"properties":{"NCESSCH":"270008800408","LEAID":"2700088","NAME":"LAKEVIEW SECONDARY","STATE":"MN","CITY":"COTTONWOOD","ZIP":"56229","CNTY":"27083","NMCNTY":"Lyon County","LOCALE":"43","SCHOOLYEAR":"2024-2025"}},{"type":"Feature","geometry":{"type":"Point","coordinates":[-93.297543,43.871279]},"properties":{"NCESSCH":"270008900523","LEAID":"2700089","NAME":"NRHEG ELEMENTARY","STATE":"MN","CITY":"ELLENDALE","ZIP":"56026","CNTY":"27147","NMCNTY":"Steele County","LOCALE":"43","SCHOOLYEAR":"2024-2025"}},{"type":"Feature","geometry":{"type":"Point","coordinates":[-93.495715,43.891484]},"properties":{"NCESSCH":"270008901148","LEAID":"2700089","NAME":"NRHEG SECONDARY","STATE":"MN","CITY":"NEW RICHLAND","ZIP":"56072","CNTY":"27161","NMCNTY":"Waseca County","LOCALE":"43","SCHOOLYEAR":"2024-2025"}},{"type":"Feature","geometry":{"type":"Point","coordinates":[-95.765025,43.987391]},"properties":{"NCESSCH":"270009001448","LEAID":"2700090","NAME":"West Elementary","STATE":"MN","CITY":"SLAYTON","ZIP":"56172","CNTY":"27101","NMCNTY":"Murray County","LOCALE":"43","SCHOOLYEAR":"2024-2025"}},{"type":"Feature","geometry":{"type":"Point","coordinates":[-95.757187,43.98495]},"properties":{"NCESSCH":"270009001449","LEAID":"2700090","NAME":"Murray County Central High School","STATE":"MN","CITY":"SLAYTON","ZIP":"56172","CNTY":"27101","NMCNTY":"Murray County","LOCALE":"43","SCHOOLYEAR":"2024-2025"}},{"type":"Feature","geometry":{"type":"Point","coordinates":[-95.757187,43.98495]},"properties":{"NCESSCH":"270009012813","LEAID":"2700090","NAME":"Murray County Central Elementary","STATE":"MN","CITY":"SLAYTON","ZIP":"56172","CNTY":"27101","NMCNTY":"Murray County","LOCALE":"43","SCHOOLYEAR":"2024-2025"}},{"type":"Feature","geometry":{"type":"Point","coordinates":[-95.757187,43.98495]},"properties":{"NCESSCH":"270009012814","LEAID":"2700090","NAME":"Out-of-State Care and Treatment","STATE":"MN","CITY":"SLAYTON","ZIP":"56172","CNTY":"27101","NMCNTY":"Murray County","LOCALE":"43","SCHOOLYEAR":"2024-2025"}},{"type":"Feature","geometry":{"type":"Point","coordinates":[-95.374559,44.957235]},"properties":{"NCESSCH":"270009100365","LEAID":"2700091","NAME":"MACCRAY Secondary","STATE":"MN","CITY":"CLARA CITY","ZIP":"56222","CNTY":"27023","NMCNTY":"Chippewa County","LOCALE":"43","SCHOOLYEAR":"2024-2025"}},{"type":"Feature","geometry":{"type":"Point","coordinates":[-95.374559,44.957235]},"properties":{"NCESSCH":"270009105565","LEAID":"2700091","NAME":"MACCRAY Elementary","STATE":"MN","CITY":"CLARA CITY","ZIP":"56222","CNTY":"27023","NMCNTY":"Chippewa County","LOCALE":"43","SCHOOLYEAR":"2024-2025"}},{"type":"Feature","geometry":{"type":"Point","coordinates":[-93.903494,44.529027]},"properties":{"NCESSCH":"270009202487","LEAID":"2700092","NAME":"MINNESOTA NEW COUNTRY SCHOOL","STATE":"MN","CITY":"HENDERSON","ZIP":"56044","CNTY":"27143","NMCNTY":"Sibley County","LOCALE":"42","SCHOOLYEAR":"2024-2025"}},{"type":"Feature","geometry":{"type":"Point","coordinates":[-93.910914,44.528863]},"properties":{"NCESSCH":"270009204748","LEAID":"2700092","NAME":"Minnesota New Country Elementary","STATE":"MN","CITY":"HENDERSON","ZIP":"56044","CNTY":"27143","NMCNTY":"Sibley County","LOCALE":"42","SCHOOLYEAR":"2024-2025"}},{"type":"Feature","geometry":{"type":"Point","coordinates":[-93.451181,45.233846]},"properties":{"NCESSCH":"270009302488","LEAID":"2700093","NAME":"PACT Charter Elementary","STATE":"MN","CITY":"RAMSEY","ZIP":"55303","CNTY":"27003","NMCNTY":"Anoka County","LOCALE":"21","SCHOOLYEAR":"2024-2025"}},{"type":"Feature","geometry":{"type":"Point","coordinates":[-93.463479,45.263904]},"properties":{"NCESSCH":"270009303030","LEAID":"2700093","NAME":"PACT CHARTER SECONDARY","STATE":"MN","CITY":"RAMSEY","ZIP":"55303","CNTY":"27003","NMCNTY":"Anoka County","LOCALE":"21","SCHOOLYEAR":"2024-2025"}},{"type":"Feature","geometry":{"type":"Point","coordinates":[-93.336113,45.138473]},"properties":{"NCESSCH":"270009601892","LEAID":"2700096","NAME":"Athlos Leadership Academy","STATE":"MN","CITY":"BROOKLYN PARK","ZIP":"55443","CNTY":"27053","NMCNTY":"Hennepin County","LOCALE":"21","SCHOOLYEAR":"2024-2025"}},{"type":"Feature","geometry":{"type":"Point","coordinates":[-95.546227,44.811638]},"properties":{"NCESSCH":"270009900676","LEAID":"2700099","NAME":"BERT RANEY ELEMENTARY SCHOOL","STATE":"MN","CITY":"GRANITE FALLS","ZIP":"56241","CNTY":"27173","NMCNTY":"Yellow Medicine County","LOCALE":"43","SCHOOLYEAR":"2024-2025"}},{"type":"Feature","geometry":{"type":"Point","coordinates":[-95.545305,44.81073]},"properties":{"NCESSCH":"270009903539","LEAID":"2700099","NAME":"Yellow Medicine East Secondary","STATE":"MN","CITY":"GRANITE FALLS","ZIP":"56241","CNTY":"27173","NMCNTY":"Yellow Medicine County","LOCALE":"43","SCHOOLYEAR":"2024-2025"}},{"type":"Feature","geometry":{"type":"Point","coordinates":[-92.010808,43.552723]},"properties":{"NCESSCH":"270010000691","LEAID":"2700100","NAME":"FILLMORE CENTRAL SENIOR HIGH","STATE":"MN","CITY":"HARMONY","ZIP":"55939","CNTY":"27045","NMCNTY":"Fillmore County","LOCALE":"43","SCHOOLYEAR":"2024-2025"}},{"type":"Feature","geometry":{"type":"Point","coordinates":[-92.091181,43.676272]},"properties":{"NCESSCH":"270010001269","LEAID":"2700100","NAME":"FILLMORE CENTRAL ELEMENTARY","STATE":"MN","CITY":"PRESTON","ZIP":"55965","CNTY":"27045","NMCNTY":"Fillmore County","LOCALE":"42","SCHOOLYEAR":"2024-2025"}},{"type":"Feature","geometry":{"type":"Point","coordinates":[-92.010808,43.552723]},"properties":{"NCESSCH":"270010005076","LEAID":"2700100","NAME":"Fillmore Central ALP","STATE":"MN","CITY":"HARMONY","ZIP":"55939","CNTY":"27045","NMCNTY":"Fillmore County","LOCALE":"43","SCHOOLYEAR":"2024-2025"}},{"type":"Feature","geometry":{"type":"Point","coordinates":[-96.264528,47.26132]},"properties":{"NCESSCH":"270010100622","LEAID":"2700101","NAME":"NORMAN COUNTY EAST ELEMENTARY","STATE":"MN","CITY":"TWIN VALLEY","ZIP":"56584","CNTY":"27107","NMCNTY":"Norman County","LOCALE":"43","SCHOOLYEAR":"2024-2025"}},{"type":"Feature","geometry":{"type":"Point","coordinates":[-96.264528,47.26132]},"properties":{"NCESSCH":"270010101695","LEAID":"2700101","NAME":"NORMAN COUNTY EAST SECONDARY","STATE":"MN","CITY":"TWIN VALLEY","ZIP":"56584","CNTY":"27107","NMCNTY":"Norman County","LOCALE":"43","SCHOOLYEAR":"2024-2025"}},{"type":"Feature","geometry":{"type":"Point","coordinates":[-94.079819,44.608828]},"properties":{"NCESSCH":"270010200134","LEAID":"2700102","NAME":"SIBLEY EAST-ARLINGTON SENIOR HIGH","STATE":"MN","CITY":"ARLINGTON","ZIP":"55307","CNTY":"27143","NMCNTY":"Sibley County","LOCALE":"42","SCHOOLYEAR":"2024-2025"}},{"type":"Feature","geometry":{"type":"Point","coordinates":[-94.205167,44.559944]},"properties":{"NCESSCH":"270010200624","LEAID":"2700102","NAME":"SIBLEY EAST-GAYLORD ELEMENTARY","STATE":"MN","CITY":"GAYLORD","ZIP":"55334","CNTY":"27143","NMCNTY":"Sibley County","LOCALE":"43","SCHOOLYEAR":"2024-2025"}},{"type":"Feature","geometry":{"type":"Point","coordinates":[-94.079655,44.609846]},"properties":{"NCESSCH":"270010200625","LEAID":"2700102","NAME":"Sibley East Middle School","STATE":"MN","CITY":"ARLINGTON","ZIP":"55307","CNTY":"27143","NMCNTY":"Sibley County","LOCALE":"42","SCHOOLYEAR":"2024-2025"}},{"type":"Feature","geometry":{"type":"Point","coordinates":[-95.434586,47.705519]},"properties":{"NCESSCH":"270010303467","LEAID":"2700103","NAME":"CLEARBROOK-GONVICK ELEMENTARY","STATE":"MN","CITY":"CLEARBROOK","ZIP":"56634","CNTY":"27029","NMCNTY":"Clearwater County","LOCALE":"43","SCHOOLYEAR":"2024-2025"}},{"type":"Feature","geometry":{"type":"Point","coordinates":[-95.434586,47.705519]},"properties":{"NCESSCH":"270010303468","LEAID":"2700103","NAME":"CLEARBROOK-GONVICK SECONDARY","STATE":"MN","CITY":"CLEARBROOK","ZIP":"56634","CNTY":"27029","NMCNTY":"Clearwater County","LOCALE":"43","SCHOOLYEAR":"2024-2025"}},{"type":"Feature","geometry":{"type":"Point","coordinates":[-95.969972,45.990653]},"properties":{"NCESSCH":"270010400513","LEAID":"2700104","NAME":"WEST CENTRAL AREA N. EL.","STATE":"MN","CITY":"ELBOW LAKE","ZIP":"56531","CNTY":"27051","NMCNTY":"Grant County","LOCALE":"43","SCHOOLYEAR":"2024-2025"}},{"type":"Feature","geometry":{"type":"Point","coordinates":[-95.695467,45.781016]},"properties":{"NCESSCH":"270010400731","LEAID":"2700104","NAME":"WEST CENTRAL AREA S. EL.","STATE":"MN","CITY":"KENSINGTON","ZIP":"56343","CNTY":"27041","NMCNTY":"Douglas County","LOCALE":"43","SCHOOLYEAR":"2024-2025"}},{"type":"Feature","geometry":{"type":"Point","coordinates":[-95.897529,45.907525]},"properties":{"NCESSCH":"270010402566","LEAID":"2700104","NAME":"WEST CENTRAL AREA SECONDARY","STATE":"MN","CITY":"BARRETT","ZIP":"56311","CNTY":"27051","NMCNTY":"Grant County","LOCALE":"43","SCHOOLYEAR":"2024-2025"}},{"type":"Feature","geometry":{"type":"Point","coordinates":[-95.897529,45.907525]},"properties":{"NCESSCH":"270010404375","LEAID":"2700104","NAME":"WCA Middle School","STATE":"MN","CITY":"BARRETT","ZIP":"56311","CNTY":"27051","NMCNTY":"Grant County","LOCALE":"43","SCHOOLYEAR":"2024-2025"}},{"type":"Feature","geometry":{"type":"Point","coordinates":[-95.897529,45.907525]},"properties":{"NCESSCH":"270010405505","LEAID":"2700104","NAME":"West Central Area ALP","STATE":"MN","CITY":"BARRETT","ZIP":"56311","CNTY":"27051","NMCNTY":"Grant County","LOCALE":"43","SCHOOLYEAR":"2024-2025"}},{"type":"Feature","geometry":{"type":"Point","coordinates":[-95.130071,45.502179]},"properties":{"NCESSCH":"270010500182","LEAID":"2700105","NAME":"Belgrade-Brooten-Elrosa Elementary","STATE":"MN","CITY":"BROOTEN","ZIP":"56316","CNTY":"27145","NMCNTY":"Stearns County","LOCALE":"43","SCHOOLYEAR":"2024-2025"}},{"type":"Feature","geometry":{"type":"Point","coordinates":[-95.003072,45.446856]},"properties":{"NCESSCH":"270010502567","LEAID":"2700105","NAME":"Belgrade-Brooten-Elrosa Sec.","STATE":"MN","CITY":"BELGRADE","ZIP":"56312","CNTY":"27145","NMCNTY":"Stearns County","LOCALE":"42","SCHOOLYEAR":"2024-2025"}},{"type":"Feature","geometry":{"type":"Point","coordinates":[-94.77958,45.133291]},"properties":{"NCESSCH":"270010602568","LEAID":"2700106","NAME":"A.C.G.C. ELEMENTARY","STATE":"MN","CITY":"ATWATER","ZIP":"56209","CNTY":"27067","NMCNTY":"Kandiyohi County","LOCALE":"42","SCHOOLYEAR":"2024-2025"}},{"type":"Feature","geometry":{"type":"Point","coordinates":[-94.683644,45.142925]},"properties":{"NCESSCH":"270010602570","LEAID":"2700106","NAME":"A.C.G.C. SECONDARY","STATE":"MN","CITY":"GROVE CITY","ZIP":"56243","CNTY":"27093","NMCNTY":"Meeker County","LOCALE":"42","SCHOOLYEAR":"2024-2025"}},{"type":"Feature","geometry":{"type":"Point","coordinates":[-94.683644,45.142925]},"properties":{"NCESSCH":"270010603647","LEAID":"2700106","NAME":"ACGC ELEMENTARY GRADES 5 AND 6","STATE":"MN","CITY":"GROVE CITY","ZIP":"56243","CNTY":"27093","NMCNTY":"Meeker County","LOCALE":"42","SCHOOLYEAR":"2024-2025"}},{"type":"Feature","geometry":{"type":"Point","coordinates":[-96.183615,48.695981]},"properties":{"NCESSCH":"270010700920","LEAID":"2700107","NAME":"GREENBUSH ELEMENTARY","STATE":"MN","CITY":"GREENBUSH","ZIP":"56726","CNTY":"27135","NMCNTY":"Roseau County","LOCALE":"43","SCHOOLYEAR":"2024-2025"}},{"type":"Feature","geometry":{"type":"Point","coordinates":[-96.183615,48.695981]},"properties":{"NCESSCH":"270010700921","LEAID":"2700107","NAME":"Greenbush-Middle River Secondary","STATE":"MN","CITY":"GREENBUSH","ZIP":"56726","CNTY":"27135","NMCNTY":"Roseau County","LOCALE":"43","SCHOOLYEAR":"2024-2025"}},{"type":"Feature","geometry":{"type":"Point","coordinates":[-96.33985,43.998121]},"properties":{"NCESSCH":"270010801262","LEAID":"2700108","NAME":"Pipestone Elementary","STATE":"MN","CITY":"PIPESTONE","ZIP":"56164","CNTY":"27117","NMCNTY":"Pipestone County","LOCALE":"43","SCHOOLYEAR":"2024-2025"}},{"type":"Feature","geometry":{"type":"Point","coordinates":[-96.33985,43.998121]},"properties":{"NCESSCH":"270010801263","LEAID":"2700108","NAME":"Pipestone Senior High","STATE":"MN","CITY":"PIPESTONE","ZIP":"56164","CNTY":"27117","NMCNTY":"Pipestone County","LOCALE":"43","SCHOOLYEAR":"2024-2025"}},{"type":"Feature","geometry":{"type":"Point","coordinates":[-96.33985,43.998121]},"properties":{"NCESSCH":"270010801264","LEAID":"2700108","NAME":"Pipestone Middle","STATE":"MN","CITY":"PIPESTONE","ZIP":"56164","CNTY":"27117","NMCNTY":"Pipestone County","LOCALE":"43","SCHOOLYEAR":"2024-2025"}},{"type":"Feature","geometry":{"type":"Point","coordinates":[-96.268167,44.165411]},"properties":{"NCESSCH":"270010803015","LEAID":"2700108","NAME":"Heartland Elementary","STATE":"MN","CITY":"LAKE BENTON","ZIP":"56149","CNTY":"27117","NMCNTY":"Pipestone County","LOCALE":"43","SCHOOLYEAR":"2024-2025"}},{"type":"Feature","geometry":{"type":"Point","coordinates":[-94.862765,45.970454]},"properties":{"NCESSCH":"270010900680","LEAID":"2700109","NAME":"Long Prairie-Grey Eagle Elementary","STATE":"MN","CITY":"LONG PRAIRIE","ZIP":"56347","CNTY":"27153","NMCNTY":"Todd County","LOCALE":"43","SCHOOLYEAR":"2024-2025"}},{"type":"Feature","geometry":{"type":"Point","coordinates":[-94.847277,45.981122]},"properties":{"NCESSCH":"270010900850","LEAID":"2700109","NAME":"Long Prairie-Grey Eagle Secondary","STATE":"MN","CITY":"LONG PRAIRIE","ZIP":"56347","CNTY":"27153","NMCNTY":"Todd County","LOCALE":"43","SCHOOLYEAR":"2024-2025"}},{"type":"Feature","geometry":{"type":"Point","coordinates":[-94.883394,44.528006]},"properties":{"NCESSCH":"270011001098","LEAID":"2700110","NAME":"CEDAR MOUNTAIN ELEMENTARY","STATE":"MN","CITY":"FRANKLIN","ZIP":"55333","CNTY":"27129","NMCNTY":"Renville County","LOCALE":"42","SCHOOLYEAR":"2024-2025"}},{"type":"Feature","geometry":{"type":"Point","coordinates":[-94.922626,44.416026]},"properties":{"NCESSCH":"270011001099","LEAID":"2700110","NAME":"Cedar Mountain Middle/High School","STATE":"MN","CITY":"MORGAN","ZIP":"56266","CNTY":"27127","NMCNTY":"Redwood County","LOCALE":"43","SCHOOLYEAR":"2024-2025"}},{"type":"Feature","geometry":{"type":"Point","coordinates":[-93.080351,44.974183]},"properties":{"NCESSCH":"270011502605","LEAID":"2700115","NAME":"Community of Peace Academy Elem","STATE":"MN","CITY":"SAINT PAUL","ZIP":"55130","CNTY":"27123","NMCNTY":"Ramsey County","LOCALE":"11","SCHOOLYEAR":"2024-2025"}},{"type":"Feature","geometry":{"type":"Point","coordinates":[-93.080351,44.974183]},"properties":{"NCESSCH":"270011504163","LEAID":"2700115","NAME":"Community of Peace Academy High Sch","STATE":"MN","CITY":"SAINT PAUL","ZIP":"55130","CNTY":"27123","NMCNTY":"Ramsey County","LOCALE":"11","SCHOOLYEAR":"2024-2025"}},{"type":"Feature","geometry":{"type":"Point","coordinates":[-93.080351,44.974183]},"properties":{"NCESSCH":"270011505136","LEAID":"2700115","NAME":"Community of Peace Academy Middle","STATE":"MN","CITY":"SAINT PAUL","ZIP":"55130","CNTY":"27123","NMCNTY":"Ramsey County","LOCALE":"11","SCHOOLYEAR":"2024-2025"}},{"type":"Feature","geometry":{"type":"Point","coordinates":[-93.608243,44.819222]},"properties":{"NCESSCH":"270011602606","LEAID":"2700116","NAME":"WORLD LEARNER CHARTER SCHOOL","STATE":"MN","CITY":"CHASKA","ZIP":"55318","CNTY":"27019","NMCNTY":"Carver County","LOCALE":"21","SCHOOLYEAR":"2024-2025"}},{"type":"Feature","geometry":{"type":"Point","coordinates":[-93.23363,44.956369]},"properties":{"NCESSCH":"270011702607","LEAID":"2700117","NAME":"Minnesota Transitions Charter Elem","STATE":"MN","CITY":"MINNEAPOLIS","ZIP":"55406","CNTY":"27053","NMCNTY":"Hennepin County","LOCALE":"11","SCHOOLYEAR":"2024-2025"}},{"type":"Feature","geometry":{"type":"Point","coordinates":[-93.237587,44.950685]},"properties":{"NCESSCH":"270011703262","LEAID":"2700117","NAME":"MTS HIGH SCHOOL","STATE":"MN","CITY":"MINNEAPOLIS","ZIP":"55406","CNTY":"27053","NMCNTY":"Hennepin County","LOCALE":"11","SCHOOLYEAR":"2024-2025"}},{"type":"Feature","geometry":{"type":"Point","coordinates":[-93.176,45.006909]},"properties":{"NCESSCH":"270011703264","LEAID":"2700117","NAME":"MN Virtual Secondary School","STATE":"MN","CITY":"ROSEVILLE","ZIP":"55113","CNTY":"27123","NMCNTY":"Ramsey County","LOCALE":"21","SCHOOLYEAR":"2024-2025"}},{"type":"Feature","geometry":{"type":"Point","coordinates":[-93.235826,44.983342]},"properties":{"NCESSCH":"270011703336","LEAID":"2700117","NAME":"MTS PEASE ACADEMY","STATE":"MN","CITY":"MINNEAPOLIS","ZIP":"55414","CNTY":"27053","NMCNTY":"Hennepin County","LOCALE":"11","SCHOOLYEAR":"2024-2025"}},{"type":"Feature","geometry":{"type":"Point","coordinates":[-93.291629,44.990556]},"properties":{"NCESSCH":"270011703566","LEAID":"2700117","NAME":"Banaadir Academy","STATE":"MN","CITY":"MINNEAPOLIS","ZIP":"55411","CNTY":"27053","NMCNTY":"Hennepin County","LOCALE":"11","SCHOOLYEAR":"2024-2025"}},{"type":"Feature","geometry":{"type":"Point","coordinates":[-93.157092,44.969301]},"properties":{"NCESSCH":"270011703694","LEAID":"2700117","NAME":"Minnesota Connections Academy 7-12","STATE":"MN","CITY":"SAINT PAUL","ZIP":"55108","CNTY":"27123","NMCNTY":"Ramsey County","LOCALE":"11","SCHOOLYEAR":"2024-2025"}},{"type":"Feature","geometry":{"type":"Point","coordinates":[-93.266684,45.006901]},"properties":{"NCESSCH":"270011704989","LEAID":"2700117","NAME":"Banaadir Elementary","STATE":"MN","CITY":"MINNEAPOLIS","ZIP":"55418","CNTY":"27053","NMCNTY":"Hennepin County","LOCALE":"11","SCHOOLYEAR":"2024-2025"}},{"type":"Feature","geometry":{"type":"Point","coordinates":[-93.291629,44.990556]},"properties":{"NCESSCH":"270011705279","LEAID":"2700117","NAME":"Banaadir Academy","STATE":"MN","CITY":"MINNEAPOLIS","ZIP":"55411","CNTY":"27053","NMCNTY":"Hennepin County","LOCALE":"11","SCHOOLYEAR":"2024-2025"}},{"type":"Feature","geometry":{"type":"Point","coordinates":[-93.157092,44.969301]},"properties":{"NCESSCH":"270011705530","LEAID":"2700117","NAME":"Minnesota Connections Academy K-6","STATE":"MN","CITY":"SAINT PAUL","ZIP":"55108","CNTY":"27123","NMCNTY":"Ramsey County","LOCALE":"11","SCHOOLYEAR":"2024-2025"}},{"type":"Feature","geometry":{"type":"Point","coordinates":[-93.176,45.006909]},"properties":{"NCESSCH":"270011712951","LEAID":"2700117","NAME":"MN Virtual Elementary School","STATE":"MN","CITY":"ROSEVILLE","ZIP":"55113","CNTY":"27123","NMCNTY":"Ramsey County","LOCALE":"21","SCHOOLYEAR":"2024-2025"}},{"type":"Feature","geometry":{"type":"Point","coordinates":[-93.009095,44.969699]},"properties":{"NCESSCH":"270011802608","LEAID":"2700118","NAME":"ACHIEVE LANGUAGE ACADEMY","STATE":"MN","CITY":"SAINT PAUL","ZIP":"55119","CNTY":"27123","NMCNTY":"Ramsey County","LOCALE":"11","SCHOOLYEAR":"2024-2025"}},{"type":"Feature","geometry":{"type":"Point","coordinates":[-94.066346,45.028236]},"properties":{"NCESSCH":"270012300751","LEAID":"2700123","NAME":"HOWARD LAKE-WAVERLY-WINSTED SEC.","STATE":"MN","CITY":"HOWARD LAKE","ZIP":"55349","CNTY":"27171","NMCNTY":"Wright County","LOCALE":"42","SCHOOLYEAR":"2024-2025"}},{"type":"Feature","geometry":{"type":"Point","coordinates":[-94.050073,44.968256]},"properties":{"NCESSCH":"270012300908","LEAID":"2700123","NAME":"WINSTED ELEMENTARY","STATE":"MN","CITY":"WINSTED","ZIP":"55395","CNTY":"27085","NMCNTY":"McLeod County","LOCALE":"42","SCHOOLYEAR":"2024-2025"}},{"type":"Feature","geometry":{"type":"Point","coordinates":[-93.973636,45.066475]},"properties":{"NCESSCH":"270012302697","LEAID":"2700123","NAME":"HUMPHREY ELEMENTARY","STATE":"MN","CITY":"WAVERLY","ZIP":"55390","CNTY":"27171","NMCNTY":"Wright County","LOCALE":"32","SCHOOLYEAR":"2024-2025"}},{"type":"Feature","geometry":{"type":"Point","coordinates":[-94.066346,45.028236]},"properties":{"NCESSCH":"270012303350","LEAID":"2700123","NAME":"Howard Lake-Waverly-Winsted Middle","STATE":"MN","CITY":"HOWARD LAKE","ZIP":"55349","CNTY":"27171","NMCNTY":"Wright County","LOCALE":"42","SCHOOLYEAR":"2024-2025"}},{"type":"Feature","geometry":{"type":"Point","coordinates":[-94.050073,44.968256]},"properties":{"NCESSCH":"270012303695","LEAID":"2700123","NAME":"HOWARD LAKE WAVERLY WINSTED ECSE","STATE":"MN","CITY":"WINSTED","ZIP":"55395","CNTY":"27085","NMCNTY":"McLeod County","LOCALE":"42","SCHOOLYEAR":"2024-2025"}},{"type":"Feature","geometry":{"type":"Point","coordinates":[-94.066346,45.028236]},"properties":{"NCESSCH":"270012304414","LEAID":"2700123","NAME":"HLWW ALTERNATIVE LEARNING PROGRAM","STATE":"MN","CITY":"HOWARD LAKE","ZIP":"55349","CNTY":"27171","NMCNTY":"Wright County","LOCALE":"42","SCHOOLYEAR":"2024-2025"}},{"type":"Feature","geometry":{"type":"Point","coordinates":[-94.066346,45.028236]},"properties":{"NCESSCH":"270012305059","LEAID":"2700123","NAME":"ALP Credit Recovery","STATE":"MN","CITY":"HOWARD LAKE","ZIP":"55349","CNTY":"27171","NMCNTY":"Wright County","LOCALE":"42","SCHOOLYEAR":"2024-2025"}},{"type":"Feature","geometry":{"type":"Point","coordinates":[-94.448987,43.636224]},"properties":{"NCESSCH":"270012400553","LEAID":"2700124","NAME":"FAIRMONT JR./SR. HIGH SCHOOL","STATE":"MN","CITY":"FAIRMONT","ZIP":"56031","CNTY":"27091","NMCNTY":"Martin County","LOCALE":"33","SCHOOLYEAR":"2024-2025"}},{"type":"Feature","geometry":{"type":"Point","coordinates":[-94.452678,43.646304]},"properties":{"NCESSCH":"270012400554","LEAID":"2700124","NAME":"FAIRMONT ELEMENTARY SCHOOL","STATE":"MN","CITY":"FAIRMONT","ZIP":"56031","CNTY":"27091","NMCNTY":"Martin County","LOCALE":"33","SCHOOLYEAR":"2024-2025"}},{"type":"Feature","geometry":{"type":"Point","coordinates":[-96.013223,45.196526]},"properties":{"NCESSCH":"270012500129","LEAID":"2700125","NAME":"Appleton-Milan Elementary","STATE":"MN","CITY":"APPLETON","ZIP":"56208","CNTY":"27151","NMCNTY":"Swift County","LOCALE":"43","SCHOOLYEAR":"2024-2025"}},{"type":"Feature","geometry":{"type":"Point","coordinates":[-96.060095,45.072812]},"properties":{"NCESSCH":"270012502260","LEAID":"2700125","NAME":"LAC QUI PARLE VALLEY SECONDARY","STATE":"MN","CITY":"MADISON","ZIP":"56256","CNTY":"27073","NMCNTY":"Lac qui Parle County","LOCALE":"43","SCHOOLYEAR":"2024-2025"}},{"type":"Feature","geometry":{"type":"Point","coordinates":[-96.190215,45.012586]},"properties":{"NCESSCH":"270012503017","LEAID":"2700125","NAME":"MADISON-MARIETTA-NASSAU ELEMENTARY","STATE":"MN","CITY":"MADISON","ZIP":"56256","CNTY":"27073","NMCNTY":"Lac qui Parle County","LOCALE":"43","SCHOOLYEAR":"2024-2025"}},{"type":"Feature","geometry":{"type":"Point","coordinates":[-96.060095,45.072812]},"properties":{"NCESSCH":"270012503893","LEAID":"2700125","NAME":"LAC QUI PARLE VALLEY MIDDLE SCHOOL","STATE":"MN","CITY":"MADISON","ZIP":"56256","CNTY":"27073","NMCNTY":"Lac qui Parle County","LOCALE":"43","SCHOOLYEAR":"2024-2025"}},{"type":"Feature","geometry":{"type":"Point","coordinates":[-96.824427,48.33247]},"properties":{"NCESSCH":"270012700131","LEAID":"2700127","NAME":"Stephen-Argyle Central Elementary","STATE":"MN","CITY":"ARGYLE","ZIP":"56713","CNTY":"27089","NMCNTY":"Marshall County","LOCALE":"43","SCHOOLYEAR":"2024-2025"}},{"type":"Feature","geometry":{"type":"Point","coordinates":[-96.87864,48.450923]},"properties":{"NCESSCH":"270012701648","LEAID":"2700127","NAME":"Stephen-Argyle Central High School","STATE":"MN","CITY":"STEPHEN","ZIP":"56757","CNTY":"27089","NMCNTY":"Marshall County","LOCALE":"43","SCHOOLYEAR":"2024-2025"}},{"type":"Feature","geometry":{"type":"Point","coordinates":[-94.137636,44.776197]},"properties":{"NCESSCH":"270012800630","LEAID":"2700128","NAME":"GLENCOE-SILVER LAKE SENIOR HIGH","STATE":"MN","CITY":"GLENCOE","ZIP":"55336","CNTY":"27085","NMCNTY":"McLeod County","LOCALE":"32","SCHOOLYEAR":"2024-2025"}},{"type":"Feature","geometry":{"type":"Point","coordinates":[-94.139127,44.775859]},"properties":{"NCESSCH":"270012800632","LEAID":"2700128","NAME":"Lincoln Elementary","STATE":"MN","CITY":"GLENCOE","ZIP":"55336","CNTY":"27085","NMCNTY":"McLeod County","LOCALE":"32","SCHOOLYEAR":"2024-2025"}},{"type":"Feature","geometry":{"type":"Point","coordinates":[-94.196296,44.90119]},"properties":{"NCESSCH":"270012801444","LEAID":"2700128","NAME":"LAKESIDE ELEMENTARY","STATE":"MN","CITY":"SILVER LAKE","ZIP":"55381","CNTY":"27085","NMCNTY":"McLeod County","LOCALE":"42","SCHOOLYEAR":"2024-2025"}},{"type":"Feature","geometry":{"type":"Point","coordinates":[-94.138463,44.776111]},"properties":{"NCESSCH":"270012801445","LEAID":"2700128","NAME":"GSL Junior High School","STATE":"MN","CITY":"GLENCOE","ZIP":"55336","CNTY":"27085","NMCNTY":"McLeod County","LOCALE":"32","SCHOOLYEAR":"2024-2025"}},{"type":"Feature","geometry":{"type":"Point","coordinates":[-93.259646,44.297424]},"properties":{"NCESSCH":"270012902409","LEAID":"2700129","NAME":"Minnesota State Academy for Deaf","STATE":"MN","CITY":"FARIBAULT","ZIP":"55021","CNTY":"27131","NMCNTY":"Rice County","LOCALE":"32","SCHOOLYEAR":"2024-2025"}},{"type":"Feature","geometry":{"type":"Point","coordinates":[-93.259141,44.285978]},"properties":{"NCESSCH":"270012903056","LEAID":"2700129","NAME":"Minnesota State Academy for Blind","STATE":"MN","CITY":"FARIBAULT","ZIP":"55021","CNTY":"27131","NMCNTY":"Rice County","LOCALE":"32","SCHOOLYEAR":"2024-2025"}},{"type":"Feature","geometry":{"type":"Point","coordinates":[-93.259646,44.297424]},"properties":{"NCESSCH":"270012913031","LEAID":"2700129","NAME":"MSAD Online Academy","STATE":"MN","CITY":"FARIBAULT","ZIP":"55021","CNTY":"27131","NMCNTY":"Rice County","LOCALE":"32","SCHOOLYEAR":"2024-2025"}},{"type":"Feature","geometry":{"type":"Point","coordinates":[-94.099384,43.639119]},"properties":{"NCESSCH":"270013000241","LEAID":"2700130","NAME":"Blue Earth Area Elementary","STATE":"MN","CITY":"BLUE EARTH","ZIP":"56013","CNTY":"27043","NMCNTY":"Faribault County","LOCALE":"43","SCHOOLYEAR":"2024-2025"}},{"type":"Feature","geometry":{"type":"Point","coordinates":[-94.097865,43.639372]},"properties":{"NCESSCH":"270013002497","LEAID":"2700130","NAME":"BLUE EARTH AREA MIDDLE","STATE":"MN","CITY":"BLUE EARTH","ZIP":"56013","CNTY":"27043","NMCNTY":"Faribault County","LOCALE":"43","SCHOOLYEAR":"2024-2025"}},{"type":"Feature","geometry":{"type":"Point","coordinates":[-94.091117,43.651058]},"properties":{"NCESSCH":"270013002498","LEAID":"2700130","NAME":"Blue Earth Area Secondary","STATE":"MN","CITY":"BLUE EARTH","ZIP":"56013","CNTY":"27043","NMCNTY":"Faribault County","LOCALE":"43","SCHOOLYEAR":"2024-2025"}},{"type":"Feature","geometry":{"type":"Point","coordinates":[-94.098517,43.639013]},"properties":{"NCESSCH":"270013004998","LEAID":"2700130","NAME":"Blue Earth Area Early Childhood Spe","STATE":"MN","CITY":"BLUE EARTH","ZIP":"56013","CNTY":"27043","NMCNTY":"Faribault County","LOCALE":"43","SCHOOLYEAR":"2024-2025"}},{"type":"Feature","geometry":{"type":"Point","coordinates":[-95.260587,44.228222]},"properties":{"NCESSCH":"270013200820","LEAID":"2700132","NAME":"RED ROCK CENTRAL SECONDARY","STATE":"MN","CITY":"LAMBERTON","ZIP":"56152","CNTY":"27127","NMCNTY":"Redwood County","LOCALE":"43","SCHOOLYEAR":"2024-2025"}},{"type":"Feature","geometry":{"type":"Point","coordinates":[-95.260587,44.228222]},"properties":{"NCESSCH":"270013201419","LEAID":"2700132","NAME":"RED ROCK CENTRAL ELEMENTARY","STATE":"MN","CITY":"LAMBERTON","ZIP":"56152","CNTY":"27127","NMCNTY":"Redwood County","LOCALE":"43","SCHOOLYEAR":"2024-2025"}},{"type":"Feature","geometry":{"type":"Point","coordinates":[-92.134072,46.827603]},"properties":{"NCESSCH":"270013302711","LEAID":"2700133","NAME":"NORTH STAR ACADEMY","STATE":"MN","CITY":"DULUTH","ZIP":"55811","CNTY":"27137","NMCNTY":"St. Louis County","LOCALE":"41","SCHOOLYEAR":"2024-2025"}},{"type":"Feature","geometry":{"type":"Point","coordinates":[-92.172449,46.731579]},"properties":{"NCESSCH":"270013303031","LEAID":"2700133","NAME":"RALEIGH PRIMARY/EL ACADEMY","STATE":"MN","CITY":"DULUTH","ZIP":"55807","CNTY":"27137","NMCNTY":"St. Louis County","LOCALE":"13","SCHOOLYEAR":"2024-2025"}},{"type":"Feature","geometry":{"type":"Point","coordinates":[-93.217206,44.902118]},"properties":{"NCESSCH":"270013802717","LEAID":"2700138","NAME":"CVA PASCAL Middle & High School","STATE":"MN","CITY":"MINNEAPOLIS","ZIP":"55417","CNTY":"27053","NMCNTY":"Hennepin County","LOCALE":"11","SCHOOLYEAR":"2024-2025"}},{"type":"Feature","geometry":{"type":"Point","coordinates":[-93.217206,44.902118]},"properties":{"NCESSCH":"270013805531","LEAID":"2700138","NAME":"CVA PASCAL Elementary School (K-5)","STATE":"MN","CITY":"MINNEAPOLIS","ZIP":"55417","CNTY":"27053","NMCNTY":"Hennepin County","LOCALE":"11","SCHOOLYEAR":"2024-2025"}},{"type":"Feature","geometry":{"type":"Point","coordinates":[-93.217206,44.902118]},"properties":{"NCESSCH":"270013805532","LEAID":"2700138","NAME":"CVA Fusion Elementary School (K-5)","STATE":"MN","CITY":"MINNEAPOLIS","ZIP":"55417","CNTY":"27053","NMCNTY":"Hennepin County","LOCALE":"11","SCHOOLYEAR":"2024-2025"}},{"type":"Feature","geometry":{"type":"Point","coordinates":[-93.217206,44.902118]},"properties":{"NCESSCH":"270013805533","LEAID":"2700138","NAME":"CVA Fusion Middle School (6-8)","STATE":"MN","CITY":"MINNEAPOLIS","ZIP":"55417","CNTY":"27053","NMCNTY":"Hennepin County","LOCALE":"11","SCHOOLYEAR":"2024-2025"}},{"type":"Feature","geometry":{"type":"Point","coordinates":[-93.217206,44.902118]},"properties":{"NCESSCH":"270013805534","LEAID":"2700138","NAME":"CVA Fusion High School (9-12)","STATE":"MN","CITY":"MINNEAPOLIS","ZIP":"55417","CNTY":"27053","NMCNTY":"Hennepin County","LOCALE":"11","SCHOOLYEAR":"2024-2025"}},{"type":"Feature","geometry":{"type":"Point","coordinates":[-95.410092,44.617924]},"properties":{"NCESSCH":"270013902718","LEAID":"2700139","NAME":"E.C.H.O. Secondary","STATE":"MN","CITY":"ECHO","ZIP":"56237","CNTY":"27173","NMCNTY":"Yellow Medicine County","LOCALE":"43","SCHOOLYEAR":"2024-2025"}},{"type":"Feature","geometry":{"type":"Point","coordinates":[-95.410092,44.617924]},"properties":{"NCESSCH":"270013905535","LEAID":"2700139","NAME":"E.C.H.O. Elementary","STATE":"MN","CITY":"ECHO","ZIP":"56237","CNTY":"27173","NMCNTY":"Yellow Medicine County","LOCALE":"43","SCHOOLYEAR":"2024-2025"}},{"type":"Feature","geometry":{"type":"Point","coordinates":[-93.158722,44.949105]},"properties":{"NCESSCH":"270014002719","LEAID":"2700140","NAME":"HGA Elementary","STATE":"MN","CITY":"SAINT PAUL","ZIP":"55104","CNTY":"27123","NMCNTY":"Ramsey County","LOCALE":"11","SCHOOLYEAR":"2024-2025"}},{"type":"Feature","geometry":{"type":"Point","coordinates":[-93.162188,44.975102]},"properties":{"NCESSCH":"270014004749","LEAID":"2700140","NAME":"HGA Secondary","STATE":"MN","CITY":"SAINT PAUL","ZIP":"55108","CNTY":"27123","NMCNTY":"Ramsey County","LOCALE":"11","SCHOOLYEAR":"2024-2025"}},{"type":"Feature","geometry":{"type":"Point","coordinates":[-93.158722,44.949105]},"properties":{"NCESSCH":"270014012829","LEAID":"2700140","NAME":"HGA Junior High","STATE":"MN","CITY":"SAINT PAUL","ZIP":"55104","CNTY":"27123","NMCNTY":"Ramsey County","LOCALE":"11","SCHOOLYEAR":"2024-2025"}},{"type":"Feature","geometry":{"type":"Point","coordinates":[-93.108895,44.956373]},"properties":{"NCESSCH":"270014202721","LEAID":"2700142","NAME":"ST. PAUL CITY PRIMARY SCHOOL","STATE":"MN","CITY":"SAINT PAUL","ZIP":"55103","CNTY":"27123","NMCNTY":"Ramsey County","LOCALE":"11","SCHOOLYEAR":"2024-2025"}},{"type":"Feature","geometry":{"type":"Point","coordinates":[-93.108895,44.956373]},