{"type":"FeatureCollection","features":[{"type":"Feature","geometry":{"type":"Point","coordinates":[-64.781636,17.735876]},"properties":{"NCESSCH":"780000200002","LEAID":"7800002","NAME":"Alfredo Andrews Elementary School","STATE":"VI","CITY":"Saint Croix","ZIP":"00820","CNTY":"78010","NMCNTY":"St. Croix Island","LOCALE":"41","SCHOOLYEAR":"2024-2025"}},{"type":"Feature","geometry":{"type":"Point","coordinates":[-64.878399,17.704639]},"properties":{"NCESSCH":"780000200006","LEAID":"7800002","NAME":"Claude O. Markoe Elementary School","STATE":"VI","CITY":"Saint Croix","ZIP":"00840","CNTY":"78010","NMCNTY":"St. Croix Island","LOCALE":"33","SCHOOLYEAR":"2024-2025"}},{"type":"Feature","geometry":{"type":"Point","coordinates":[-64.798638,17.722947]},"properties":{"NCESSCH":"780000200007","LEAID":"7800002","NAME":"St. Croix Educational Complex Vocational School","STATE":"VI","CITY":"Saint Croix","ZIP":"00850","CNTY":"78010","NMCNTY":"St. Croix Island","LOCALE":"33","SCHOOLYEAR":"2024-2025"}},{"type":"Feature","geometry":{"type":"Point","coordinates":[-64.82104,17.722474]},"properties":{"NCESSCH":"780000200011","LEAID":"7800002","NAME":"Eulalie Rivera","STATE":"VI","CITY":"Saint Croix","ZIP":"00840","CNTY":"78010","NMCNTY":"St. Croix Island","LOCALE":"33","SCHOOLYEAR":"2024-2025"}},{"type":"Feature","geometry":{"type":"Point","coordinates":[-64.798638,17.722947]},"properties":{"NCESSCH":"780000200013","LEAID":"7800002","NAME":"St. Croix Educational Complex High School","STATE":"VI","CITY":"Saint Croix","ZIP":"00851","CNTY":"78010","NMCNTY":"St. Croix Island","LOCALE":"33","SCHOOLYEAR":"2024-2025"}},{"type":"Feature","geometry":{"type":"Point","coordinates":[-64.715303,17.746411]},"properties":{"NCESSCH":"780000200021","LEAID":"7800002","NAME":"Juanita Gardine","STATE":"VI","CITY":"Saint Croix","ZIP":"00820","CNTY":"78010","NMCNTY":"St. Croix Island","LOCALE":"33","SCHOOLYEAR":"2024-2025"}},{"type":"Feature","geometry":{"type":"Point","coordinates":[-64.744876,17.73234]},"properties":{"NCESSCH":"780000200023","LEAID":"7800002","NAME":"Lew Muckle Elementary School","STATE":"VI","CITY":"Saint Croix","ZIP":"00820","CNTY":"78010","NMCNTY":"St. Croix Island","LOCALE":"33","SCHOOLYEAR":"2024-2025"}},{"type":"Feature","geometry":{"type":"Point","coordinates":[-64.686514,17.744626]},"properties":{"NCESSCH":"780000200028","LEAID":"7800002","NAME":"Pearl B. Larsen","STATE":"VI","CITY":"Saint Croix","ZIP":"00820","CNTY":"78010","NMCNTY":"St. Croix Island","LOCALE":"41","SCHOOLYEAR":"2024-2025"}},{"type":"Feature","geometry":{"type":"Point","coordinates":[-64.760782,17.725168]},"properties":{"NCESSCH":"780000200029","LEAID":"7800002","NAME":"Ricardo Richards Elementary School","STATE":"VI","CITY":"Saint Croix","ZIP":"00850","CNTY":"78010","NMCNTY":"St. Croix Island","LOCALE":"33","SCHOOLYEAR":"2024-2025"}},{"type":"Feature","geometry":{"type":"Point","coordinates":[-64.780456,17.725655]},"properties":{"NCESSCH":"780000200030","LEAID":"7800002","NAME":"St. Croix Central High School","STATE":"VI","CITY":"Saint Croix","ZIP":"00840","CNTY":"78010","NMCNTY":"St. Croix Island","LOCALE":"41","SCHOOLYEAR":"2024-2025"}},{"type":"Feature","geometry":{"type":"Point","coordinates":[-64.783565,17.742165]},"properties":{"NCESSCH":"780000200037","LEAID":"7800002","NAME":"John H. Woodson Junior High School","STATE":"VI","CITY":"Saint Croix","ZIP":"00850","CNTY":"78010","NMCNTY":"St. Croix Island","LOCALE":"41","SCHOOLYEAR":"2024-2025"}},{"type":"Feature","geometry":{"type":"Point","coordinates":[-64.918749,18.342037]},"properties":{"NCESSCH":"780003000005","LEAID":"7800030","NAME":"Charlotte Amalie High School","STATE":"VI","CITY":"Saint Thomas","ZIP":"00802","CNTY":"78030","NMCNTY":"St. Thomas Island","LOCALE":"33","SCHOOLYEAR":"2024-2025"}},{"type":"Feature","geometry":{"type":"Point","coordinates":[-64.853909,18.324876]},"properties":{"NCESSCH":"780003000015","LEAID":"7800030","NAME":"Ivanna Eudora Kean High School","STATE":"VI","CITY":"Saint Thomas","ZIP":"00802","CNTY":"78030","NMCNTY":"St. Thomas Island","LOCALE":"33","SCHOOLYEAR":"2024-2025"}},{"type":"Feature","geometry":{"type":"Point","coordinates":[-64.936046,18.344399]},"properties":{"NCESSCH":"780003000018","LEAID":"7800030","NAME":"Jane E. Tuitt Elementary School","STATE":"VI","CITY":"Saint Thomas","ZIP":"00802","CNTY":"78030","NMCNTY":"St. Thomas Island","LOCALE":"33","SCHOOLYEAR":"2024-2025"}},{"type":"Feature","geometry":{"type":"Point","coordinates":[-64.887972,18.342789]},"properties":{"NCESSCH":"780003000019","LEAID":"7800030","NAME":"Joseph Gomez Elementary School","STATE":"VI","CITY":"Saint Thomas","ZIP":"00802","CNTY":"78030","NMCNTY":"St. Thomas Island","LOCALE":"33","SCHOOLYEAR":"2024-2025"}},{"type":"Feature","geometry":{"type":"Point","coordinates":[-64.932456,18.352146]},"properties":{"NCESSCH":"780003000020","LEAID":"7800030","NAME":"Joseph Sibilly Elementary School","STATE":"VI","CITY":"Saint Thomas","ZIP":"00802","CNTY":"78030","NMCNTY":"St. Thomas Island","LOCALE":"33","SCHOOLYEAR":"2024-2025"}},{"type":"Feature","geometry":{"type":"Point","coordinates":[-64.793916,18.330464]},"properties":{"NCESSCH":"780003000022","LEAID":"7800030","NAME":"Julius E. Sprauve School","STATE":"VI","CITY":"Saint John","ZIP":"00802","CNTY":"78020","NMCNTY":"St. John Island","LOCALE":"33","SCHOOLYEAR":"2024-2025"}},{"type":"Feature","geometry":{"type":"Point","coordinates":[-64.917602,18.34195]},"properties":{"NCESSCH":"780003000024","LEAID":"7800030","NAME":"Lockhart Elementary School","STATE":"VI","CITY":"Saint Thomas","ZIP":"00802","CNTY":"78030","NMCNTY":"St. Thomas Island","LOCALE":"33","SCHOOLYEAR":"2024-2025"}},{"type":"Feature","geometry":{"type":"Point","coordinates":[-64.952483,18.338742]},"properties":{"NCESSCH":"780003000026","LEAID":"7800030","NAME":"Ulla F. Muller Elementary School","STATE":"VI","CITY":"Saint Thomas","ZIP":"00802","CNTY":"78030","NMCNTY":"St. Thomas Island","LOCALE":"33","SCHOOLYEAR":"2024-2025"}},{"type":"Feature","geometry":{"type":"Point","coordinates":[-64.899024,18.354782]},"properties":{"NCESSCH":"780003000027","LEAID":"7800030","NAME":"Yvonne E. Milliner-Bowsky Elementary School","STATE":"VI","CITY":"Saint Thomas","ZIP":"00802","CNTY":"78030","NMCNTY":"St. Thomas Island","LOCALE":"33","SCHOOLYEAR":"2024-2025"}},{"type":"Feature","geometry":{"type":"Point","coordinates":[-64.890311,18.31823]},"properties":{"NCESSCH":"780003000034","LEAID":"7800030","NAME":"Bertha C. Boschulte Middle School","STATE":"VI","CITY":"Saint Thomas","ZIP":"00802","CNTY":"78030","NMCNTY":"St. Thomas Island","LOCALE":"33","SCHOOLYEAR":"2024-2025"}}]}