{"type":"FeatureCollection","features":[{"type":"Feature","geometry":{"type":"Point","coordinates":[-80.477041,25.47092]},"properties":{"NCESSCH":"120039008738","LEAID":"1200390","NAME":"ACCELERATION ACADEMIES LLC HOMESTEAD","STATE":"IL","CITY":"CHICAGO","ZIP":"60607","CNTY":"12086","NMCNTY":"Miami-Dade County","LOCALE":"21","SCHOOLYEAR":"2024-2025"}},{"type":"Feature","geometry":{"type":"Point","coordinates":[-90.2707,42.3119]},"properties":{"NCESSCH":"170000105115","LEAID":"1700001","NAME":"River Ridge High School","STATE":"IL","CITY":"Hanover","ZIP":"61041","CNTY":"17085","NMCNTY":"Jo Daviess County","LOCALE":"42","SCHOOLYEAR":"2024-2025"}},{"type":"Feature","geometry":{"type":"Point","coordinates":[-90.2707,42.3119]},"properties":{"NCESSCH":"170000105116","LEAID":"1700001","NAME":"River Ridge Middle School","STATE":"IL","CITY":"Hanover","ZIP":"61041","CNTY":"17085","NMCNTY":"Jo Daviess County","LOCALE":"42","SCHOOLYEAR":"2024-2025"}},{"type":"Feature","geometry":{"type":"Point","coordinates":[-90.2707,42.3119]},"properties":{"NCESSCH":"170000105651","LEAID":"1700001","NAME":"River Ridge Elementary School","STATE":"IL","CITY":"Hanover","ZIP":"61041","CNTY":"17085","NMCNTY":"Jo Daviess County","LOCALE":"42","SCHOOLYEAR":"2024-2025"}},{"type":"Feature","geometry":{"type":"Point","coordinates":[-87.988365,39.304955]},"properties":{"NCESSCH":"170000205087","LEAID":"1700002","NAME":"Casey-Westfield Jr/Sr HS","STATE":"IL","CITY":"Casey","ZIP":"62420","CNTY":"17023","NMCNTY":"Clark County","LOCALE":"43","SCHOOLYEAR":"2024-2025"}},{"type":"Feature","geometry":{"type":"Point","coordinates":[-87.988484,39.294349]},"properties":{"NCESSCH":"170000205089","LEAID":"1700002","NAME":"Monroe Elem School","STATE":"IL","CITY":"Casey","ZIP":"62420","CNTY":"17023","NMCNTY":"Clark County","LOCALE":"43","SCHOOLYEAR":"2024-2025"}},{"type":"Feature","geometry":{"type":"Point","coordinates":[-88.647,40.2478]},"properties":{"NCESSCH":"170000305119","LEAID":"1700003","NAME":"Blue Ridge High School","STATE":"IL","CITY":"Farmer City","ZIP":"61842","CNTY":"17039","NMCNTY":"De Witt County","LOCALE":"42","SCHOOLYEAR":"2024-2025"}},{"type":"Feature","geometry":{"type":"Point","coordinates":[-88.6472,40.2468]},"properties":{"NCESSCH":"170000305121","LEAID":"1700003","NAME":"Ruth M Schneider Elem School","STATE":"IL","CITY":"Farmer City","ZIP":"61842","CNTY":"17039","NMCNTY":"De Witt County","LOCALE":"42","SCHOOLYEAR":"2024-2025"}},{"type":"Feature","geometry":{"type":"Point","coordinates":[-88.500697,40.210485]},"properties":{"NCESSCH":"170000305123","LEAID":"1700003","NAME":"Blue Ridge Intermediate-Jr HS","STATE":"IL","CITY":"Mansfield","ZIP":"61854","CNTY":"17147","NMCNTY":"Piatt County","LOCALE":"42","SCHOOLYEAR":"2024-2025"}},{"type":"Feature","geometry":{"type":"Point","coordinates":[-88.330116,37.963308]},"properties":{"NCESSCH":"170000403009","LEAID":"1700004","NAME":"Norris City-Omaha Elem School","STATE":"IL","CITY":"Norris City","ZIP":"62869","CNTY":"17193","NMCNTY":"White County","LOCALE":"43","SCHOOLYEAR":"2024-2025"}},{"type":"Feature","geometry":{"type":"Point","coordinates":[-88.326858,37.974405]},"properties":{"NCESSCH":"170000403010","LEAID":"1700004","NAME":"Norris City-Omaha-Enfield H S","STATE":"IL","CITY":"Norris City","ZIP":"62869","CNTY":"17193","NMCNTY":"White County","LOCALE":"43","SCHOOLYEAR":"2024-2025"}},{"type":"Feature","geometry":{"type":"Point","coordinates":[-88.411475,40.752021]},"properties":{"NCESSCH":"170000502056","LEAID":"1700005","NAME":"Prairie Central Upper Elementary","STATE":"IL","CITY":"Forrest","ZIP":"61741","CNTY":"17105","NMCNTY":"Livingston County","LOCALE":"43","SCHOOLYEAR":"2024-2025"}},{"type":"Feature","geometry":{"type":"Point","coordinates":[-88.506294,40.751846]},"properties":{"NCESSCH":"170000505126","LEAID":"1700005","NAME":"Prairie Central High School","STATE":"IL","CITY":"Fairbury","ZIP":"61739","CNTY":"17105","NMCNTY":"Livingston County","LOCALE":"42","SCHOOLYEAR":"2024-2025"}},{"type":"Feature","geometry":{"type":"Point","coordinates":[-88.413361,40.757261]},"properties":{"NCESSCH":"170000505127","LEAID":"1700005","NAME":"Prairie Central Jr High School","STATE":"IL","CITY":"Forrest","ZIP":"61741","CNTY":"17105","NMCNTY":"Livingston County","LOCALE":"43","SCHOOLYEAR":"2024-2025"}},{"type":"Feature","geometry":{"type":"Point","coordinates":[-88.517315,40.740007]},"properties":{"NCESSCH":"170000505129","LEAID":"1700005","NAME":"Prairie Central  Elem School","STATE":"IL","CITY":"Fairbury","ZIP":"61739","CNTY":"17105","NMCNTY":"Livingston County","LOCALE":"42","SCHOOLYEAR":"2024-2025"}},{"type":"Feature","geometry":{"type":"Point","coordinates":[-88.291659,40.74921]},"properties":{"NCESSCH":"170000505130","LEAID":"1700005","NAME":"Prairie Central Primary East","STATE":"IL","CITY":"Chatsworth","ZIP":"60921","CNTY":"17105","NMCNTY":"Livingston County","LOCALE":"43","SCHOOLYEAR":"2024-2025"}},{"type":"Feature","geometry":{"type":"Point","coordinates":[-88.719101,40.737561]},"properties":{"NCESSCH":"170000505190","LEAID":"1700005","NAME":"Prairie Central Primary West","STATE":"IL","CITY":"Chenoa","ZIP":"61726","CNTY":"17113","NMCNTY":"McLean County","LOCALE":"42","SCHOOLYEAR":"2024-2025"}},{"type":"Feature","geometry":{"type":"Point","coordinates":[-87.687997,41.884126]},"properties":{"NCESSCH":"170000603793","LEAID":"1700006","NAME":"IYC Chicago","STATE":"IL","CITY":"Chicago","ZIP":"60612","CNTY":"17031","NMCNTY":"Cook County","LOCALE":"11","SCHOOLYEAR":"2024-2025"}},{"type":"Feature","geometry":{"type":"Point","coordinates":[-88.210565,41.811373]},"properties":{"NCESSCH":"170000604460","LEAID":"1700006","NAME":"Illinois Youth Center-Warrenville","STATE":"IL","CITY":"Naperville","ZIP":"60563","CNTY":"17043","NMCNTY":"DuPage County","LOCALE":"21","SCHOOLYEAR":"2024-2025"}},{"type":"Feature","geometry":{"type":"Point","coordinates":[-88.373795,41.907921]},"properties":{"NCESSCH":"170000604464","LEAID":"1700006","NAME":"Illinois Youth Ctr - St Charles","STATE":"IL","CITY":"Saint Charles","ZIP":"60175","CNTY":"17089","NMCNTY":"Kane County","LOCALE":"41","SCHOOLYEAR":"2024-2025"}},{"type":"Feature","geometry":{"type":"Point","coordinates":[-90.46309,38.973173]},"properties":{"NCESSCH":"170000604488","LEAID":"1700006","NAME":"Il Youth Center - Pere Marquette","STATE":"IL","CITY":"Grafton","ZIP":"62037","CNTY":"17083","NMCNTY":"Jersey County","LOCALE":"42","SCHOOLYEAR":"2024-2025"}},{"type":"Feature","geometry":{"type":"Point","coordinates":[-88.559779,37.735451]},"properties":{"NCESSCH":"170000604902","LEAID":"1700006","NAME":"School District 428 IYC-HRB","STATE":"IL","CITY":"Harrisburg","ZIP":"62946","CNTY":"17165","NMCNTY":"Saline County","LOCALE":"33","SCHOOLYEAR":"2024-2025"}},{"type":"Feature","geometry":{"type":"Point","coordinates":[-89.739987,42.148665]},"properties":{"NCESSCH":"170000703846","LEAID":"1700007","NAME":"Eastland Elementary School","STATE":"IL","CITY":"Shannon","ZIP":"61078","CNTY":"17015","NMCNTY":"Carroll County","LOCALE":"42","SCHOOLYEAR":"2024-2025"}},{"type":"Feature","geometry":{"type":"Point","coordinates":[-89.8297,42.0968]},"properties":{"NCESSCH":"170000705083","LEAID":"1700007","NAME":"Eastland Jr/Sr High School","STATE":"IL","CITY":"Lanark","ZIP":"61046","CNTY":"17015","NMCNTY":"Carroll County","LOCALE":"43","SCHOOLYEAR":"2024-2025"}},{"type":"Feature","geometry":{"type":"Point","coordinates":[-89.385012,38.079707]},"properties":{"NCESSCH":"170000903322","LEAID":"1700009","NAME":"Pinckneyville Elem School","STATE":"IL","CITY":"Pinckneyville","ZIP":"62274","CNTY":"17145","NMCNTY":"Perry County","LOCALE":"42","SCHOOLYEAR":"2024-2025"}},{"type":"Feature","geometry":{"type":"Point","coordinates":[-89.3723,38.0787]},"properties":{"NCESSCH":"170000903323","LEAID":"1700009","NAME":"Pinckneyville Middle School","STATE":"IL","CITY":"Pinckneyville","ZIP":"62274","CNTY":"17145","NMCNTY":"Perry County","LOCALE":"42","SCHOOLYEAR":"2024-2025"}},{"type":"Feature","geometry":{"type":"Point","coordinates":[-87.850555,42.428664]},"properties":{"NCESSCH":"170001000022","LEAID":"1700010","NAME":"Kenneth Murphy School","STATE":"IL","CITY":"Beach Park","ZIP":"60099","CNTY":"17097","NMCNTY":"Lake County","LOCALE":"21","SCHOOLYEAR":"2024-2025"}},{"type":"Feature","geometry":{"type":"Point","coordinates":[-87.856193,42.422047]},"properties":{"NCESSCH":"170001000211","LEAID":"1700010","NAME":"Oak Crest School","STATE":"IL","CITY":"Beach Park","ZIP":"60099","CNTY":"17097","NMCNTY":"Lake County","LOCALE":"21","SCHOOLYEAR":"2024-2025"}},{"type":"Feature","geometry":{"type":"Point","coordinates":[-87.83102,42.419944]},"properties":{"NCESSCH":"170001000212","LEAID":"1700010","NAME":"Howe Elementary School","STATE":"IL","CITY":"Beach Park","ZIP":"60087","CNTY":"17097","NMCNTY":"Lake County","LOCALE":"21","SCHOOLYEAR":"2024-2025"}},{"type":"Feature","geometry":{"type":"Point","coordinates":[-87.877866,42.452985]},"properties":{"NCESSCH":"170001000213","LEAID":"1700010","NAME":"Beach Park Middle School","STATE":"IL","CITY":"Beach Park","ZIP":"60099","CNTY":"17097","NMCNTY":"Lake County","LOCALE":"21","SCHOOLYEAR":"2024-2025"}},{"type":"Feature","geometry":{"type":"Point","coordinates":[-87.937295,42.462979]},"properties":{"NCESSCH":"170001005141","LEAID":"1700010","NAME":"Newport Elem School","STATE":"IL","CITY":"Wadsworth","ZIP":"60083","CNTY":"17097","NMCNTY":"Lake County","LOCALE":"41","SCHOOLYEAR":"2024-2025"}},{"type":"Feature","geometry":{"type":"Point","coordinates":[-88.978411,37.553769]},"properties":{"NCESSCH":"170001405224","LEAID":"1700014","NAME":"Goreville High School","STATE":"IL","CITY":"Goreville","ZIP":"62939","CNTY":"17087","NMCNTY":"Johnson County","LOCALE":"43","SCHOOLYEAR":"2024-2025"}},{"type":"Feature","geometry":{"type":"Point","coordinates":[-88.978411,37.553769]},"properties":{"NCESSCH":"170001405225","LEAID":"1700014","NAME":"Goreville Elementary School","STATE":"IL","CITY":"Goreville","ZIP":"62939","CNTY":"17087","NMCNTY":"Johnson County","LOCALE":"43","SCHOOLYEAR":"2024-2025"}},{"type":"Feature","geometry":{"type":"Point","coordinates":[-88.845227,37.212932]},"properties":{"NCESSCH":"170001505226","LEAID":"1700015","NAME":"Joppa Jr & Sr High School","STATE":"IL","CITY":"Joppa","ZIP":"62953","CNTY":"17127","NMCNTY":"Massac County","LOCALE":"42","SCHOOLYEAR":"2024-2025"}},{"type":"Feature","geometry":{"type":"Point","coordinates":[-88.845227,37.212932]},"properties":{"NCESSCH":"170001505227","LEAID":"1700015","NAME":"Maple Grove Elem School","STATE":"IL","CITY":"Joppa","ZIP":"62953","CNTY":"17127","NMCNTY":"Massac County","LOCALE":"42","SCHOOLYEAR":"2024-2025"}},{"type":"Feature","geometry":{"type":"Point","coordinates":[-87.69074,39.384147]},"properties":{"NCESSCH":"170002300685","LEAID":"1700023","NAME":"H E L P  Marshall","STATE":"IL","CITY":"Marshall","ZIP":"62441","CNTY":"17023","NMCNTY":"Clark County","LOCALE":"42","SCHOOLYEAR":"2024-2025"}},{"type":"Feature","geometry":{"type":"Point","coordinates":[-88.553353,39.119664]},"properties":{"NCESSCH":"170002301922","LEAID":"1700023","NAME":"Fresh Start Treatment & Learning","STATE":"IL","CITY":"Effingham","ZIP":"62401","CNTY":"17049","NMCNTY":"Effingham County","LOCALE":"33","SCHOOLYEAR":"2024-2025"}},{"type":"Feature","geometry":{"type":"Point","coordinates":[-88.3172,39.6065]},"properties":{"NCESSCH":"170002304730","LEAID":"1700023","NAME":"Treatment & Learning Center-H","STATE":"IL","CITY":"Humboldt","ZIP":"61931","CNTY":"17029","NMCNTY":"Coles County","LOCALE":"42","SCHOOLYEAR":"2024-2025"}},{"type":"Feature","geometry":{"type":"Point","coordinates":[-88.38468,39.486047]},"properties":{"NCESSCH":"170002304731","LEAID":"1700023","NAME":"LIFE Academy","STATE":"IL","CITY":"Mattoon","ZIP":"61938","CNTY":"17029","NMCNTY":"Coles County","LOCALE":"32","SCHOOLYEAR":"2024-2025"}},{"type":"Feature","geometry":{"type":"Point","coordinates":[-87.934243,39.552826]},"properties":{"NCESSCH":"170002305042","LEAID":"1700023","NAME":"Treatment & Learning Center","STATE":"IL","CITY":"Kansas","ZIP":"61933","CNTY":"17045","NMCNTY":"Edgar County","LOCALE":"43","SCHOOLYEAR":"2024-2025"}},{"type":"Feature","geometry":{"type":"Point","coordinates":[-88.376933,39.465722]},"properties":{"NCESSCH":"170002306578","LEAID":"1700023","NAME":"Adult LIFE Academy","STATE":"IL","CITY":"Mattoon","ZIP":"61938","CNTY":"17029","NMCNTY":"Coles County","LOCALE":"32","SCHOOLYEAR":"2024-2025"}},{"type":"Feature","geometry":{"type":"Point","coordinates":[-88.4598,39.320419]},"properties":{"NCESSCH":"170002306758","LEAID":"1700023","NAME":"HELP Neoga","STATE":"IL","CITY":"Neoga","ZIP":"62447","CNTY":"17035","NMCNTY":"Cumberland County","LOCALE":"42","SCHOOLYEAR":"2024-2025"}},{"type":"Feature","geometry":{"type":"Point","coordinates":[-88.375491,39.481776]},"properties":{"NCESSCH":"170002306928","LEAID":"1700023","NAME":"OnTRACC","STATE":"IL","CITY":"Mattoon","ZIP":"61938","CNTY":"17029","NMCNTY":"Coles County","LOCALE":"32","SCHOOLYEAR":"2024-2025"}},{"type":"Feature","geometry":{"type":"Point","coordinates":[-87.757423,41.75345]},"properties":{"NCESSCH":"170002406893","LEAID":"1700024","NAME":"A.E.R.O. Therapeutic Center","STATE":"IL","CITY":"Burbank","ZIP":"60459","CNTY":"17031","NMCNTY":"Cook County","LOCALE":"21","SCHOOLYEAR":"2024-2025"}},{"type":"Feature","geometry":{"type":"Point","coordinates":[-87.663784,41.511129]},"properties":{"NCESSCH":"170002901305","LEAID":"1700029","NAME":"Speed Program for Adaptive Learn","STATE":"IL","CITY":"Chicago Heights","ZIP":"60411","CNTY":"17031","NMCNTY":"Cook County","LOCALE":"21","SCHOOLYEAR":"2024-2025"}},{"type":"Feature","geometry":{"type":"Point","coordinates":[-87.663784,41.511129]},"properties":{"NCESSCH":"170002901314","LEAID":"1700029","NAME":"Speed Independence High School","STATE":"IL","CITY":"Chicago Heights","ZIP":"60411","CNTY":"17031","NMCNTY":"Cook County","LOCALE":"21","SCHOOLYEAR":"2024-2025"}},{"type":"Feature","geometry":{"type":"Point","coordinates":[-87.663784,41.511129]},"properties":{"NCESSCH":"170002901323","LEAID":"1700029","NAME":"Speed Independence Elem Sch","STATE":"IL","CITY":"Chicago Heights","ZIP":"60411","CNTY":"17031","NMCNTY":"Cook County","LOCALE":"21","SCHOOLYEAR":"2024-2025"}},{"type":"Feature","geometry":{"type":"Point","coordinates":[-87.663784,41.511129]},"properties":{"NCESSCH":"170002904498","LEAID":"1700029","NAME":"Speed Early Learning Center","STATE":"IL","CITY":"Chicago Heights","ZIP":"60411","CNTY":"17031","NMCNTY":"Cook County","LOCALE":"21","SCHOOLYEAR":"2024-2025"}},{"type":"Feature","geometry":{"type":"Point","coordinates":[-87.655541,41.523509]},"properties":{"NCESSCH":"170002906337","LEAID":"1700029","NAME":"Acad for Lifelong Learning","STATE":"IL","CITY":"Chicago Heights","ZIP":"60411","CNTY":"17031","NMCNTY":"Cook County","LOCALE":"21","SCHOOLYEAR":"2024-2025"}},{"type":"Feature","geometry":{"type":"Point","coordinates":[-87.845732,41.871949]},"properties":{"NCESSCH":"170003001966","LEAID":"1700030","NAME":"PAEC Education Center  EC","STATE":"IL","CITY":"Maywood","ZIP":"60153","CNTY":"17031","NMCNTY":"Cook County","LOCALE":"21","SCHOOLYEAR":"2024-2025"}},{"type":"Feature","geometry":{"type":"Point","coordinates":[-87.845732,41.871949]},"properties":{"NCESSCH":"170003004485","LEAID":"1700030","NAME":"PAEC Alternative Elementary","STATE":"IL","CITY":"Maywood","ZIP":"60153","CNTY":"17031","NMCNTY":"Cook County","LOCALE":"21","SCHOOLYEAR":"2024-2025"}},{"type":"Feature","geometry":{"type":"Point","coordinates":[-87.845732,41.871949]},"properties":{"NCESSCH":"170003004486","LEAID":"1700030","NAME":"PAEC Alternative High School","STATE":"IL","CITY":"Maywood","ZIP":"60153","CNTY":"17031","NMCNTY":"Cook County","LOCALE":"21","SCHOOLYEAR":"2024-2025"}},{"type":"Feature","geometry":{"type":"Point","coordinates":[-87.845372,41.872804]},"properties":{"NCESSCH":"170003004490","LEAID":"1700030","NAME":"Proviso Area Except Child Center","STATE":"IL","CITY":"Maywood","ZIP":"60153","CNTY":"17031","NMCNTY":"Cook County","LOCALE":"21","SCHOOLYEAR":"2024-2025"}},{"type":"Feature","geometry":{"type":"Point","coordinates":[-87.875336,41.854625]},"properties":{"NCESSCH":"170003006266","LEAID":"1700030","NAME":"PAEC Academy","STATE":"IL","CITY":"Westchester","ZIP":"60154","CNTY":"17031","NMCNTY":"Cook County","LOCALE":"21","SCHOOLYEAR":"2024-2025"}},{"type":"Feature","geometry":{"type":"Point","coordinates":[-87.821067,42.165848]},"properties":{"NCESSCH":"170003104501","LEAID":"1700031","NAME":"North Shore Academy","STATE":"IL","CITY":"Highland Park","ZIP":"60035","CNTY":"17097","NMCNTY":"Lake County","LOCALE":"21","SCHOOLYEAR":"2024-2025"}},{"type":"Feature","geometry":{"type":"Point","coordinates":[-87.821133,42.166487]},"properties":{"NCESSCH":"170003105831","LEAID":"1700031","NAME":"North Shore Academy Elem","STATE":"IL","CITY":"Highland Park","ZIP":"60035","CNTY":"17097","NMCNTY":"Lake County","LOCALE":"21","SCHOOLYEAR":"2024-2025"}},{"type":"Feature","geometry":{"type":"Point","coordinates":[-87.819826,42.165971]},"properties":{"NCESSCH":"170003105832","LEAID":"1700031","NAME":"Ed & Life Skills Transition","STATE":"IL","CITY":"Highland Park","ZIP":"60035","CNTY":"17097","NMCNTY":"Lake County","LOCALE":"21","SCHOOLYEAR":"2024-2025"}},{"type":"Feature","geometry":{"type":"Point","coordinates":[-87.821067,42.165848]},"properties":{"NCESSCH":"170003105833","LEAID":"1700031","NAME":"Arbor Academy","STATE":"IL","CITY":"Highland Park","ZIP":"60035","CNTY":"17097","NMCNTY":"Lake County","LOCALE":"21","SCHOOLYEAR":"2024-2025"}},{"type":"Feature","geometry":{"type":"Point","coordinates":[-87.9674,42.1281]},"properties":{"NCESSCH":"170003201603","LEAID":"1700032","NAME":"Riley School-DHH Elem Prgrm","STATE":"IL","CITY":"Arlington Heights","ZIP":"60004","CNTY":"17031","NMCNTY":"Cook County","LOCALE":"21","SCHOOLYEAR":"2024-2025"}},{"type":"Feature","geometry":{"type":"Point","coordinates":[-87.9522,42.0797]},"properties":{"NCESSCH":"170003203950","LEAID":"1700032","NAME":"Timber Ridge School","STATE":"IL","CITY":"Arlington Heights","ZIP":"60004","CNTY":"17031","NMCNTY":"Cook County","LOCALE":"21","SCHOOLYEAR":"2024-2025"}},{"type":"Feature","geometry":{"type":"Point","coordinates":[-88.0447,42.1009]},"properties":{"NCESSCH":"170003205094","LEAID":"1700032","NAME":"Kirk School","STATE":"IL","CITY":"Palatine","ZIP":"60067","CNTY":"17031","NMCNTY":"Cook County","LOCALE":"21","SCHOOLYEAR":"2024-2025"}},{"type":"Feature","geometry":{"type":"Point","coordinates":[-87.969771,42.084126]},"properties":{"NCESSCH":"170003205095","LEAID":"1700032","NAME":"Miner School","STATE":"IL","CITY":"Arlington Heights","ZIP":"60004","CNTY":"17031","NMCNTY":"Cook County","LOCALE":"21","SCHOOLYEAR":"2024-2025"}},{"type":"Feature","geometry":{"type":"Point","coordinates":[-87.917849,42.039191]},"properties":{"NCESSCH":"170003206204","LEAID":"1700032","NAME":"Terrace School-D/HH EC Program","STATE":"IL","CITY":"Des Plaines","ZIP":"60016","CNTY":"17031","NMCNTY":"Cook County","LOCALE":"13","SCHOOLYEAR":"2024-2025"}},{"type":"Feature","geometry":{"type":"Point","coordinates":[-87.949233,42.108947]},"properties":{"NCESSCH":"170003206216","LEAID":"1700032","NAME":"MacArthur MS-D/HH MS Program","STATE":"IL","CITY":"Prospect Heights","ZIP":"60070","CNTY":"17031","NMCNTY":"Cook County","LOCALE":"21","SCHOOLYEAR":"2024-2025"}},{"type":"Feature","geometry":{"type":"Point","coordinates":[-87.959381,42.103782]},"properties":{"NCESSCH":"170003206222","LEAID":"1700032","NAME":"Hersey HS-D/HH HS Program","STATE":"IL","CITY":"Prospect Hts","ZIP":"60070","CNTY":"17031","NMCNTY":"Cook County","LOCALE":"21","SCHOOLYEAR":"2024-2025"}},{"type":"Feature","geometry":{"type":"Point","coordinates":[-88.05183,41.861607]},"properties":{"NCESSCH":"170003905229","LEAID":"1700039","NAME":"Philip J Rock Center & School","STATE":"IL","CITY":"Glen Ellyn","ZIP":"60137","CNTY":"17043","NMCNTY":"DuPage County","LOCALE":"21","SCHOOLYEAR":"2024-2025"}},{"type":"Feature","geometry":{"type":"Point","coordinates":[-88.3746,40.4748]},"properties":{"NCESSCH":"170004100254","LEAID":"1700041","NAME":"GCMS High School","STATE":"IL","CITY":"Gibson City","ZIP":"60936","CNTY":"17053","NMCNTY":"Ford County","LOCALE":"42","SCHOOLYEAR":"2024-2025"}},{"type":"Feature","geometry":{"type":"Point","coordinates":[-88.3718,40.4807]},"properties":{"NCESSCH":"170004100268","LEAID":"1700041","NAME":"GCMS Middle School","STATE":"IL","CITY":"Gibson City","ZIP":"60936","CNTY":"17053","NMCNTY":"Ford County","LOCALE":"42","SCHOOLYEAR":"2024-2025"}},{"type":"Feature","geometry":{"type":"Point","coordinates":[-88.3727,40.4756]},"properties":{"NCESSCH":"170004100272","LEAID":"1700041","NAME":"GCMS Elementary School","STATE":"IL","CITY":"Gibson City","ZIP":"60936","CNTY":"17053","NMCNTY":"Ford County","LOCALE":"42","SCHOOLYEAR":"2024-2025"}},{"type":"Feature","geometry":{"type":"Point","coordinates":[-89.98374,40.693128]},"properties":{"NCESSCH":"170004405230","LEAID":"1700044","NAME":"Farmington Central High Sch","STATE":"IL","CITY":"Farmington","ZIP":"61531","CNTY":"17143","NMCNTY":"Peoria County","LOCALE":"42","SCHOOLYEAR":"2024-2025"}},{"type":"Feature","geometry":{"type":"Point","coordinates":[-89.98374,40.693128]},"properties":{"NCESSCH":"170004405737","LEAID":"1700044","NAME":"Farmington Central Jr High Sch","STATE":"IL","CITY":"Farmington","ZIP":"61531","CNTY":"17143","NMCNTY":"Peoria County","LOCALE":"42","SCHOOLYEAR":"2024-2025"}},{"type":"Feature","geometry":{"type":"Point","coordinates":[-89.98374,40.693128]},"properties":{"NCESSCH":"170004405738","LEAID":"1700044","NAME":"Farmington Central Elem Sch","STATE":"IL","CITY":"Farmington","ZIP":"61531","CNTY":"17143","NMCNTY":"Peoria County","LOCALE":"42","SCHOOLYEAR":"2024-2025"}},{"type":"Feature","geometry":{"type":"Point","coordinates":[-88.277422,37.741678]},"properties":{"NCESSCH":"170004505236","LEAID":"1700045","NAME":"Gallatin High School","STATE":"IL","CITY":"Junction","ZIP":"62954","CNTY":"17059","NMCNTY":"Gallatin County","LOCALE":"43","SCHOOLYEAR":"2024-2025"}},{"type":"Feature","geometry":{"type":"Point","coordinates":[-88.277422,37.741678]},"properties":{"NCESSCH":"170004505239","LEAID":"1700045","NAME":"Gallatin Elementary School","STATE":"IL","CITY":"Junction","ZIP":"62954","CNTY":"17059","NMCNTY":"Gallatin County","LOCALE":"43","SCHOOLYEAR":"2024-2025"}},{"type":"Feature","geometry":{"type":"Point","coordinates":[-88.277422,37.741678]},"properties":{"NCESSCH":"170004505560","LEAID":"1700045","NAME":"Gallatin Junior High School","STATE":"IL","CITY":"Junction","ZIP":"62954","CNTY":"17059","NMCNTY":"Gallatin County","LOCALE":"43","SCHOOLYEAR":"2024-2025"}},{"type":"Feature","geometry":{"type":"Point","coordinates":[-88.900127,38.314923]},"properties":{"NCESSCH":"170004805562","LEAID":"1700048","NAME":"Oakland Education Center","STATE":"IL","CITY":"Mount Vernon","ZIP":"62864","CNTY":"17081","NMCNTY":"Jefferson County","LOCALE":"33","SCHOOLYEAR":"2024-2025"}},{"type":"Feature","geometry":{"type":"Point","coordinates":[-88.866224,38.327655]},"properties":{"NCESSCH":"170004806577","LEAID":"1700048","NAME":"Communication Disorders / Autism Jefferson County","STATE":"IL","CITY":"Mount Vernon","ZIP":"62864","CNTY":"17081","NMCNTY":"Jefferson County","LOCALE":"33","SCHOOLYEAR":"2024-2025"}},{"type":"Feature","geometry":{"type":"Point","coordinates":[-89.0588,37.9679]},"properties":{"NCESSCH":"170004806835","LEAID":"1700048","NAME":"Franklin-Jefferson SPED Social Em","STATE":"IL","CITY":"Christopher","ZIP":"62822","CNTY":"17055","NMCNTY":"Franklin County","LOCALE":"42","SCHOOLYEAR":"2024-2025"}},{"type":"Feature","geometry":{"type":"Point","coordinates":[-89.067754,38.079863]},"properties":{"NCESSCH":"170004806957","LEAID":"1700048","NAME":"Communication Disorders / Autism Franklin County","STATE":"IL","CITY":"Sesser","ZIP":"62884","CNTY":"17055","NMCNTY":"Franklin County","LOCALE":"42","SCHOOLYEAR":"2024-2025"}},{"type":"Feature","geometry":{"type":"Point","coordinates":[-87.7885,40.6475]},"properties":{"NCESSCH":"170005105565","LEAID":"1700051","NAME":"Bryce Ash Grove Ed Ctr","STATE":"IL","CITY":"Milford","ZIP":"60953","CNTY":"17075","NMCNTY":"Iroquois County","LOCALE":"42","SCHOOLYEAR":"2024-2025"}},{"type":"Feature","geometry":{"type":"Point","coordinates":[-89.2381,38.0147]},"properties":{"NCESSCH":"170005203643","LEAID":"1700052","NAME":"Tri-County Ward","STATE":"IL","CITY":"Du Quoin","ZIP":"62832","CNTY":"17145","NMCNTY":"Perry County","LOCALE":"33","SCHOOLYEAR":"2024-2025"}},{"type":"Feature","geometry":{"type":"Point","coordinates":[-89.242658,37.477627]},"properties":{"NCESSCH":"170005204759","LEAID":"1700052","NAME":"Tri-County South - Choate","STATE":"IL","CITY":"Anna","ZIP":"62906","CNTY":"17181","NMCNTY":"Union County","LOCALE":"32","SCHOOLYEAR":"2024-2025"}},{"type":"Feature","geometry":{"type":"Point","coordinates":[-89.3418,37.7563]},"properties":{"NCESSCH":"170005205825","LEAID":"1700052","NAME":"Tri-County Center","STATE":"IL","CITY":"Murphysboro","ZIP":"62966","CNTY":"17077","NMCNTY":"Jackson County","LOCALE":"41","SCHOOLYEAR":"2024-2025"}},{"type":"Feature","geometry":{"type":"Point","coordinates":[-89.254916,37.456048]},"properties":{"NCESSCH":"170005206857","LEAID":"1700052","NAME":"TCSE-Anna Jonesboro HS","STATE":"IL","CITY":"Anna","ZIP":"62906","CNTY":"17181","NMCNTY":"Union County","LOCALE":"32","SCHOOLYEAR":"2024-2025"}},{"type":"Feature","geometry":{"type":"Point","coordinates":[-89.33826,37.780988]},"properties":{"NCESSCH":"170005206858","LEAID":"1700052","NAME":"TCSE Carruthers Elem","STATE":"IL","CITY":"Murphysboro","ZIP":"62966","CNTY":"17077","NMCNTY":"Jackson County","LOCALE":"32","SCHOOLYEAR":"2024-2025"}},{"type":"Feature","geometry":{"type":"Point","coordinates":[-89.223566,37.81971]},"properties":{"NCESSCH":"170005206859","LEAID":"1700052","NAME":"TCSE-DESOTO ELEM","STATE":"IL","CITY":"De Soto","ZIP":"62924","CNTY":"17077","NMCNTY":"Jackson County","LOCALE":"41","SCHOOLYEAR":"2024-2025"}},{"type":"Feature","geometry":{"type":"Point","coordinates":[-89.230557,38.007034]},"properties":{"NCESSCH":"170005206860","LEAID":"1700052","NAME":"TCSE-DUQUOIN HS","STATE":"IL","CITY":"Du Quoin","ZIP":"62832","CNTY":"17145","NMCNTY":"Perry County","LOCALE":"33","SCHOOLYEAR":"2024-2025"}},{"type":"Feature","geometry":{"type":"Point","coordinates":[-89.225264,38.000956]},"properties":{"NCESSCH":"170005206861","LEAID":"1700052","NAME":"TCSE-DUQUOIN MS","STATE":"IL","CITY":"Du Quoin","ZIP":"62832","CNTY":"17145","NMCNTY":"Perry County","LOCALE":"33","SCHOOLYEAR":"2024-2025"}},{"type":"Feature","geometry":{"type":"Point","coordinates":[-89.275213,37.450357]},"properties":{"NCESSCH":"170005206862","LEAID":"1700052","NAME":"TCSE-JONESBORO GRADE SCH","STATE":"IL","CITY":"Jonesboro","ZIP":"62952","CNTY":"17181","NMCNTY":"Union County","LOCALE":"32","SCHOOLYEAR":"2024-2025"}},{"type":"Feature","geometry":{"type":"Point","coordinates":[-89.340433,37.808103]},"properties":{"NCESSCH":"170005206863","LEAID":"1700052","NAME":"TCSE-MCELVAIN EC","STATE":"IL","CITY":"Murphysboro","ZIP":"62966","CNTY":"17077","NMCNTY":"Jackson County","LOCALE":"41","SCHOOLYEAR":"2024-2025"}},{"type":"Feature","geometry":{"type":"Point","coordinates":[-89.344994,37.782741]},"properties":{"NCESSCH":"170005206864","LEAID":"1700052","NAME":"TCSE-MURPHYSBORO HS","STATE":"IL","CITY":"Murphysboro","ZIP":"62966","CNTY":"17077","NMCNTY":"Jackson County","LOCALE":"32","SCHOOLYEAR":"2024-2025"}},{"type":"Feature","geometry":{"type":"Point","coordinates":[-89.228568,37.67087]},"properties":{"NCESSCH":"170005206865","LEAID":"1700052","NAME":"TCSE-UNITY POINT ELEM","STATE":"IL","CITY":"Carbondale","ZIP":"62903","CNTY":"17077","NMCNTY":"Jackson County","LOCALE":"41","SCHOOLYEAR":"2024-2025"}},{"type":"Feature","geometry":{"type":"Point","coordinates":[-89.187076,37.725611]},"properties":{"NCESSCH":"170005206866","LEAID":"1700052","NAME":"TCSE-CARBONDALE HS","STATE":"IL","CITY":"Carbondale","ZIP":"62902","CNTY":"17077","NMCNTY":"Jackson County","LOCALE":"32","SCHOOLYEAR":"2024-2025"}},{"type":"Feature","geometry":{"type":"Point","coordinates":[-89.21153,37.733906]},"properties":{"NCESSCH":"170005206867","LEAID":"1700052","NAME":"Eurma C Hayes Center","STATE":"IL","CITY":"Carbondale","ZIP":"62901","CNTY":"17077","NMCNTY":"Jackson County","LOCALE":"32","SCHOOLYEAR":"2024-2025"}},{"type":"Feature","geometry":{"type":"Point","coordinates":[-89.34144,37.77298]},"properties":{"NCESSCH":"170005206907","LEAID":"1700052","NAME":"TCSE ASPIRE Academy","STATE":"IL","CITY":"Murphysboro","ZIP":"62966","CNTY":"17077","NMCNTY":"Jackson County","LOCALE":"32","SCHOOLYEAR":"2024-2025"}},{"type":"Feature","geometry":{"type":"Point","coordinates":[-88.2938,41.9068]},"properties":{"NCESSCH":"170005404841","LEAID":"1700054","NAME":"Mades-Johnstone Center","STATE":"IL","CITY":"St Charles","ZIP":"60174","CNTY":"17089","NMCNTY":"Kane County","LOCALE":"21","SCHOOLYEAR":"2024-2025"}},{"type":"Feature","geometry":{"type":"Point","coordinates":[-88.2938,41.9068]},"properties":{"NCESSCH":"170005406629","LEAID":"1700054","NAME":"Mid-Valley Satellite Classes","STATE":"IL","CITY":"St Charles","ZIP":"60174","CNTY":"17089","NMCNTY":"Kane County","LOCALE":"21","SCHOOLYEAR":"2024-2025"}},{"type":"Feature","geometry":{"type":"Point","coordinates":[-88.2938,41.9068]},"properties":{"NCESSCH":"170005406638","LEAID":"1700054","NAME":"Mid-Valley Transition Program","STATE":"IL","CITY":"St Charles","ZIP":"60174","CNTY":"17089","NMCNTY":"Kane County","LOCALE":"21","SCHOOLYEAR":"2024-2025"}},{"type":"Feature","geometry":{"type":"Point","coordinates":[-87.721438,41.022358]},"properties":{"NCESSCH":"170005605105","LEAID":"1700056","NAME":"KASEC Alternative Day Program","STATE":"IL","CITY":"Saint Anne","ZIP":"60964","CNTY":"17091","NMCNTY":"Kankakee County","LOCALE":"42","SCHOOLYEAR":"2024-2025"}},{"type":"Feature","geometry":{"type":"Point","coordinates":[-87.776391,41.191195]},"properties":{"NCESSCH":"170005606397","LEAID":"1700056","NAME":"KASEC Communications Program","STATE":"IL","CITY":"Bourbonnais","ZIP":"60914","CNTY":"17091","NMCNTY":"Kankakee County","LOCALE":"41","SCHOOLYEAR":"2024-2025"}},{"type":"Feature","geometry":{"type":"Point","coordinates":[-87.724218,41.02071]},"properties":{"NCESSCH":"170005606870","LEAID":"1700056","NAME":"KASEC Transition Program","STATE":"IL","CITY":"Saint Anne","ZIP":"60964","CNTY":"17091","NMCNTY":"Kankakee County","LOCALE":"42","SCHOOLYEAR":"2024-2025"}},{"type":"Feature","geometry":{"type":"Point","coordinates":[-87.985679,42.355978]},"properties":{"NCESSCH":"170005904440","LEAID":"1700059","NAME":"Gages Lake School","STATE":"IL","CITY":"Gages Lake","ZIP":"60030","CNTY":"17097","NMCNTY":"Lake County","LOCALE":"21","SCHOOLYEAR":"2024-2025"}},{"type":"Feature","geometry":{"type":"Point","coordinates":[-87.971121,42.2422]},"properties":{"NCESSCH":"170005904468","LEAID":"1700059","NAME":"John Powers Center","STATE":"IL","CITY":"Vernon Hills","ZIP":"60061","CNTY":"17097","NMCNTY":"Lake County","LOCALE":"21","SCHOOLYEAR":"2024-2025"}},{"type":"Feature","geometry":{"type":"Point","coordinates":[-87.982263,42.354933]},"properties":{"NCESSCH":"170005904472","LEAID":"1700059","NAME":"Laremont School","STATE":"IL","CITY":"Gages Lake","ZIP":"60030","CNTY":"17097","NMCNTY":"Lake County","LOCALE":"21","SCHOOLYEAR":"2024-2025"}},{"type":"Feature","geometry":{"type":"Point","coordinates":[-87.983885,42.355359]},"properties":{"NCESSCH":"170005905106","LEAID":"1700059","NAME":"Cyd Lash Academy","STATE":"IL","CITY":"Gages Lake","ZIP":"60030","CNTY":"17097","NMCNTY":"Lake County","LOCALE":"21","SCHOOLYEAR":"2024-2025"}},{"type":"Feature","geometry":{"type":"Point","coordinates":[-87.971121,42.2422]},"properties":{"NCESSCH":"170005906153","LEAID":"1700059","NAME":"Transition","STATE":"IL","CITY":"Vernon Hills","ZIP":"60061","CNTY":"17097","NMCNTY":"Lake County","LOCALE":"21","SCHOOLYEAR":"2024-2025"}},{"type":"Feature","geometry":{"type":"Point","coordinates":[-87.986188,42.353967]},"properties":{"NCESSCH":"170005906317","LEAID":"1700059","NAME":"SEDOL Sector Programs","STATE":"IL","CITY":"Gages Lake","ZIP":"60030","CNTY":"17097","NMCNTY":"Lake County","LOCALE":"21","SCHOOLYEAR":"2024-2025"}},{"type":"Feature","geometry":{"type":"Point","coordinates":[-88.016138,42.268453]},"properties":{"NCESSCH":"170005906748","LEAID":"1700059","NAME":"South School","STATE":"IL","CITY":"Mundelein","ZIP":"60060","CNTY":"17097","NMCNTY":"Lake County","LOCALE":"21","SCHOOLYEAR":"2024-2025"}},{"type":"Feature","geometry":{"type":"Point","coordinates":[-87.995042,42.264383]},"properties":{"NCESSCH":"170005906782","LEAID":"1700059","NAME":"Fairhaven School","STATE":"IL","CITY":"Mundelein","ZIP":"60060","CNTY":"17097","NMCNTY":"Lake County","LOCALE":"21","SCHOOLYEAR":"2024-2025"}},{"type":"Feature","geometry":{"type":"Point","coordinates":[-88.409942,40.890625]},"properties":{"NCESSCH":"170006505246","LEAID":"1700065","NAME":"Saunemin Elem School","STATE":"IL","CITY":"Saunemin","ZIP":"61769","CNTY":"17105","NMCNTY":"Livingston County","LOCALE":"43","SCHOOLYEAR":"2024-2025"}},{"type":"Feature","geometry":{"type":"Point","coordinates":[-88.949205,39.862819]},"properties":{"NCESSCH":"170006906364","LEAID":"1700069","NAME":"Social-Emotional Learning Academy","STATE":"IL","CITY":"Decatur","ZIP":"62526","CNTY":"17115","NMCNTY":"Macon County","LOCALE":"13","SCHOOLYEAR":"2024-2025"}},{"type":"Feature","geometry":{"type":"Point","coordinates":[-89.138174,38.504594]},"properties":{"NCESSCH":"170007403419","LEAID":"1700074","NAME":"Bridges Learning Center","STATE":"IL","CITY":"Centralia","ZIP":"62801","CNTY":"17121","NMCNTY":"Marion County","LOCALE":"33","SCHOOLYEAR":"2024-2025"}},{"type":"Feature","geometry":{"type":"Point","coordinates":[-89.138174,38.504594]},"properties":{"NCESSCH":"170007405110","LEAID":"1700074","NAME":"Hoyleton Education Center","STATE":"IL","CITY":"Centralia","ZIP":"62801","CNTY":"17121","NMCNTY":"Marion County","LOCALE":"33","SCHOOLYEAR":"2024-2025"}},{"type":"Feature","geometry":{"type":"Point","coordinates":[-89.104021,38.518981]},"properties":{"NCESSCH":"170007405111","LEAID":"1700074","NAME":"Kaskaskia Education Center","STATE":"IL","CITY":"Centralia","ZIP":"62801","CNTY":"17121","NMCNTY":"Marion County","LOCALE":"33","SCHOOLYEAR":"2024-2025"}},{"type":"Feature","geometry":{"type":"Point","coordinates":[-88.595063,42.244967]},"properties":{"NCESSCH":"170007703147","LEAID":"1700077","NAME":"Marengo Comm Middle School","STATE":"IL","CITY":"Marengo","ZIP":"60152","CNTY":"17111","NMCNTY":"McHenry County","LOCALE":"31","SCHOOLYEAR":"2024-2025"}},{"type":"Feature","geometry":{"type":"Point","coordinates":[-88.5986,42.2413]},"properties":{"NCESSCH":"170007705249","LEAID":"1700077","NAME":"Locust Elem School","STATE":"IL","CITY":"Marengo","ZIP":"60152","CNTY":"17111","NMCNTY":"McHenry County","LOCALE":"31","SCHOOLYEAR":"2024-2025"}},{"type":"Feature","geometry":{"type":"Point","coordinates":[-88.595063,42.244967]},"properties":{"NCESSCH":"170007706246","LEAID":"1700077","NAME":"Ulysses S Grant Intermediate Sch","STATE":"IL","CITY":"Marengo","ZIP":"60152","CNTY":"17111","NMCNTY":"McHenry County","LOCALE":"31","SCHOOLYEAR":"2024-2025"}},{"type":"Feature","geometry":{"type":"Point","coordinates":[-90.242858,39.716569]},"properties":{"NCESSCH":"170008005349","LEAID":"1700080","NAME":"Ivan K Garrison Center","STATE":"IL","CITY":"Jacksonville","ZIP":"62650","CNTY":"17137","NMCNTY":"Morgan County","LOCALE":"32","SCHOOLYEAR":"2024-2025"}},{"type":"Feature","geometry":{"type":"Point","coordinates":[-90.242858,39.716569]},"properties":{"NCESSCH":"170008006559","LEAID":"1700080","NAME":"LIFE (Learning in Functional Envi","STATE":"IL","CITY":"Jacksonville","ZIP":"62650","CNTY":"17137","NMCNTY":"Morgan County","LOCALE":"32","SCHOOLYEAR":"2024-2025"}},{"type":"Feature","geometry":{"type":"Point","coordinates":[-90.242858,39.716569]},"properties":{"NCESSCH":"170008006562","LEAID":"1700080","NAME":"Early Childhood","STATE":"IL","CITY":"Jacksonville","ZIP":"62650","CNTY":"17137","NMCNTY":"Morgan County","LOCALE":"32","SCHOOLYEAR":"2024-2025"}},{"type":"Feature","geometry":{"type":"Point","coordinates":[-89.221992,41.981109]},"properties":{"NCESSCH":"170008106042","LEAID":"1700081","NAME":"Chana Educ Center/Rock River","STATE":"IL","CITY":"Chana","ZIP":"61015","CNTY":"17141","NMCNTY":"Ogle County","LOCALE":"42","SCHOOLYEAR":"2024-2025"}},{"type":"Feature","geometry":{"type":"Point","coordinates":[-89.263368,42.130554]},"properties":{"NCESSCH":"170008106670","LEAID":"1700081","NAME":"OCEC Life Skills","STATE":"IL","CITY":"Byron","ZIP":"61010","CNTY":"17141","NMCNTY":"Ogle County","LOCALE":"31","SCHOOLYEAR":"2024-2025"}},{"type":"Feature","geometry":{"type":"Point","coordinates":[-90.387016,41.494168]},"properties":{"NCESSCH":"170008405113","LEAID":"1700084","NAME":"Phoenix Program","STATE":"IL","CITY":"Carbon Cliff","ZIP":"61239","CNTY":"17161","NMCNTY":"Rock Island County","LOCALE":"21","SCHOOLYEAR":"2024-2025"}},{"type":"Feature","geometry":{"type":"Point","coordinates":[-90.436135,41.484298]},"properties":{"NCESSCH":"170008406326","LEAID":"1700084","NAME":"Black Hawk Area Special Ed Ctr","STATE":"IL","CITY":"East Moline","ZIP":"61244","CNTY":"17161","NMCNTY":"Rock Island County","LOCALE":"21","SCHOOLYEAR":"2024-2025"}},{"type":"Feature","geometry":{"type":"Point","coordinates":[-90.435487,41.484811]},"properties":{"NCESSCH":"170008406662","LEAID":"1700084","NAME":"Black Hawk Area DHH Program","STATE":"IL","CITY":"East Moline","ZIP":"61244","CNTY":"17161","NMCNTY":"Rock Island County","LOCALE":"21","SCHOOLYEAR":"2024-2025"}},{"type":"Feature","geometry":{"type":"Point","coordinates":[-90.435487,41.484811]},"properties":{"NCESSCH":"170008406836","LEAID":"1700084","NAME":"ACHIEVE Program","STATE":"IL","CITY":"East Moline","ZIP":"61244","CNTY":"17161","NMCNTY":"Rock Island County","LOCALE":"21","SCHOOLYEAR":"2024-2025"}},{"type":"Feature","geometry":{"type":"Point","coordinates":[-89.608155,40.573611]},"properties":{"NCESSCH":"170009104616","LEAID":"1700091","NAME":"Schramm Education Center","STATE":"IL","CITY":"Pekin","ZIP":"61554","CNTY":"17179","NMCNTY":"Tazewell County","LOCALE":"21","SCHOOLYEAR":"2024-2025"}},{"type":"Feature","geometry":{"type":"Point","coordinates":[-89.617726,40.620452]},"properties":{"NCESSCH":"170009106913","LEAID":"1700091","NAME":"Rogers Academy","STATE":"IL","CITY":"North Pekin","ZIP":"61554","CNTY":"17179","NMCNTY":"Tazewell County","LOCALE":"21","SCHOOLYEAR":"2024-2025"}},{"type":"Feature","geometry":{"type":"Point","coordinates":[-87.641046,39.972427]},"properties":{"NCESSCH":"170009205255","LEAID":"1700092","NAME":"Georgetown-Ridge Farm High School","STATE":"IL","CITY":"Georgetown","ZIP":"61846","CNTY":"17183","NMCNTY":"Vermilion County","LOCALE":"42","SCHOOLYEAR":"2024-2025"}},{"type":"Feature","geometry":{"type":"Point","coordinates":[-87.639765,39.975096]},"properties":{"NCESSCH":"170009205256","LEAID":"1700092","NAME":"Mary Miller Junior High School","STATE":"IL","CITY":"Georgetown","ZIP":"61846","CNTY":"17183","NMCNTY":"Vermilion County","LOCALE":"42","SCHOOLYEAR":"2024-2025"}},{"type":"Feature","geometry":{"type":"Point","coordinates":[-87.626231,39.970723]},"properties":{"NCESSCH":"170009205258","LEAID":"1700092","NAME":"Pine Crest Elementary School","STATE":"IL","CITY":"Georgetown","ZIP":"61846","CNTY":"17183","NMCNTY":"Vermilion County","LOCALE":"42","SCHOOLYEAR":"2024-2025"}},{"type":"Feature","geometry":{"type":"Point","coordinates":[-87.965194,41.50764]},"properties":{"NCESSCH":"170009704503","LEAID":"1700097","NAME":"Martin P McKay Education Center","STATE":"IL","CITY":"New Lenox","ZIP":"60451","CNTY":"17197","NMCNTY":"Will County","LOCALE":"21","SCHOOLYEAR":"2024-2025"}},{"type":"Feature","geometry":{"type":"Point","coordinates":[-87.857138,41.510594]},"properties":{"NCESSCH":"170009705864","LEAID":"1700097","NAME":"Pioneer Grove Educational Center","STATE":"IL","CITY":"Frankfort","ZIP":"60423","CNTY":"17197","NMCNTY":"Will County","LOCALE":"21","SCHOOLYEAR":"2024-2025"}},{"type":"Feature","geometry":{"type":"Point","coordinates":[-87.857138,41.510594]},"properties":{"NCESSCH":"170009706669","LEAID":"1700097","NAME":"LWASE-Self-K-8","STATE":"IL","CITY":"Frankfort","ZIP":"60423","CNTY":"17197","NMCNTY":"Will County","LOCALE":"21","SCHOOLYEAR":"2024-2025"}},{"type":"Feature","geometry":{"type":"Point","coordinates":[-90.252027,39.733593]},"properties":{"NCESSCH":"170009805218","LEAID":"1700098","NAME":"Illinois School for the Deaf","STATE":"IL","CITY":"Jacksonville","ZIP":"62650","CNTY":"17137","NMCNTY":"Morgan County","LOCALE":"32","SCHOOLYEAR":"2024-2025"}},{"type":"Feature","geometry":{"type":"Point","coordinates":[-90.2172,39.7345]},"properties":{"NCESSCH":"170009805219","LEAID":"1700098","NAME":"Il Sch for the Visually Impaired","STATE":"IL","CITY":"Jacksonville","ZIP":"62650","CNTY":"17137","NMCNTY":"Morgan County","LOCALE":"32","SCHOOLYEAR":"2024-2025"}},{"type":"Feature","geometry":{"type":"Point","coordinates":[-87.6755,41.8672]},"properties":{"NCESSCH":"170009805220","LEAID":"1700098","NAME":"IL Center for Rehab & Educ-R","STATE":"IL","CITY":"Chicago","ZIP":"60608","CNTY":"17031","NMCNTY":"Cook County","LOCALE":"11","SCHOOLYEAR":"2024-2025"}},{"type":"Feature","geometry":{"type":"Point","coordinates":[-88.9939,40.509472]},"properties":{"NCESSCH":"170009904504","LEAID":"1700099","NAME":"Thomas Metcalf School","STATE":"IL","CITY":"Normal","ZIP":"61790","CNTY":"17113","NMCNTY":"McLean County","LOCALE":"22","SCHOOLYEAR":"2024-2025"}},{"type":"Feature","geometry":{"type":"Point","coordinates":[-88.996234,40.515732]},"properties":{"NCESSCH":"170009904506","LEAID":"1700099","NAME":"University High School","STATE":"IL","CITY":"Normal","ZIP":"61790","CNTY":"17113","NMCNTY":"McLean County","LOCALE":"22","SCHOOLYEAR":"2024-2025"}},{"type":"Feature","geometry":{"type":"Point","coordinates":[-88.225256,40.113156]},"properties":{"NCESSCH":"170010004505","LEAID":"1700100","NAME":"University of Illinois High Sch","STATE":"IL","CITY":"Urbana","ZIP":"61801","CNTY":"17019","NMCNTY":"Champaign County","LOCALE":"13","SCHOOLYEAR":"2024-2025"}},{"type":"Feature","geometry":{"type":"Point","coordinates":[-88.354713,41.786648]},"properties":{"NCESSCH":"170010105114","LEAID":"1700101","NAME":"Illinois Mathematics and Science","STATE":"IL","CITY":"Aurora","ZIP":"60506","CNTY":"17089","NMCNTY":"Kane County","LOCALE":"21","SCHOOLYEAR":"2024-2025"}},{"type":"Feature","geometry":{"type":"Point","coordinates":[-90.587843,38.947095]},"properties":{"NCESSCH":"170010205345","LEAID":"1700102","NAME":"Brussels High School","STATE":"IL","CITY":"Brussels","ZIP":"62013","CNTY":"17013","NMCNTY":"Calhoun County","LOCALE":"42","SCHOOLYEAR":"2024-2025"}},{"type":"Feature","geometry":{"type":"Point","coordinates":[-90.587843,38.947095]},"properties":{"NCESSCH":"170010205346","LEAID":"1700102","NAME":"Brussels Grade School","STATE":"IL","CITY":"Brussels","ZIP":"62013","CNTY":"17013","NMCNTY":"Calhoun County","LOCALE":"42","SCHOOLYEAR":"2024-2025"}},{"type":"Feature","geometry":{"type":"Point","coordinates":[-89.58593,40.099049]},"properties":{"NCESSCH":"170010305347","LEAID":"1700103","NAME":"New Holland-Middletown Elem Sch","STATE":"IL","CITY":"Middletown","ZIP":"62666","CNTY":"17107","NMCNTY":"Logan County","LOCALE":"42","SCHOOLYEAR":"2024-2025"}},{"type":"Feature","geometry":{"type":"Point","coordinates":[-90.012787,39.892816]},"properties":{"NCESSCH":"170010500245","LEAID":"1700105","NAME":"A-C Central Middle School","STATE":"IL","CITY":"Ashland","ZIP":"62612","CNTY":"17017","NMCNTY":"Cass County","LOCALE":"42","SCHOOLYEAR":"2024-2025"}},{"type":"Feature","geometry":{"type":"Point","coordinates":[-90.012787,39.892816]},"properties":{"NCESSCH":"170010505357","LEAID":"1700105","NAME":"A-C Central High School","STATE":"IL","CITY":"Ashland","ZIP":"62612","CNTY":"17017","NMCNTY":"Cass County","LOCALE":"42","SCHOOLYEAR":"2024-2025"}},{"type":"Feature","geometry":{"type":"Point","coordinates":[-90.149368,40.047375]},"properties":{"NCESSCH":"170010505359","LEAID":"1700105","NAME":"A-C Central Elementary School","STATE":"IL","CITY":"Chandlerville","ZIP":"62627","CNTY":"17017","NMCNTY":"Cass County","LOCALE":"43","SCHOOLYEAR":"2024-2025"}},{"type":"Feature","geometry":{"type":"Point","coordinates":[-87.993461,39.907059]},"properties":{"NCESSCH":"170010605361","LEAID":"1700106","NAME":"Heritage High School","STATE":"IL","CITY":"Broadlands","ZIP":"61816","CNTY":"17019","NMCNTY":"Champaign County","LOCALE":"42","SCHOOLYEAR":"2024-2025"}},{"type":"Feature","geometry":{"type":"Point","coordinates":[-87.965547,40.036672]},"properties":{"NCESSCH":"170010605363","LEAID":"1700106","NAME":"Heritage JH and Elem Sch","STATE":"IL","CITY":"Homer","ZIP":"61849","CNTY":"17019","NMCNTY":"Champaign County","LOCALE":"42","SCHOOLYEAR":"2024-2025"}},{"type":"Feature","geometry":{"type":"Point","coordinates":[-88.6136,40.5638]},"properties":{"NCESSCH":"170010905366","LEAID":"1700109","NAME":"Ridgeview High School","STATE":"IL","CITY":"Colfax","ZIP":"61728","CNTY":"17113","NMCNTY":"McLean County","LOCALE":"42","SCHOOLYEAR":"2024-2025"}},{"type":"Feature","geometry":{"type":"Point","coordinates":[-88.6136,40.5638]},"properties":{"NCESSCH":"170010905367","LEAID":"1700109","NAME":"Ridgeview Jr High School","STATE":"IL","CITY":"Colfax","ZIP":"61728","CNTY":"17113","NMCNTY":"McLean County","LOCALE":"42","SCHOOLYEAR":"2024-2025"}},{"type":"Feature","geometry":{"type":"Point","coordinates":[-88.613464,40.563442]},"properties":{"NCESSCH":"170010905369","LEAID":"1700109","NAME":"Ridgeview Elementary School","STATE":"IL","CITY":"Colfax","ZIP":"61728","CNTY":"17113","NMCNTY":"McLean County","LOCALE":"42","SCHOOLYEAR":"2024-2025"}},{"type":"Feature","geometry":{"type":"Point","coordinates":[-87.85535,42.324]},"properties":{"NCESSCH":"170011004813","LEAID":"1700110","NAME":"Neal Math Science Academy","STATE":"IL","CITY":"North Chicago","ZIP":"60064","CNTY":"17097","NMCNTY":"Lake County","LOCALE":"21","SCHOOLYEAR":"2024-2025"}},{"type":"Feature","geometry":{"type":"Point","coordinates":[-87.862726,42.326049]},"properties":{"NCESSCH":"170011004814","LEAID":"1700110","NAME":"A J Katzenmaier Academy","STATE":"IL","CITY":"North Chicago","ZIP":"60064","CNTY":"17097","NMCNTY":"Lake County","LOCALE":"21","SCHOOLYEAR":"2024-2025"}},{"type":"Feature","geometry":{"type":"Point","coordinates":[-87.840019,42.337313]},"properties":{"NCESSCH":"170011004815","LEAID":"1700110","NAME":"Evelyn Alexander School","STATE":"IL","CITY":"North Chicago","ZIP":"60064","CNTY":"17097","NMCNTY":"Lake County","LOCALE":"21","SCHOOLYEAR":"2024-2025"}},{"type":"Feature","geometry":{"type":"Point","coordinates":[-87.853182,42.328032]},"properties":{"NCESSCH":"170011005370","LEAID":"1700110","NAME":"North Chicago Community High Sch","STATE":"IL","CITY":"North Chicago","ZIP":"60064","CNTY":"17097","NMCNTY":"Lake County","LOCALE":"21","SCHOOLYEAR":"2024-2025"}},{"type":"Feature","geometry":{"type":"Point","coordinates":[-87.866579,42.301901]},"properties":{"NCESSCH":"170011005372","LEAID":"1700110","NAME":"Forrestal Elem School","STATE":"IL","CITY":"Great Lakes","ZIP":"60088","CNTY":"17097","NMCNTY":"Lake County","LOCALE":"21","SCHOOLYEAR":"2024-2025"}},{"type":"Feature","geometry":{"type":"Point","coordinates":[-87.843014,42.306014]},"properties":{"NCESSCH":"170011006217","LEAID":"1700110","NAME":"LEARN Chtr Sch 6 N Chicago Campus","STATE":"IL","CITY":"Great Lakes","ZIP":"60088","CNTY":"17097","NMCNTY":"Lake County","LOCALE":"21","SCHOOLYEAR":"2024-2025"}},{"type":"Feature","geometry":{"type":"Point","coordinates":[-87.868603,42.3209]},"properties":{"NCESSCH":"170011006357","LEAID":"1700110","NAME":"Green Bay Early Childhood Center","STATE":"IL","CITY":"North Chicago","ZIP":"60064","CNTY":"17097","NMCNTY":"Lake County","LOCALE":"21","SCHOOLYEAR":"2024-2025"}},{"type":"Feature","geometry":{"type":"Point","coordinates":[-87.853826,42.315417]},"properties":{"NCESSCH":"170011006401","LEAID":"1700110","NAME":"LEARN 10 Charter School","STATE":"IL","CITY":"North Chicago","ZIP":"60064","CNTY":"17097","NMCNTY":"Lake County","LOCALE":"21","SCHOOLYEAR":"2024-2025"}},{"type":"Feature","geometry":{"type":"Point","coordinates":[-88.834185,41.136996]},"properties":{"NCESSCH":"170011205381","LEAID":"1700112","NAME":"Northlawn Jr High School","STATE":"IL","CITY":"Streator","ZIP":"61364","CNTY":"17099","NMCNTY":"LaSalle County","LOCALE":"32","SCHOOLYEAR":"2024-2025"}},{"type":"Feature","geometry":{"type":"Point","coordinates":[-88.844568,41.150865]},"properties":{"NCESSCH":"170011205382","LEAID":"1700112","NAME":"Centennial Elem School","STATE":"IL","CITY":"Streator","ZIP":"61364","CNTY":"17099","NMCNTY":"LaSalle County","LOCALE":"32","SCHOOLYEAR":"2024-2025"}},{"type":"Feature","geometry":{"type":"Point","coordinates":[-88.851404,41.115463]},"properties":{"NCESSCH":"170011205383","LEAID":"1700112","NAME":"Kimes Elem School","STATE":"IL","CITY":"Streator","ZIP":"61364","CNTY":"17099","NMCNTY":"LaSalle County","LOCALE":"32","SCHOOLYEAR":"2024-2025"}},{"type":"Feature","geometry":{"type":"Point","coordinates":[-89.707954,40.203307]},"properties":{"NCESSCH":"170011305387","LEAID":"1700113","NAME":"Illini Central High School","STATE":"IL","CITY":"Mason City","ZIP":"62664","CNTY":"17125","NMCNTY":"Mason County","LOCALE":"42","SCHOOLYEAR":"2024-2025"}},{"type":"Feature","geometry":{"type":"Point","coordinates":[-89.707954,40.203307]},"properties":{"NCESSCH":"170011305388","LEAID":"1700113","NAME":"Illini Central Grade School","STATE":"IL","CITY":"Mason City","ZIP":"62664","CNTY":"17125","NMCNTY":"Mason County","LOCALE":"42","SCHOOLYEAR":"2024-2025"}},{"type":"Feature","geometry":{"type":"Point","coordinates":[-89.707954,40.203307]},"properties":{"NCESSCH":"170011305577","LEAID":"1700113","NAME":"Illini Central Middle School","STATE":"IL","CITY":"Mason City","ZIP":"62664","CNTY":"17125","NMCNTY":"Mason County","LOCALE":"42","SCHOOLYEAR":"2024-2025"}},{"type":"Feature","geometry":{"type":"Point","coordinates":[-89.697471,40.202534]},"properties":{"NCESSCH":"170011305990","LEAID":"1700113","NAME":"West Campus Facility","STATE":"IL","CITY":"Mason City","ZIP":"62664","CNTY":"17125","NMCNTY":"Mason County","LOCALE":"42","SCHOOLYEAR":"2024-2025"}},{"type":"Feature","geometry":{"type":"Point","coordinates":[-88.778252,38.840408]},"properties":{"NCESSCH":"170011405391","LEAID":"1700114","NAME":"South Central High School","STATE":"IL","CITY":"Farina","ZIP":"62838","CNTY":"17051","NMCNTY":"Fayette County","LOCALE":"43","SCHOOLYEAR":"2024-2025"}},{"type":"Feature","geometry":{"type":"Point","coordinates":[-88.848958,38.767771]},"properties":{"NCESSCH":"170011405392","LEAID":"1700114","NAME":"South Central Middle School","STATE":"IL","CITY":"Kinmundy","ZIP":"62854","CNTY":"17121","NMCNTY":"Marion County","LOCALE":"42","SCHOOLYEAR":"2024-2025"}},{"type":"Feature","geometry":{"type":"Point","coordinates":[-88.837693,38.774259]},"properties":{"NCESSCH":"170011405393","LEAID":"1700114","NAME":"South Central Elementary-Kinmundy","STATE":"IL","CITY":"Kinmundy","ZIP":"62854","CNTY":"17121","NMCNTY":"Marion County","LOCALE":"43","SCHOOLYEAR":"2024-2025"}},{"type":"Feature","geometry":{"type":"Point","coordinates":[-89.3682,41.1158]},"properties":{"NCESSCH":"170011505395","LEAID":"1700115","NAME":"Henry-Senachwine High School","STATE":"IL","CITY":"Henry","ZIP":"61537","CNTY":"17123","NMCNTY":"Marshall County","LOCALE":"42","SCHOOLYEAR":"2024-2025"}},{"type":"Feature","geometry":{"type":"Point","coordinates":[-89.3514,41.1165]},"properties":{"NCESSCH":"170011505396","LEAID":"1700115","NAME":"Henry-Senachwine Grade School","STATE":"IL","CITY":"Henry","ZIP":"61537","CNTY":"17123","NMCNTY":"Marshall County","LOCALE":"42","SCHOOLYEAR":"2024-2025"}},{"type":"Feature","geometry":{"type":"Point","coordinates":[-89.617273,39.770397]},"properties":{"NCESSCH":"170011605397","LEAID":"1700116","NAME":"SASED Central-Proj Ican & Pace","STATE":"IL","CITY":"Springfield","ZIP":"62703","CNTY":"17167","NMCNTY":"Sangamon County","LOCALE":"12","SCHOOLYEAR":"2024-2025"}},{"type":"Feature","geometry":{"type":"Point","coordinates":[-88.932255,37.727443]},"properties":{"NCESSCH":"170011805810","LEAID":"1700118","NAME":"Williamson Co Learning Cntr","STATE":"IL","CITY":"Marion","ZIP":"62959","CNTY":"17199","NMCNTY":"Williamson County","LOCALE":"33","SCHOOLYEAR":"2024-2025"}},{"type":"Feature","geometry":{"type":"Point","coordinates":[-88.9176,37.738]},"properties":{"NCESSCH":"170011805811","LEAID":"1700118","NAME":"Williamson Co Intensive Program","STATE":"IL","CITY":"Marion","ZIP":"62959","CNTY":"17199","NMCNTY":"Williamson County","LOCALE":"33","SCHOOLYEAR":"2024-2025"}},{"type":"Feature","geometry":{"type":"Point","coordinates":[-87.799447,42.189927]},"properties":{"NCESSCH":"170011902183","LEAID":"1700119","NAME":"Indian Trail Elem School","STATE":"IL","CITY":"Highland Park","ZIP":"60035","CNTY":"17097","NMCNTY":"Lake County","LOCALE":"21","SCHOOLYEAR":"2024-2025"}},{"type":"Feature","geometry":{"type":"Point","coordinates":[-87.772121,42.155259]},"properties":{"NCESSCH":"170011902185","LEAID":"1700119","NAME":"Braeside Elem School","STATE":"IL","CITY":"Highland Park","ZIP":"60035","CNTY":"17097","NMCNTY":"Lake County","LOCALE":"21","SCHOOLYEAR":"2024-2025"}},{"type":"Feature","geometry":{"type":"Point","coordinates":[-87.796488,42.167551]},"properties":{"NCESSCH":"170011902186","LEAID":"1700119","NAME":"Edgewood Middle School","STATE":"IL","CITY":"Highland Park","ZIP":"60035","CNTY":"17097","NMCNTY":"Lake County","LOCALE":"21","SCHOOLYEAR":"2024-2025"}},{"type":"Feature","geometry":{"type":"Point","coordinates":[-87.80459,42.187664]},"properties":{"NCESSCH":"170011902189","LEAID":"1700119","NAME":"Ravinia Elem School","STATE":"IL","CITY":"Highland Park","ZIP":"60035","CNTY":"17097","NMCNTY":"Lake County","LOCALE":"21","SCHOOLYEAR":"2024-2025"}},{"type":"Feature","geometry":{"type":"Point","coordinates":[-87.8219,42.164768]},"properties":{"NCESSCH":"170011902191","LEAID":"1700119","NAME":"Sherwood Elem School","STATE":"IL","CITY":"Highland Park","ZIP":"60035","CNTY":"17097","NMCNTY":"Lake County","LOCALE":"21","SCHOOLYEAR":"2024-2025"}},{"type":"Feature","geometry":{"type":"Point","coordinates":[-87.823233,42.204053]},"properties":{"NCESSCH":"170011902198","LEAID":"1700119","NAME":"Northwood Middle School","STATE":"IL","CITY":"Highland Park","ZIP":"60035","CNTY":"17097","NMCNTY":"Lake County","LOCALE":"21","SCHOOLYEAR":"2024-2025"}},{"type":"Feature","geometry":{"type":"Point","coordinates":[-87.814156,42.20033]},"properties":{"NCESSCH":"170011902199","LEAID":"1700119","NAME":"Oak Terrace Elem School","STATE":"IL","CITY":"Highwood","ZIP":"60040","CNTY":"17097","NMCNTY":"Lake County","LOCALE":"21","SCHOOLYEAR":"2024-2025"}},{"type":"Feature","geometry":{"type":"Point","coordinates":[-87.823647,42.205486]},"properties":{"NCESSCH":"170011902200","LEAID":"1700119","NAME":"Wayne Thomas Elem School","STATE":"IL","CITY":"Highland Park","ZIP":"60035","CNTY":"17097","NMCNTY":"Lake County","LOCALE":"21","SCHOOLYEAR":"2024-2025"}},{"type":"Feature","geometry":{"type":"Point","coordinates":[-87.819381,42.162573]},"properties":{"NCESSCH":"170011904408","LEAID":"1700119","NAME":"Red Oak Elem School","STATE":"IL","CITY":"Highland Park","ZIP":"60035","CNTY":"17097","NMCNTY":"Lake County","LOCALE":"21","SCHOOLYEAR":"2024-2025"}},{"type":"Feature","geometry":{"type":"Point","coordinates":[-89.062475,41.141009]},"properties":{"NCESSCH":"170012002584","LEAID":"1700120","NAME":"Lostant Elem School","STATE":"IL","CITY":"Lostant","ZIP":"61334","CNTY":"17099","NMCNTY":"LaSalle County","LOCALE":"42","SCHOOLYEAR":"2024-2025"}},{"type":"Feature","geometry":{"type":"Point","coordinates":[-87.861895,39.787561]},"properties":{"NCESSCH":"170012200702","LEAID":"1700122","NAME":"Shiloh High School","STATE":"IL","CITY":"Hume","ZIP":"61932","CNTY":"17045","NMCNTY":"Edgar County","LOCALE":"43","SCHOOLYEAR":"2024-2025"}},{"type":"Feature","geometry":{"type":"Point","coordinates":[-87.861895,39.787561]},"properties":{"NCESSCH":"170012200705","LEAID":"1700122","NAME":"Shiloh Elementary School","STATE":"IL","CITY":"Hume","ZIP":"61932","CNTY":"17045","NMCNTY":"Edgar County","LOCALE":"43","SCHOOLYEAR":"2024-2025"}},{"type":"Feature","geometry":{"type":"Point","coordinates":[-88.996848,39.702626]},"properties":{"NCESSCH":"170012300873","LEAID":"1700123","NAME":"Meridian High School","STATE":"IL","CITY":"Macon","ZIP":"62544","CNTY":"17115","NMCNTY":"Macon County","LOCALE":"41","SCHOOLYEAR":"2024-2025"}},{"type":"Feature","geometry":{"type":"Point","coordinates":[-88.996848,39.702626]},"properties":{"NCESSCH":"170012300876","LEAID":"1700123","NAME":"Meridian Middle School","STATE":"IL","CITY":"Macon","ZIP":"62544","CNTY":"17115","NMCNTY":"Macon County","LOCALE":"41","SCHOOLYEAR":"2024-2025"}},{"type":"Feature","geometry":{"type":"Point","coordinates":[-89.121852,39.694759]},"properties":{"NCESSCH":"170012300877","LEAID":"1700123","NAME":"Meridian Elem School","STATE":"IL","CITY":"Blue Mound","ZIP":"62513","CNTY":"17115","NMCNTY":"Macon County","LOCALE":"42","SCHOOLYEAR":"2024-2025"}},{"type":"Feature","geometry":{"type":"Point","coordinates":[-89.681677,41.454583]},"properties":{"NCESSCH":"170012501425","LEAID":"1700125","NAME":"Bureau Valley High School","STATE":"IL","CITY":"Sheffield","ZIP":"61361","CNTY":"17011","NMCNTY":"Bureau County","LOCALE":"43","SCHOOLYEAR":"2024-2025"}},{"type":"Feature","geometry":{"type":"Point","coordinates":[-89.595368,41.552782]},"properties":{"NCESSCH":"170012501426","LEAID":"1700125","NAME":"Bureau Valley North","STATE":"IL","CITY":"Walnut","ZIP":"61376","CNTY":"17011","NMCNTY":"Bureau County","LOCALE":"43","SCHOOLYEAR":"2024-2025"}},{"type":"Feature","geometry":{"type":"Point","coordinates":[-89.584437,41.360382]},"properties":{"NCESSCH":"170012502860","LEAID":"1700125","NAME":"Bureau Valley Elemntry-Wyanet","STATE":"IL","CITY":"Wyanet","ZIP":"61379","CNTY":"17011","NMCNTY":"Bureau County","LOCALE":"42","SCHOOLYEAR":"2024-2025"}},{"type":"Feature","geometry":{"type":"Point","coordinates":[-89.681677,41.454583]},"properties":{"NCESSCH":"170012506750","LEAID":"1700125","NAME":"Bureau Valley Elem and JH","STATE":"IL","CITY":"Manlius","ZIP":"61338","CNTY":"17011","NMCNTY":"Bureau County","LOCALE":"43","SCHOOLYEAR":"2024-2025"}},{"type":"Feature","geometry":{"type":"Point","coordinates":[-89.2898,41.0273]},"properties":{"NCESSCH":"170012601479","LEAID":"1700126","NAME":"Midland High School","STATE":"IL","CITY":"Varna","ZIP":"61375","CNTY":"17123","NMCNTY":"Marshall County","LOCALE":"42","SCHOOLYEAR":"2024-2025"}},{"type":"Feature","geometry":{"type":"Point","coordinates":[-89.4609,41.0322]},"properties":{"NCESSCH":"170012601482","LEAID":"1700126","NAME":"Midland Middle School","STATE":"IL","CITY":"Sparland","ZIP":"61565","CNTY":"17123","NMCNTY":"Marshall County","LOCALE":"42","SCHOOLYEAR":"2024-2025"}},{"type":"Feature","geometry":{"type":"Point","coordinates":[-89.404693,41.025306]},"properties":{"NCESSCH":"170012601488","LEAID":"1700126","NAME":"Midland Elementary School","STATE":"IL","CITY":"Lacon","ZIP":"61540","CNTY":"17123","NMCNTY":"Marshall County","LOCALE":"42","SCHOOLYEAR":"2024-2025"}},{"type":"Feature","geometry":{"type":"Point","coordinates":[-88.08622,41.989412]},"properties":{"NCESSCH":"170015201401","LEAID":"1700152","NAME":"Lincoln Academy","STATE":"IL","CITY":"Roselle","ZIP":"60172","CNTY":"17043","NMCNTY":"DuPage County","LOCALE":"21","SCHOOLYEAR":"2024-2025"}},{"type":"Feature","geometry":{"type":"Point","coordinates":[-87.943065,41.956712]},"properties":{"NCESSCH":"170015206206","LEAID":"1700152","NAME":"Transition Learning Center","STATE":"IL","CITY":"Bensenville","ZIP":"60106","CNTY":"17043","NMCNTY":"DuPage County","LOCALE":"21","SCHOOLYEAR":"2024-2025"}},{"type":"Feature","geometry":{"type":"Point","coordinates":[-88.059072,41.976398]},"properties":{"NCESSCH":"170015206688","LEAID":"1700152","NAME":"LASSO-Medinah Primary Sch-Medinah","STATE":"IL","CITY":"Medinah","ZIP":"60157","CNTY":"17043","NMCNTY":"DuPage County","LOCALE":"21","SCHOOLYEAR":"2024-2025"}},{"type":"Feature","geometry":{"type":"Point","coordinates":[-88.07739,41.97396]},"properties":{"NCESSCH":"170015206689","LEAID":"1700152","NAME":"LASSO RMS Dist. 12","STATE":"IL","CITY":"Roselle","ZIP":"60172","CNTY":"17043","NMCNTY":"DuPage County","LOCALE":"21","SCHOOLYEAR":"2024-2025"}},{"type":"Feature","geometry":{"type":"Point","coordinates":[-88.068145,41.973048]},"properties":{"NCESSCH":"170015206697","LEAID":"1700152","NAME":"SSP-Spring Hills Elem-Roselle SD","STATE":"IL","CITY":"Roselle","ZIP":"60172","CNTY":"17043","NMCNTY":"DuPage County","LOCALE":"21","SCHOOLYEAR":"2024-2025"}},{"type":"Feature","geometry":{"type":"Point","coordinates":[-88.052159,41.982846]},"properties":{"NCESSCH":"170015206704","LEAID":"1700152","NAME":"ALSP-Medinah Inter Sch-Medinah SD","STATE":"IL","CITY":"Medinah","ZIP":"60157","CNTY":"17043","NMCNTY":"DuPage County","LOCALE":"21","SCHOOLYEAR":"2024-2025"}},{"type":"Feature","geometry":{"type":"Point","coordinates":[-88.068145,41.973048]},"properties":{"NCESSCH":"170015206705","LEAID":"1700152","NAME":"LASSO-Spring Hills Sch-Roselle SD","STATE":"IL","CITY":"Roselle","ZIP":"60172","CNTY":"17043","NMCNTY":"DuPage County","LOCALE":"21","SCHOOLYEAR":"2024-2025"}},{"type":"Feature","geometry":{"type":"Point","coordinates":[-88.053822,41.97339]},"properties":{"NCESSCH":"170015206712","LEAID":"1700152","NAME":"ALSP-Lake Park East HS-Lake Park","STATE":"IL","CITY":"Roselle","ZIP":"60172","CNTY":"17043","NMCNTY":"DuPage County","LOCALE":"21","SCHOOLYEAR":"2024-2025"}},{"type":"Feature","geometry":{"type":"Point","coordinates":[-87.978451,41.971549]},"properties":{"NCESSCH":"170015206715","LEAID":"1700152","NAME":"ECSE AM/PM-Wood Dale Dist 7","STATE":"IL","CITY":"Wood Dale","ZIP":"60191","CNTY":"17043","NMCNTY":"DuPage County","LOCALE":"21","SCHOOLYEAR":"2024-2025"}},{"type":"Feature","geometry":{"type":"Point","coordinates":[-88.010805,41.976259]},"properties":{"NCESSCH":"170015206718","LEAID":"1700152","NAME":"SSP-F.E. Peacock MS-Itasca SD 10","STATE":"IL","CITY":"Itasca","ZIP":"60143","CNTY":"17043","NMCNTY":"DuPage County","LOCALE":"21","SCHOOLYEAR":"2024-2025"}},{"type":"Feature","geometry":{"type":"Point","coordinates":[-87.942206,41.949298]},"properties":{"NCESSCH":"170015206728","LEAID":"1700152","NAME":"LASSO-Tioga Elem Sch-Bensenville","STATE":"IL","CITY":"Bensenville","ZIP":"60106","CNTY":"17043","NMCNTY":"DuPage County","LOCALE":"21","SCHOOLYEAR":"2024-2025"}},{"type":"Feature","geometry":{"type":"Point","coordinates":[-88.103776,41.957301]},"properties":{"NCESSCH":"170015206737","LEAID":"1700152","NAME":"LASSO-Erickson Elem-Bloomingdale","STATE":"IL","CITY":"Bloomingdale","ZIP":"60108","CNTY":"17043","NMCNTY":"DuPage County","LOCALE":"21","SCHOOLYEAR":"2024-2025"}},{"type":"Feature","geometry":{"type":"Point","coordinates":[-87.954467,41.957266]},"properties":{"NCESSCH":"170015206739","LEAID":"1700152","NAME":"ALSP-Fenton CHS-Fenton HSD 100","STATE":"IL","CITY":"Bensenville","ZIP":"60106","CNTY":"17043","NMCNTY":"DuPage County","LOCALE":"21","SCHOOLYEAR":"2024-2025"}},{"type":"Feature","geometry":{"type":"Point","coordinates":[-87.942206,41.949298]},"properties":{"NCESSCH":"170015206743","LEAID":"1700152","NAME":"SSP Tioga Elem Sch","STATE":"IL","CITY":"Bensenville","ZIP":"60106","CNTY":"17043","NMCNTY":"DuPage County","LOCALE":"21","SCHOOLYEAR":"2024-2025"}},{"type":"Feature","geometry":{"type":"Point","coordinates":[-88.010805,41.976259]},"properties":{"NCESSCH":"170015206744","LEAID":"1700152","NAME":"ALSP-F.E. Peacock MS-Itasca SD 10","STATE":"IL","CITY":"Itasca","ZIP":"60143","CNTY":"17043","NMCNTY":"DuPage County","LOCALE":"21","SCHOOLYEAR":"2024-2025"}},{"type":"Feature","geometry":{"type":"Point","coordinates":[-88.066192,41.951474]},"properties":{"NCESSCH":"170015206752","LEAID":"1700152","NAME":"ALSP-DuJardin Elem Sch-Bloomingda","STATE":"IL","CITY":"Bloomingdale","ZIP":"60108","CNTY":"17043","NMCNTY":"DuPage County","LOCALE":"21","SCHOOLYEAR":"2024-2025"}},{"type":"Feature","geometry":{"type":"Point","coordinates":[-88.072281,41.95336]},"properties":{"NCESSCH":"170015206761","LEAID":"1700152","NAME":"ALSP-Westfield MS-Bloomingdale SD","STATE":"IL","CITY":"Bloomingdale","ZIP":"60108","CNTY":"17043","NMCNTY":"DuPage County","LOCALE":"21","SCHOOLYEAR":"2024-2025"}},{"type":"Feature","geometry":{"type":"Point","coordinates":[-87.952635,41.951421]},"properties":{"NCESSCH":"170015206765","LEAID":"1700152","NAME":"ALSP-Blackhawk MS-Bensenville SD","STATE":"IL","CITY":"Bensenville","ZIP":"60106","CNTY":"17043","NMCNTY":"DuPage County","LOCALE":"21","SCHOOLYEAR":"2024-2025"}},{"type":"Feature","geometry":{"type":"Point","coordinates":[-88.076508,41.980326]},"properties":{"NCESSCH":"170015206897","LEAID":"1700152","NAME":"ALSP -  Raymond Benson Primary -","STATE":"IL","CITY":"Roselle","ZIP":"60172","CNTY":"17043","NMCNTY":"DuPage County","LOCALE":"21","SCHOOLYEAR":"2024-2025"}},{"type":"Feature","geometry":{"type":"Point","coordinates":[-90.1518,40.385258]},"properties":{"NCESSCH":"170015302515","LEAID":"1700153","NAME":"Central Elem School","STATE":"IL","CITY":"Lewistown","ZIP":"61542","CNTY":"17057","NMCNTY":"Fulton County","LOCALE":"43","SCHOOLYEAR":"2024-2025"}},{"type":"Feature","geometry":{"type":"Point","coordinates":[-90.154091,40.409931]},"properties":{"NCESSCH":"170015302517","LEAID":"1700153","NAME":"Lewistown Jr/Sr High School","STATE":"IL","CITY":"Lewistown","ZIP":"61542","CNTY":"17057","NMCNTY":"Fulton County","LOCALE":"43","SCHOOLYEAR":"2024-2025"}},{"type":"Feature","geometry":{"type":"Point","coordinates":[-90.221552,39.730238]},"properties":{"NCESSCH":"170016203204","LEAID":"1700162","NAME":"The Lafayette Academy","STATE":"IL","CITY":"Jacksonville","ZIP":"62650","CNTY":"17137","NMCNTY":"Morgan County","LOCALE":"32","SCHOOLYEAR":"2024-2025"}},{"type":"Feature","geometry":{"type":"Point","coordinates":[-90.221552,39.730238]},"properties":{"NCESSCH":"170016203208","LEAID":"1700162","NAME":"ARC","STATE":"IL","CITY":"Jacksonville","ZIP":"62650","CNTY":"17137","NMCNTY":"Morgan County","LOCALE":"32","SCHOOLYEAR":"2024-2025"}},{"type":"Feature","geometry":{"type":"Point","coordinates":[-91.393125,39.931404]},"properties":{"NCESSCH":"170016206022","LEAID":"1700162","NAME":"Adams County RSSP","STATE":"IL","CITY":"Quincy","ZIP":"62301","CNTY":"17001","NMCNTY":"Adams County","LOCALE":"33","SCHOOLYEAR":"2024-2025"}},{"type":"Feature","geometry":{"type":"Point","coordinates":[-91.393125,39.931404]},"properties":{"NCESSCH":"170016206156","LEAID":"1700162","NAME":"Academic Behavior&Community Acad","STATE":"IL","CITY":"Quincy","ZIP":"62301","CNTY":"17001","NMCNTY":"Adams County","LOCALE":"33","SCHOOLYEAR":"2024-2025"}},{"type":"Feature","geometry":{"type":"Point","coordinates":[-90.80512,39.599894]},"properties":{"NCESSCH":"170016206163","LEAID":"1700162","NAME":"PACE Alternative School","STATE":"IL","CITY":"Pittsfield","ZIP":"62363","CNTY":"17149","NMCNTY":"Pike County","LOCALE":"43","SCHOOLYEAR":"2024-2025"}},{"type":"Feature","geometry":{"type":"Point","coordinates":[-91.362531,39.92832]},"properties":{"NCESSCH":"170016206821","LEAID":"1700162","NAME":"Quincy Area Voc Ctr","STATE":"IL","CITY":"Quincy","ZIP":"62301","CNTY":"17001","NMCNTY":"Adams County","LOCALE":"33","SCHOOLYEAR":"2024-2025"}},{"type":"Feature","geometry":{"type":"Point","coordinates":[-89.111154,38.965935]},"properties":{"NCESSCH":"170016502272","LEAID":"1700165","NAME":"New Approach Alternative H S","STATE":"IL","CITY":"Vandalia","ZIP":"62471","CNTY":"17051","NMCNTY":"Fayette County","LOCALE":"33","SCHOOLYEAR":"2024-2025"}},{"type":"Feature","geometry":{"type":"Point","coordinates":[-89.111154,38.965935]},"properties":{"NCESSCH":"170016502287","LEAID":"1700165","NAME":"FOCUS Safe Sch Program","STATE":"IL","CITY":"Vandalia","ZIP":"62471","CNTY":"17051","NMCNTY":"Fayette County","LOCALE":"33","SCHOOLYEAR":"2024-2025"}},{"type":"Feature","geometry":{"type":"Point","coordinates":[-88.543061,39.104053]},"properties":{"NCESSCH":"170016504627","LEAID":"1700165","NAME":"Tristar Acad Safe Sch Program","STATE":"IL","CITY":"Effingham","ZIP":"62401","CNTY":"17049","NMCNTY":"Effingham County","LOCALE":"33","SCHOOLYEAR":"2024-2025"}},{"type":"Feature","geometry":{"type":"Point","coordinates":[-88.543061,39.104053]},"properties":{"NCESSCH":"170016505759","LEAID":"1700165","NAME":"Aspire Alternative High School","STATE":"IL","CITY":"Effingham","ZIP":"62401","CNTY":"17049","NMCNTY":"Effingham County","LOCALE":"33","SCHOOLYEAR":"2024-2025"}},{"type":"Feature","geometry":{"type":"Point","coordinates":[-89.664037,39.183174]},"properties":{"NCESSCH":"170016506719","LEAID":"1700165","NAME":"Revive Alternative High School","STATE":"IL","CITY":"Litchfield","ZIP":"62056","CNTY":"17135","NMCNTY":"Montgomery County","LOCALE":"32","SCHOOLYEAR":"2024-2025"}},{"type":"Feature","geometry":{"type":"Point","coordinates":[-89.664037,39.183174]},"properties":{"NCESSCH":"170016506768","LEAID":"1700165","NAME":"Phoenix Safe Schools Program","STATE":"IL","CITY":"Litchfield","ZIP":"62056","CNTY":"17135","NMCNTY":"Montgomery County","LOCALE":"32","SCHOOLYEAR":"2024-2025"}},{"type":"Feature","geometry":{"type":"Point","coordinates":[-89.100886,38.97296]},"properties":{"NCESSCH":"170016506812","LEAID":"1700165","NAME":"Okaw Area Vocational Center","STATE":"IL","CITY":"Vandalia","ZIP":"62471","CNTY":"17051","NMCNTY":"Fayette County","LOCALE":"33","SCHOOLYEAR":"2024-2025"}},{"type":"Feature","geometry":{"type":"Point","coordinates":[-89.681675,39.169494]},"properties":{"NCESSCH":"170016506923","LEAID":"1700165","NAME":"SCI Reg Training and Innov Ctr","STATE":"IL","CITY":"Litchfield","ZIP":"62056","CNTY":"17135","NMCNTY":"Montgomery County","LOCALE":"32","SCHOOLYEAR":"2024-2025"}},{"type":"Feature","geometry":{"type":"Point","coordinates":[-89.044684,42.332967]},"properties":{"NCESSCH":"170016602313","LEAID":"1700166","NAME":"Summit Academy TAOEP","STATE":"IL","CITY":"Machesney Pk","ZIP":"61115","CNTY":"17201","NMCNTY":"Winnebago County","LOCALE":"21","SCHOOLYEAR":"2024-2025"}},{"type":"Feature","geometry":{"type":"Point","coordinates":[-89.044684,42.332967]},"properties":{"NCESSCH":"170016602338","LEAID":"1700166","NAME":"Summit Academy RSSP","STATE":"IL","CITY":"Machesney Pk","ZIP":"61115","CNTY":"17201","NMCNTY":"Winnebago County","LOCALE":"21","SCHOOLYEAR":"2024-2025"}},{"type":"Feature","geometry":{"type":"Point","coordinates":[-89.044684,42.332967]},"properties":{"NCESSCH":"170016605647","LEAID":"1700166","NAME":"Summit Academy ALOP","STATE":"IL","CITY":"Machesney Pk","ZIP":"61115","CNTY":"17201","NMCNTY":"Winnebago County","LOCALE":"21","SCHOOLYEAR":"2024-2025"}},{"type":"Feature","geometry":{"type":"Point","coordinates":[-89.045971,42.313802]},"properties":{"NCESSCH":"170016606817","LEAID":"1700166","NAME":"Career Educ Assoc of N Central IL","STATE":"IL","CITY":"Loves Park","ZIP":"61111","CNTY":"17201","NMCNTY":"Winnebago County","LOCALE":"21","SCHOOLYEAR":"2024-2025"}},{"type":"Feature","geometry":{"type":"Point","coordinates":[-89.045971,42.313802]},"properties":{"NCESSCH":"170016606931","LEAID":"1700166","NAME":"ROE 4 Student Support ALOP","STATE":"IL","CITY":"Loves Park","ZIP":"61111","CNTY":"17201","NMCNTY":"Winnebago County","LOCALE":"21","SCHOOLYEAR":"2024-2025"}},{"type":"Feature","geometry":{"type":"Point","coordinates":[-90.015972,41.415068]},"properties":{"NCESSCH":"170016804775","LEAID":"1700168","NAME":"Reg'l Safe School Program ROE #28","STATE":"IL","CITY":"Atkinson","ZIP":"61235","CNTY":"17073","NMCNTY":"Henry County","LOCALE":"42","SCHOOLYEAR":"2024-2025"}},{"type":"Feature","geometry":{"type":"Point","coordinates":[-90.015972,41.415068]},"properties":{"NCESSCH":"170016806951","LEAID":"1700168","NAME":"ROE 28 Student Support ALOP","STATE":"IL","CITY":"Atkinson","ZIP":"61235","CNTY":"17073","NMCNTY":"Henry County","LOCALE":"42","SCHOOLYEAR":"2024-2025"}},{"type":"Feature","geometry":{"type":"Point","coordinates":[-89.897814,39.265317]},"properties":{"NCESSCH":"170016903058","LEAID":"1700169","NAME":"ROE Alt. Edu. Center-Macoupin","STATE":"IL","CITY":"Carlinville","ZIP":"62626","CNTY":"17117","NMCNTY":"Macoupin County","LOCALE":"32","SCHOOLYEAR":"2024-2025"}},{"type":"Feature","geometry":{"type":"Point","coordinates":[-90.400688,39.437457]},"properties":{"NCESSCH":"170016903091","LEAID":"1700169","NAME":"ROE Alt. Edu. Center-Greene","STATE":"IL","CITY":"Carlinville","ZIP":"62626","CNTY":"17061","NMCNTY":"Greene County","LOCALE":"43","SCHOOLYEAR":"2024-2025"}},{"type":"Feature","geometry":{"type":"Point","coordinates":[-89.878829,39.284972]},"properties":{"NCESSCH":"170016903098","LEAID":"1700169","NAME":"ROE Safe Sch Macoupin","STATE":"IL","CITY":"Carlinville","ZIP":"62626","CNTY":"17117","NMCNTY":"Macoupin County","LOCALE":"32","SCHOOLYEAR":"2024-2025"}},{"type":"Feature","geometry":{"type":"Point","coordinates":[-90.400688,39.437457]},"properties":{"NCESSCH":"170016903099","LEAID":"1700169","NAME":"ROE Safe Sch Greene","STATE":"IL","CITY":"Carlinville","ZIP":"62626","CNTY":"17061","NMCNTY":"Greene County","LOCALE":"43","SCHOOLYEAR":"2024-2025"}},{"type":"Feature","geometry":{"type":"Point","coordinates":[-90.338608,39.11646]},"properties":{"NCESSCH":"170016906623","LEAID":"1700169","NAME":"ROE Safe School Jersey","STATE":"IL","CITY":"Carlinville","ZIP":"62626","CNTY":"17083","NMCNTY":"Jersey County","LOCALE":"32","SCHOOLYEAR":"2024-2025"}},{"type":"Feature","geometry":{"type":"Point","coordinates":[-90.330876,39.119248]},"properties":{"NCESSCH":"170016906816","LEAID":"1700169","NAME":"Central Ill Rural Region","STATE":"IL","CITY":"Jerseyville","ZIP":"62052","CNTY":"17083","NMCNTY":"Jersey County","LOCALE":"32","SCHOOLYEAR":"2024-2025"}},{"type":"Feature","geometry":{"type":"Point","coordinates":[-90.329411,39.119815]},"properties":{"NCESSCH":"170016906943","LEAID":"1700169","NAME":"ROE 40 ALOP","STATE":"IL","CITY":"Jerseyville","ZIP":"62052","CNTY":"17083","NMCNTY":"Jersey County","LOCALE":"32","SCHOOLYEAR":"2024-2025"}},{"type":"Feature","geometry":{"type":"Point","coordinates":[-89.618079,42.298528]},"properties":{"NCESSCH":"170017002342","LEAID":"1700170","NAME":"RAP Freeport","STATE":"IL","CITY":"Freeport","ZIP":"61032","CNTY":"17177","NMCNTY":"Stephenson County","LOCALE":"32","SCHOOLYEAR":"2024-2025"}},{"type":"Feature","geometry":{"type":"Point","coordinates":[-90.237152,42.314558]},"properties":{"NCESSCH":"170017004640","LEAID":"1700170","NAME":"RAP Elizabeth","STATE":"IL","CITY":"Elizabeth","ZIP":"61028","CNTY":"17085","NMCNTY":"Jo Daviess County","LOCALE":"42","SCHOOLYEAR":"2024-2025"}},{"type":"Feature","geometry":{"type":"Point","coordinates":[-89.627338,42.286641]},"properties":{"NCESSCH":"170017005649","LEAID":"1700170","NAME":"Freeport Alternative High Sch","STATE":"IL","CITY":"Freeport","ZIP":"61032","CNTY":"17177","NMCNTY":"Stephenson County","LOCALE":"32","SCHOOLYEAR":"2024-2025"}},{"type":"Feature","geometry":{"type":"Point","coordinates":[-89.651819,42.303464]},"properties":{"NCESSCH":"170017006790","LEAID":"1700170","NAME":"Career & Tech Educ Consortium","STATE":"IL","CITY":"Freeport","ZIP":"61032","CNTY":"17177","NMCNTY":"Stephenson County","LOCALE":"32","SCHOOLYEAR":"2024-2025"}},{"type":"Feature","geometry":{"type":"Point","coordinates":[-90.237152,42.314558]},"properties":{"NCESSCH":"170017006819","LEAID":"1700170","NAME":"Jo Daviess Carroll CTE Academy","STATE":"IL","CITY":"Elizabeth","ZIP":"61028","CNTY":"17085","NMCNTY":"Jo Daviess County","LOCALE":"42","SCHOOLYEAR":"2024-2025"}},{"type":"Feature","geometry":{"type":"Point","coordinates":[-88.241125,40.115876]},"properties":{"NCESSCH":"170017102351","LEAID":"1700171","NAME":"R E A D Y Program","STATE":"IL","CITY":"Champaign","ZIP":"61820","CNTY":"17019","NMCNTY":"Champaign County","LOCALE":"13","SCHOOLYEAR":"2024-2025"}},{"type":"Feature","geometry":{"type":"Point","coordinates":[-88.183692,40.110172]},"properties":{"NCESSCH":"170017103882","LEAID":"1700171","NAME":"Juvenile Detention Center","STATE":"IL","CITY":"Urbana","ZIP":"61802","CNTY":"17019","NMCNTY":"Champaign County","LOCALE":"13","SCHOOLYEAR":"2024-2025"}},{"type":"Feature","geometry":{"type":"Point","coordinates":[-88.241125,40.115876]},"properties":{"NCESSCH":"170017106721","LEAID":"1700171","NAME":"RE-Start Program","STATE":"IL","CITY":"Champaign","ZIP":"61820","CNTY":"17019","NMCNTY":"Champaign County","LOCALE":"13","SCHOOLYEAR":"2024-2025"}},{"type":"Feature","geometry":{"type":"Point","coordinates":[-88.290276,40.131876]},"properties":{"NCESSCH":"170017106792","LEAID":"1700171","NAME":"Educ for Employment Sys 330","STATE":"IL","CITY":"Champaign","ZIP":"61821","CNTY":"17019","NMCNTY":"Champaign County","LOCALE":"13","SCHOOLYEAR":"2024-2025"}},{"type":"Feature","geometry":{"type":"Point","coordinates":[-88.085149,38.728335]},"properties":{"NCESSCH":"170017302440","LEAID":"1700173","NAME":"ASSIST TAOEP 12","STATE":"IL","CITY":"Olney","ZIP":"62450","CNTY":"17159","NMCNTY":"Richland County","LOCALE":"33","SCHOOLYEAR":"2024-2025"}},{"type":"Feature","geometry":{"type":"Point","coordinates":[-88.085149,38.728335]},"properties":{"NCESSCH":"170017306215","LEAID":"1700173","NAME":"ASSIST RSSP 12","STATE":"IL","CITY":"Olney","ZIP":"62450","CNTY":"17159","NMCNTY":"Richland County","LOCALE":"33","SCHOOLYEAR":"2024-2025"}},{"type":"Feature","geometry":{"type":"Point","coordinates":[-89.129384,38.53235]},"properties":{"NCESSCH":"170017402445","LEAID":"1700174","NAME":"Centralia Alternative School","STATE":"IL","CITY":"Centralia","ZIP":"62801","CNTY":"17121","NMCNTY":"Marion County","LOCALE":"33","SCHOOLYEAR":"2024-2025"}},{"type":"Feature","geometry":{"type":"Point","coordinates":[-89.129384,38.53235]},"properties":{"NCESSCH":"170017402446","LEAID":"1700174","NAME":"Safe School Program  Centralia","STATE":"IL","CITY":"Centralia","ZIP":"62801","CNTY":"17121","NMCNTY":"Marion County","LOCALE":"33","SCHOOLYEAR":"2024-2025"}},{"type":"Feature","geometry":{"type":"Point","coordinates":[-88.911251,38.31658]},"properties":{"NCESSCH":"170017402456","LEAID":"1700174","NAME":"Clnton/Mrn/Wshngtn Pre-Kind Prog","STATE":"IL","CITY":"Mount Vernon","ZIP":"62864","CNTY":"17081","NMCNTY":"Jefferson County","LOCALE":"33","SCHOOLYEAR":"2024-2025"}},{"type":"Feature","geometry":{"type":"Point","coordinates":[-88.902671,38.29309]},"properties":{"NCESSCH":"170017402806","LEAID":"1700174","NAME":"Mt Vernon Alternative School","STATE":"IL","CITY":"Mount Vernon","ZIP":"62864","CNTY":"17081","NMCNTY":"Jefferson County","LOCALE":"33","SCHOOLYEAR":"2024-2025"}},{"type":"Feature","geometry":{"type":"Point","coordinates":[-88.902671,38.29309]},"properties":{"NCESSCH":"170017402811","LEAID":"1700174","NAME":"Safe School Program","STATE":"IL","CITY":"Mount Vernon","ZIP":"62864","CNTY":"17081","NMCNTY":"Jefferson County","LOCALE":"33","SCHOOLYEAR":"2024-2025"}},{"type":"Feature","geometry":{"type":"Point","coordinates":[-88.949732,38.287717]},"properties":{"NCESSCH":"170017406824","LEAID":"1700174","NAME":"Mt Vernon Area Career Center","STATE":"IL","CITY":"Mount Vernon","ZIP":"62864","CNTY":"17081","NMCNTY":"Jefferson County","LOCALE":"41","SCHOOLYEAR":"2024-2025"}},{"type":"Feature","geometry":{"type":"Point","coordinates":[-88.911251,38.31658]},"properties":{"NCESSCH":"170017406945","LEAID":"1700174","NAME":"ROE 13 Seniors Plus","STATE":"IL","CITY":"Mount Vernon","ZIP":"62864","CNTY":"17081","NMCNTY":"Jefferson County","LOCALE":"33","SCHOOLYEAR":"2024-2025"}},{"type":"Feature","geometry":{"type":"Point","coordinates":[-88.911251,38.31658]},"properties":{"NCESSCH":"170017406946","LEAID":"1700174","NAME":"ROE 13 High Needs","STATE":"IL","CITY":"Mount Vernon","ZIP":"62864","CNTY":"17081","NMCNTY":"Jefferson County","LOCALE":"33","SCHOOLYEAR":"2024-2025"}},{"type":"Feature","geometry":{"type":"Point","coordinates":[-88.911251,38.31658]},"properties":{"NCESSCH":"170017406947","LEAID":"1700174","NAME":"ROE 13 Student Success","STATE":"IL","CITY":"Mount Vernon","ZIP":"62864","CNTY":"17081","NMCNTY":"Jefferson County","LOCALE":"33","SCHOOLYEAR":"2024-2025"}},{"type":"Feature","geometry":{"type":"Point","coordinates":[-87.691921,39.61092]},"properties":{"NCESSCH":"170017504659","LEAID":"1700175","NAME":"Paris Bridges","STATE":"IL","CITY":"Paris","ZIP":"61944","CNTY":"17045","NMCNTY":"Edgar County","LOCALE":"32","SCHOOLYEAR":"2024-2025"}},{"type":"Feature","geometry":{"type":"Point","coordinates":[-88.286175,39.415635]},"properties":{"NCESSCH":"170017504660","LEAID":"1700175","NAME":"Lerna Bridges","STATE":"IL","CITY":"Lerna","ZIP":"62440","CNTY":"17029","NMCNTY":"Coles County","LOCALE":"42","SCHOOLYEAR":"2024-2025"}},{"type":"Feature","geometry":{"type":"Point","coordinates":[-88.792358,39.422044]},"properties":{"NCESSCH":"170017504672","LEAID":"1700175","NAME":"Shelbyville Bridges","STATE":"IL","CITY":"Shelbyville","ZIP":"62565","CNTY":"17173","NMCNTY":"Shelby County","LOCALE":"41","SCHOOLYEAR":"2024-2025"}},{"type":"Feature","geometry":{"type":"Point","coordinates":[-88.375491,39.481776]},"properties":{"NCESSCH":"170017506808","LEAID":"1700175","NAME":"Eastern IL EFE System","STATE":"IL","CITY":"Mattoon","ZIP":"61938","CNTY":"17029","NMCNTY":"Coles County","LOCALE":"32","SCHOOLYEAR":"2024-2025"}},{"type":"Feature","geometry":{"type":"Point","coordinates":[-88.286175,39.415635]},"properties":{"NCESSCH":"170017506894","LEAID":"1700175","NAME":"Lerna TAOEP","STATE":"IL","CITY":"Charleston","ZIP":"61920","CNTY":"17029","NMCNTY":"Coles County","LOCALE":"42","SCHOOLYEAR":"2024-2025"}},{"type":"Feature","geometry":{"type":"Point","coordinates":[-87.691921,39.61092]},"properties":{"NCESSCH":"170017506895","LEAID":"1700175","NAME":"Paris TAOEP","STATE":"IL","CITY":"Paris","ZIP":"61944","CNTY":"17045","NMCNTY":"Edgar County","LOCALE":"32","SCHOOLYEAR":"2024-2025"}},{"type":"Feature","geometry":{"type":"Point","coordinates":[-88.174675,39.493025]},"properties":{"NCESSCH":"170017506896","LEAID":"1700175","NAME":"Shelbyville TAOEP","STATE":"IL","CITY":"Charleston","ZIP":"61920","CNTY":"17029","NMCNTY":"Coles County","LOCALE":"33","SCHOOLYEAR":"2024-2025"}},{"type":"Feature","geometry":{"type":"Point","coordinates":[-88.862869,39.24284]},"properties":{"NCESSCH":"170017602389","LEAID":"1700176","NAME":"Cowden-Herrick Jr/Sr High School","STATE":"IL","CITY":"Cowden","ZIP":"62422","CNTY":"17173","NMCNTY":"Shelby County","LOCALE":"43","SCHOOLYEAR":"2024-2025"}},{"type":"Feature","geometry":{"type":"Point","coordinates":[-88.984188,39.223961]},"properties":{"NCESSCH":"170017602401","LEAID":"1700176","NAME":"Cowden-Herrick Grade School","STATE":"IL","CITY":"Herrick","ZIP":"62431","CNTY":"17173","NMCNTY":"Shelby County","LOCALE":"42","SCHOOLYEAR":"2024-2025"}},{"type":"Feature","geometry":{"type":"Point","coordinates":[-88.99227,40.477688]},"properties":{"NCESSCH":"170017702636","LEAID":"1700177","NAME":"Safe School Program","STATE":"IL","CITY":"Bloomington","ZIP":"61701","CNTY":"17113","NMCNTY":"McLean County","LOCALE":"13","SCHOOLYEAR":"2024-2025"}},{"type":"Feature","geometry":{"type":"Point","coordinates":[-88.99227,40.477688]},"properties":{"NCESSCH":"170017705694","LEAID":"1700177","NAME":"Regional Alop School","STATE":"IL","CITY":"Bloomington","ZIP":"61701","CNTY":"17113","NMCNTY":"McLean County","LOCALE":"13","SCHOOLYEAR":"2024-2025"}},{"type":"Feature","geometry":{"type":"Point","coordinates":[-89.356595,40.137098]},"properties":{"NCESSCH":"170017706800","LEAID":"1700177","NAME":"Lincolnland Technical Ed Ctr","STATE":"IL","CITY":"Lincoln","ZIP":"62656","CNTY":"17107","NMCNTY":"Logan County","LOCALE":"32","SCHOOLYEAR":"2024-2025"}},{"type":"Feature","geometry":{"type":"Point","coordinates":[-88.97393,40.486715]},"properties":{"NCESSCH":"170017706801","LEAID":"1700177","NAME":"Bloomington Area Career Center","STATE":"IL","CITY":"Bloomington","ZIP":"61701","CNTY":"17113","NMCNTY":"McLean County","LOCALE":"13","SCHOOLYEAR":"2024-2025"}},{"type":"Feature","geometry":{"type":"Point","coordinates":[-88.616393,40.887682]},"properties":{"NCESSCH":"170017706809","LEAID":"1700177","NAME":"Livingston Area Career Cntr","STATE":"IL","CITY":"Pontiac","ZIP":"61764","CNTY":"17105","NMCNTY":"Livingston County","LOCALE":"32","SCHOOLYEAR":"2024-2025"}},{"type":"Feature","geometry":{"type":"Point","coordinates":[-88.942524,40.520382]},"properties":{"NCESSCH":"170017706853","LEAID":"1700177","NAME":"Central Illinois Bridge Academy","STATE":"IL","CITY":"Normal","ZIP":"61761","CNTY":"17113","NMCNTY":"McLean County","LOCALE":"22","SCHOOLYEAR":"2024-2025"}},{"type":"Feature","geometry":{"type":"Point","coordinates":[-88.877933,41.939874]},"properties":{"NCESSCH":"170017802632","LEAID":"1700178","NAME":"KEC Central EFE 170","STATE":"IL","CITY":"Malta","ZIP":"60150","CNTY":"17037","NMCNTY":"DeKalb County","LOCALE":"41","SCHOOLYEAR":"2024-2025"}},{"type":"Feature","geometry":{"type":"Point","coordinates":[-88.877933,41.939874]},"properties":{"NCESSCH":"170017806803","LEAID":"1700178","NAME":"KEC  Area Voc Center","STATE":"IL","CITY":"Malta","ZIP":"60150","CNTY":"17037","NMCNTY":"DeKalb County","LOCALE":"41","SCHOOLYEAR":"2024-2025"}},{"type":"Feature","geometry":{"type":"Point","coordinates":[-88.613274,41.637611]},"properties":{"NCESSCH":"170017806813","LEAID":"1700178","NAME":"Indian Valley Area Voc Ctr","STATE":"IL","CITY":"Sandwich","ZIP":"60548","CNTY":"17037","NMCNTY":"DeKalb County","LOCALE":"41","SCHOOLYEAR":"2024-2025"}},{"type":"Feature","geometry":{"type":"Point","coordinates":[-88.005099,41.942575]},"properties":{"NCESSCH":"170017902654","LEAID":"1700179","NAME":"Partners for Success-Old Mill Sch","STATE":"IL","CITY":"Addison","ZIP":"60101","CNTY":"17043","NMCNTY":"DuPage County","LOCALE":"21","SCHOOLYEAR":"2024-2025"}},{"type":"Feature","geometry":{"type":"Point","coordinates":[-88.005099,41.942575]},"properties":{"NCESSCH":"170017905696","LEAID":"1700179","NAME":"DuPage Alop","STATE":"IL","CITY":"Addison","ZIP":"60101","CNTY":"17043","NMCNTY":"DuPage County","LOCALE":"21","SCHOOLYEAR":"2024-2025"}},{"type":"Feature","geometry":{"type":"Point","coordinates":[-88.040191,41.924862]},"properties":{"NCESSCH":"170017906802","LEAID":"1700179","NAME":"Technology Center of DuPage","STATE":"IL","CITY":"Addison","ZIP":"60101","CNTY":"17043","NMCNTY":"DuPage County","LOCALE":"21","SCHOOLYEAR":"2024-2025"}},{"type":"Feature","geometry":{"type":"Point","coordinates":[-88.326883,37.969658]},"properties":{"NCESSCH":"170018002658","LEAID":"1700180","NAME":"ROE 20 Learning Alt Branch School","STATE":"IL","CITY":"Norris City","ZIP":"62869","CNTY":"17193","NMCNTY":"White County","LOCALE":"43","SCHOOLYEAR":"2024-2025"}},{"type":"Feature","geometry":{"type":"Point","coordinates":[-88.326883,37.969658]},"properties":{"NCESSCH":"170018002669","LEAID":"1700180","NAME":"ROE20 Learning Alternative Branch","STATE":"IL","CITY":"Norris City","ZIP":"62869","CNTY":"17193","NMCNTY":"White County","LOCALE":"43","SCHOOLYEAR":"2024-2025"}},{"type":"Feature","geometry":{"type":"Point","coordinates":[-88.730942,37.150929]},"properties":{"NCESSCH":"170018202270","LEAID":"1700182","NAME":"Starquest Acad RSSP South","STATE":"IL","CITY":"Marion","ZIP":"62959","CNTY":"17127","NMCNTY":"Massac County","LOCALE":"31","SCHOOLYEAR":"2024-2025"}},{"type":"Feature","geometry":{"type":"Point","coordinates":[-88.931753,37.847835]},"properties":{"NCESSCH":"170018202670","LEAID":"1700182","NAME":"Project Echo","STATE":"IL","CITY":"Johnston City","ZIP":"62951","CNTY":"17199","NMCNTY":"Williamson County","LOCALE":"41","SCHOOLYEAR":"2024-2025"}},{"type":"Feature","geometry":{"type":"Point","coordinates":[-88.920305,37.996164]},"properties":{"NCESSCH":"170018202674","LEAID":"1700182","NAME":"Starquest Acad RSSP North","STATE":"IL","CITY":"Benton","ZIP":"62812","CNTY":"17055","NMCNTY":"Franklin County","LOCALE":"33","SCHOOLYEAR":"2024-2025"}},{"type":"Feature","geometry":{"type":"Point","coordinates":[-88.915117,37.997898]},"properties":{"NCESSCH":"170018206181","LEAID":"1700182","NAME":"ECHO Juvenile Detention Ctr","STATE":"IL","CITY":"Benton","ZIP":"62812","CNTY":"17055","NMCNTY":"Franklin County","LOCALE":"33","SCHOOLYEAR":"2024-2025"}},{"type":"Feature","geometry":{"type":"Point","coordinates":[-88.930566,37.733025]},"properties":{"NCESSCH":"170018206958","LEAID":"1700182","NAME":"ROE 21 ALOP","STATE":"IL","CITY":"Marion","ZIP":"62959","CNTY":"17199","NMCNTY":"Williamson County","LOCALE":"33","SCHOOLYEAR":"2024-2025"}},{"type":"Feature","geometry":{"type":"Point","coordinates":[-88.930566,37.733025]},"properties":{"NCESSCH":"170018206959","LEAID":"1700182","NAME":"ROE 21 Senior's Plus ALOP","STATE":"IL","CITY":"Marion","ZIP":"62959","CNTY":"17199","NMCNTY":"Williamson County","LOCALE":"33","SCHOOLYEAR":"2024-2025"}},{"type":"Feature","geometry":{"type":"Point","coordinates":[-88.402322,41.397694]},"properties":{"NCESSCH":"170018402707","LEAID":"1700184","NAME":"Premier Academy Morris","STATE":"IL","CITY":"Morris","ZIP":"60450","CNTY":"17063","NMCNTY":"Grundy County","LOCALE":"31","SCHOOLYEAR":"2024-2025"}},{"type":"Feature","geometry":{"type":"Point","coordinates":[-88.453142,41.651763]},"properties":{"NCESSCH":"170018402725","LEAID":"1700184","NAME":"YEA Program","STATE":"IL","CITY":"Yorkville","ZIP":"60560","CNTY":"17093","NMCNTY":"Kendall County","LOCALE":"21","SCHOOLYEAR":"2024-2025"}},{"type":"Feature","geometry":{"type":"Point","coordinates":[-88.342753,41.684515]},"properties":{"NCESSCH":"170018402767","LEAID":"1700184","NAME":"Oswego GOAL","STATE":"IL","CITY":"Oswego","ZIP":"60543","CNTY":"17093","NMCNTY":"Kendall County","LOCALE":"21","SCHOOLYEAR":"2024-2025"}},{"type":"Feature","geometry":{"type":"Point","coordinates":[-88.262569,41.454474]},"properties":{"NCESSCH":"170018405892","LEAID":"1700184","NAME":"Minooka Academy","STATE":"IL","CITY":"Minooka","ZIP":"60447","CNTY":"17063","NMCNTY":"Grundy County","LOCALE":"21","SCHOOLYEAR":"2024-2025"}},{"type":"Feature","geometry":{"type":"Point","coordinates":[-88.402322,41.397694]},"properties":{"NCESSCH":"170018406203","LEAID":"1700184","NAME":"Premier Academy Morris TAOEP","STATE":"IL","CITY":"Morris","ZIP":"60450","CNTY":"17063","NMCNTY":"Grundy County","LOCALE":"31","SCHOOLYEAR":"2024-2025"}},{"type":"Feature","geometry":{"type":"Point","coordinates":[-88.546803,41.665848]},"properties":{"NCESSCH":"170018406225","LEAID":"1700184","NAME":"FLEX Program","STATE":"IL","CITY":"Plano","ZIP":"60545","CNTY":"17093","NMCNTY":"Kendall County","LOCALE":"21","SCHOOLYEAR":"2024-2025"}},{"type":"Feature","geometry":{"type":"Point","coordinates":[-88.434867,41.366059]},"properties":{"NCESSCH":"170018406811","LEAID":"1700184","NAME":"Grundy Area Vocational Center","STATE":"IL","CITY":"Morris","ZIP":"60450","CNTY":"17063","NMCNTY":"Grundy County","LOCALE":"31","SCHOOLYEAR":"2024-2025"}},{"type":"Feature","geometry":{"type":"Point","coordinates":[-90.023588,40.558734]},"properties":{"NCESSCH":"170018602681","LEAID":"1700186","NAME":"ROYALS Academy Canton","STATE":"IL","CITY":"Canton","ZIP":"61520","CNTY":"17057","NMCNTY":"Fulton County","LOCALE":"32","SCHOOLYEAR":"2024-2025"}},{"type":"Feature","geometry":{"type":"Point","coordinates":[-90.023588,40.558734]},"properties":{"NCESSCH":"170018602685","LEAID":"1700186","NAME":"ROYALS RSSP Canton","STATE":"IL","CITY":"Canton","ZIP":"61520","CNTY":"17057","NMCNTY":"Fulton County","LOCALE":"32","SCHOOLYEAR":"2024-2025"}},{"type":"Feature","geometry":{"type":"Point","coordinates":[-91.136644,40.412753]},"properties":{"NCESSCH":"170018602815","LEAID":"1700186","NAME":"ROYALS Academy Carthage","STATE":"IL","CITY":"Carthage","ZIP":"62321","CNTY":"17067","NMCNTY":"Hancock County","LOCALE":"42","SCHOOLYEAR":"2024-2025"}},{"type":"Feature","geometry":{"type":"Point","coordinates":[-90.6743,40.4555]},"properties":{"NCESSCH":"170018602819","LEAID":"1700186","NAME":"ROYALS Academy Macomb","STATE":"IL","CITY":"Macomb","ZIP":"61455","CNTY":"17109","NMCNTY":"McDonough County","LOCALE":"33","SCHOOLYEAR":"2024-2025"}},{"type":"Feature","geometry":{"type":"Point","coordinates":[-90.6743,40.4555]},"properties":{"NCESSCH":"170018602822","LEAID":"1700186","NAME":"ROYALS RSSP Macomb","STATE":"IL","CITY":"Macomb","ZIP":"61455","CNTY":"17109","NMCNTY":"McDonough County","LOCALE":"33","SCHOOLYEAR":"2024-2025"}},{"type":"Feature","geometry":{"type":"Point","coordinates":[-91.136644,40.412753]},"properties":{"NCESSCH":"170018602823","LEAID":"1700186","NAME":"ROYALS RSSP Carthage","STATE":"IL","CITY":"Carthage","ZIP":"62321","CNTY":"17067","NMCNTY":"Hancock County","LOCALE":"42","SCHOOLYEAR":"2024-2025"}},{"type":"Feature","geometry":{"type":"Point","coordinates":[-90.672097,40.457825]},"properties":{"NCESSCH":"170018606810","LEAID":"1700186","NAME":"Western Area Career System 265","STATE":"IL","CITY":"Macomb","ZIP":"61455","CNTY":"17109","NMCNTY":"McDonough County","LOCALE":"33","SCHOOLYEAR":"2024-2025"}},{"type":"Feature","geometry":{"type":"Point","coordinates":[-90.672097,40.457825]},"properties":{"NCESSCH":"170018606926","LEAID":"1700186","NAME":"ROE 26 LEAP","STATE":"IL","CITY":"Macomb","ZIP":"61455","CNTY":"17109","NMCNTY":"McDonough County","LOCALE":"33","SCHOOLYEAR":"2024-2025"}},{"type":"Feature","geometry":{"type":"Point","coordinates":[-87.654416,41.523851]},"properties":{"NCESSCH":"170018802593","LEAID":"1700188","NAME":"Regl Inst Scholastic Excellence","STATE":"IL","CITY":"Chicago Heights","ZIP":"60411","CNTY":"17031","NMCNTY":"Cook County","LOCALE":"21","SCHOOLYEAR":"2024-2025"}},{"type":"Feature","geometry":{"type":"Point","coordinates":[-87.779763,41.688043]},"properties":{"NCESSCH":"170018806165","LEAID":"1700188","NAME":"Regl Inst Scholastic Excellence","STATE":"IL","CITY":"Worth","ZIP":"60482","CNTY":"17031","NMCNTY":"Cook County","LOCALE":"21","SCHOOLYEAR":"2024-2025"}},{"type":"Feature","geometry":{"type":"Point","coordinates":[-87.654416,41.523851]},"properties":{"NCESSCH":"170018806876","LEAID":"1700188","NAME":"South Cook Truancy Program","STATE":"IL","CITY":"Chicago Hts","ZIP":"60411","CNTY":"17031","NMCNTY":"Cook County","LOCALE":"21","SCHOOLYEAR":"2024-2025"}},{"type":"Feature","geometry":{"type":"Point","coordinates":[-87.65348,41.520926]},"properties":{"NCESSCH":"170018806877","LEAID":"1700188","NAME":"South Cook ISC Student Advocate","STATE":"IL","CITY":"Chicago Hts","ZIP":"60411","CNTY":"17031","NMCNTY":"Cook County","LOCALE":"21","SCHOOLYEAR":"2024-2025"}},{"type":"Feature","geometry":{"type":"Point","coordinates":[-87.65348,41.520926]},"properties":{"NCESSCH":"170018806916","LEAID":"1700188","NAME":"South Cook ISC ALOP","STATE":"IL","CITY":"Chicago Hts","ZIP":"60411","CNTY":"17031","NMCNTY":"Cook County","LOCALE":"21","SCHOOLYEAR":"2024-2025"}},{"type":"Feature","geometry":{"type":"Point","coordinates":[-87.871129,41.08058]},"properties":{"NCESSCH":"170018902916","LEAID":"1700189","NAME":"I Kan Regional Alternatve Att Ctr","STATE":"IL","CITY":"Kankakee","ZIP":"60901","CNTY":"17091","NMCNTY":"Kankakee County","LOCALE":"23","SCHOOLYEAR":"2024-2025"}},{"type":"Feature","geometry":{"type":"Point","coordinates":[-87.871129,41.08058]},"properties":{"NCESSCH":"170018905710","LEAID":"1700189","NAME":"Salt School","STATE":"IL","CITY":"Kankakee","ZIP":"60901","CNTY":"17091","NMCNTY":"Kankakee County","LOCALE":"23","SCHOOLYEAR":"2024-2025"}},{"type":"Feature","geometry":{"type":"Point","coordinates":[-87.892882,41.178004]},"properties":{"NCESSCH":"170018906806","LEAID":"1700189","NAME":"Kankakee Area Career Center","STATE":"IL","CITY":"Bourbonnais","ZIP":"60914","CNTY":"17091","NMCNTY":"Kankakee County","LOCALE":"23","SCHOOLYEAR":"2024-2025"}},{"type":"Feature","geometry":{"type":"Point","coordinates":[-89.347833,37.759903]},"properties":{"NCESSCH":"170019002265","LEAID":"1700190","NAME":"Five County Regional Alternative","STATE":"IL","CITY":"Murphysboro","ZIP":"62966","CNTY":"17077","NMCNTY":"Jackson County","LOCALE":"32","SCHOOLYEAR":"2024-2025"}},{"type":"Feature","geometry":{"type":"Point","coordinates":[-89.342328,37.756137]},"properties":{"NCESSCH":"170019002866","LEAID":"1700190","NAME":"Cope Alternative School","STATE":"IL","CITY":"Murphysboro","ZIP":"62966","CNTY":"17077","NMCNTY":"Jackson County","LOCALE":"41","SCHOOLYEAR":"2024-2025"}},{"type":"Feature","geometry":{"type":"Point","coordinates":[-89.342328,37.756137]},"properties":{"NCESSCH":"170019006321","LEAID":"1700190","NAME":"Jackson/Perry MS TAOEP","STATE":"IL","CITY":"Murphysboro","ZIP":"62966","CNTY":"17077","NMCNTY":"Jackson County","LOCALE":"41","SCHOOLYEAR":"2024-2025"}},{"type":"Feature","geometry":{"type":"Point","coordinates":[-89.230557,38.007034]},"properties":{"NCESSCH":"170019006336","LEAID":"1700190","NAME":"Project SOAR","STATE":"IL","CITY":"Du Quoin","ZIP":"62832","CNTY":"17145","NMCNTY":"Perry County","LOCALE":"33","SCHOOLYEAR":"2024-2025"}},{"type":"Feature","geometry":{"type":"Point","coordinates":[-89.270961,37.231574]},"properties":{"NCESSCH":"170019006797","LEAID":"1700190","NAME":"Five County Reg Voc System","STATE":"IL","CITY":"Tamms","ZIP":"62988","CNTY":"17003","NMCNTY":"Alexander County","LOCALE":"42","SCHOOLYEAR":"2024-2025"}},{"type":"Feature","geometry":{"type":"Point","coordinates":[-89.270961,37.231574]},"properties":{"NCESSCH":"170019006798","LEAID":"1700190","NAME":"Five County Reg Voc Center","STATE":"IL","CITY":"Tamms","ZIP":"62988","CNTY":"17003","NMCNTY":"Alexander County","LOCALE":"42","SCHOOLYEAR":"2024-2025"}},{"type":"Feature","geometry":{"type":"Point","coordinates":[-88.276323,42.036585]},"properties":{"NCESSCH":"170019102878","LEAID":"1700191","NAME":"New Beginnings Regnl Safe Sch Pgm","STATE":"IL","CITY":"Elgin","ZIP":"60120","CNTY":"17089","NMCNTY":"Kane County","LOCALE":"12","SCHOOLYEAR":"2024-2025"}},{"type":"Feature","geometry":{"type":"Point","coordinates":[-88.273019,42.108088]},"properties":{"NCESSCH":"170019106184","LEAID":"1700191","NAME":"Oak Ridge RSSP","STATE":"IL","CITY":"Carpentersville","ZIP":"60110","CNTY":"17089","NMCNTY":"Kane County","LOCALE":"21","SCHOOLYEAR":"2024-2025"}},{"type":"Feature","geometry":{"type":"Point","coordinates":[-88.2938,41.9068]},"properties":{"NCESSCH":"170019106185","LEAID":"1700191","NAME":"Mades-Johnstone RSSP","STATE":"IL","CITY":"St Charles","ZIP":"60174","CNTY":"17089","NMCNTY":"Kane County","LOCALE":"21","SCHOOLYEAR":"2024-2025"}},{"type":"Feature","geometry":{"type":"Point","coordinates":[-88.281296,41.79091]},"properties":{"NCESSCH":"170019106186","LEAID":"1700191","NAME":"East Aurora HS RSSP","STATE":"IL","CITY":"Aurora","ZIP":"60505","CNTY":"17089","NMCNTY":"Kane County","LOCALE":"21","SCHOOLYEAR":"2024-2025"}},{"type":"Feature","geometry":{"type":"Point","coordinates":[-88.361855,41.763541]},"properties":{"NCESSCH":"170019106187","LEAID":"1700191","NAME":"West Aurora HS RSSP","STATE":"IL","CITY":"Aurora","ZIP":"60506","CNTY":"17089","NMCNTY":"Kane County","LOCALE":"21","SCHOOLYEAR":"2024-2025"}},{"type":"Feature","geometry":{"type":"Point","coordinates":[-88.2938,41.9068]},"properties":{"NCESSCH":"170019106239","LEAID":"1700191","NAME":"New Directions Program","STATE":"IL","CITY":"St Charles","ZIP":"60174","CNTY":"17089","NMCNTY":"Kane County","LOCALE":"21","SCHOOLYEAR":"2024-2025"}},{"type":"Feature","geometry":{"type":"Point","coordinates":[-88.361855,41.763541]},"properties":{"NCESSCH":"170019106387","LEAID":"1700191","NAME":"SUCCESS Academy","STATE":"IL","CITY":"Aurora","ZIP":"60506","CNTY":"17089","NMCNTY":"Kane County","LOCALE":"21","SCHOOLYEAR":"2024-2025"}},{"type":"Feature","geometry":{"type":"Point","coordinates":[-88.276323,42.036585]},"properties":{"NCESSCH":"170019106416","LEAID":"1700191","NAME":"DREAM Academy","STATE":"IL","CITY":"Elgin","ZIP":"60120","CNTY":"17089","NMCNTY":"Kane County","LOCALE":"12","SCHOOLYEAR":"2024-2025"}},{"type":"Feature","geometry":{"type":"Point","coordinates":[-88.330565,41.848218]},