{"type":"FeatureCollection","features":[{"type":"Feature","geometry":{"type":"Point","coordinates":[-81.453188,28.456815]},"properties":{"NCESSCH":"120000207976","LEAID":"1200002","NAME":"FLORIDA VIRTUAL ELEMENTARY SCHOOL","STATE":"FL","CITY":"ORLANDO","ZIP":"32819","CNTY":"12095","NMCNTY":"Orange County","LOCALE":"11","SCHOOLYEAR":"2024-2025"}},{"type":"Feature","geometry":{"type":"Point","coordinates":[-81.453188,28.456815]},"properties":{"NCESSCH":"120000207982","LEAID":"1200002","NAME":"FLORIDA VIRTUAL HIGH SCHOOL","STATE":"FL","CITY":"ORLANDO","ZIP":"32819","CNTY":"12095","NMCNTY":"Orange County","LOCALE":"11","SCHOOLYEAR":"2024-2025"}},{"type":"Feature","geometry":{"type":"Point","coordinates":[-81.453188,28.456815]},"properties":{"NCESSCH":"120000208677","LEAID":"1200002","NAME":"FLORIDA VIRTUAL MIDDLE SCHOOL","STATE":"FL","CITY":"ORLANDO","ZIP":"32819","CNTY":"12095","NMCNTY":"Orange County","LOCALE":"11","SCHOOLYEAR":"2024-2025"}},{"type":"Feature","geometry":{"type":"Point","coordinates":[-82.348708,29.656588]},"properties":{"NCESSCH":"120003000002","LEAID":"1200030","NAME":"CAROLYN BEATRICE PARKER ELEMENTARY","STATE":"FL","CITY":"GAINESVILLE","ZIP":"32603","CNTY":"12001","NMCNTY":"Alachua County","LOCALE":"12","SCHOOLYEAR":"2024-2025"}},{"type":"Feature","geometry":{"type":"Point","coordinates":[-82.331942,29.68795]},"properties":{"NCESSCH":"120003000003","LEAID":"1200030","NAME":"STEPHEN FOSTER ELEMENTARY SCHOOL","STATE":"FL","CITY":"GAINESVILLE","ZIP":"32609","CNTY":"12001","NMCNTY":"Alachua County","LOCALE":"12","SCHOOLYEAR":"2024-2025"}},{"type":"Feature","geometry":{"type":"Point","coordinates":[-82.335369,29.658082]},"properties":{"NCESSCH":"120003000004","LEAID":"1200030","NAME":"A.QUINN JONES CENTER","STATE":"FL","CITY":"GAINESVILLE","ZIP":"32601","CNTY":"12001","NMCNTY":"Alachua County","LOCALE":"12","SCHOOLYEAR":"2024-2025"}},{"type":"Feature","geometry":{"type":"Point","coordinates":[-82.270877,29.647388]},"properties":{"NCESSCH":"120003000005","LEAID":"1200030","NAME":"LAKE FOREST ELEMENTARY SCHOOL","STATE":"FL","CITY":"GAINESVILLE","ZIP":"32641","CNTY":"12001","NMCNTY":"Alachua County","LOCALE":"22","SCHOOLYEAR":"2024-2025"}},{"type":"Feature","geometry":{"type":"Point","coordinates":[-82.32743,29.667748]},"properties":{"NCESSCH":"120003000006","LEAID":"1200030","NAME":"SIDNEY LANIER CENTER","STATE":"FL","CITY":"GAINESVILLE","ZIP":"32601","CNTY":"12001","NMCNTY":"Alachua County","LOCALE":"12","SCHOOLYEAR":"2024-2025"}},{"type":"Feature","geometry":{"type":"Point","coordinates":[-82.369899,29.663964]},"properties":{"NCESSCH":"120003000007","LEAID":"1200030","NAME":"LITTLEWOOD ELEMENTARY SCHOOL","STATE":"FL","CITY":"GAINESVILLE","ZIP":"32605","CNTY":"12001","NMCNTY":"Alachua County","LOCALE":"12","SCHOOLYEAR":"2024-2025"}},{"type":"Feature","geometry":{"type":"Point","coordinates":[-82.307882,29.66921]},"properties":{"NCESSCH":"120003000008","LEAID":"1200030","NAME":"W. A. METCALFE ELEMENTARY SCHOOL","STATE":"FL","CITY":"GAINESVILLE","ZIP":"32609","CNTY":"12001","NMCNTY":"Alachua County","LOCALE":"12","SCHOOLYEAR":"2024-2025"}},{"type":"Feature","geometry":{"type":"Point","coordinates":[-82.309114,29.645291]},"properties":{"NCESSCH":"120003000009","LEAID":"1200030","NAME":"JOSEPH WILLIAMS ELEMENTARY SCHOOL","STATE":"FL","CITY":"GAINESVILLE","ZIP":"32641","CNTY":"12001","NMCNTY":"Alachua County","LOCALE":"12","SCHOOLYEAR":"2024-2025"}},{"type":"Feature","geometry":{"type":"Point","coordinates":[-82.309264,29.642116]},"properties":{"NCESSCH":"120003000010","LEAID":"1200030","NAME":"ABRAHAM LINCOLN MIDDLE SCHOOL","STATE":"FL","CITY":"GAINESVILLE","ZIP":"32641","CNTY":"12001","NMCNTY":"Alachua County","LOCALE":"12","SCHOOLYEAR":"2024-2025"}},{"type":"Feature","geometry":{"type":"Point","coordinates":[-82.314297,29.669167]},"properties":{"NCESSCH":"120003000011","LEAID":"1200030","NAME":"HOWARD W. BISHOP MIDDLE SCHOOL","STATE":"FL","CITY":"GAINESVILLE","ZIP":"32609","CNTY":"12001","NMCNTY":"Alachua County","LOCALE":"12","SCHOOLYEAR":"2024-2025"}},{"type":"Feature","geometry":{"type":"Point","coordinates":[-82.369899,29.663964]},"properties":{"NCESSCH":"120003000012","LEAID":"1200030","NAME":"WESTWOOD MIDDLE SCHOOL","STATE":"FL","CITY":"GAINESVILLE","ZIP":"32605","CNTY":"12001","NMCNTY":"Alachua County","LOCALE":"12","SCHOOLYEAR":"2024-2025"}},{"type":"Feature","geometry":{"type":"Point","coordinates":[-82.340629,29.669389]},"properties":{"NCESSCH":"120003000013","LEAID":"1200030","NAME":"GAINESVILLE HIGH SCHOOL","STATE":"FL","CITY":"GAINESVILLE","ZIP":"32609","CNTY":"12001","NMCNTY":"Alachua County","LOCALE":"12","SCHOOLYEAR":"2024-2025"}},{"type":"Feature","geometry":{"type":"Point","coordinates":[-82.492352,29.794659]},"properties":{"NCESSCH":"120003000014","LEAID":"1200030","NAME":"ALACHUA ELEMENTARY SCHOOL","STATE":"FL","CITY":"ALACHUA","ZIP":"32615","CNTY":"12001","NMCNTY":"Alachua County","LOCALE":"42","SCHOOLYEAR":"2024-2025"}},{"type":"Feature","geometry":{"type":"Point","coordinates":[-82.522537,29.520242]},"properties":{"NCESSCH":"120003000015","LEAID":"1200030","NAME":"ARCHER ELEMENTARY","STATE":"FL","CITY":"ARCHER","ZIP":"32618","CNTY":"12001","NMCNTY":"Alachua County","LOCALE":"41","SCHOOLYEAR":"2024-2025"}},{"type":"Feature","geometry":{"type":"Point","coordinates":[-82.0938,29.5896]},"properties":{"NCESSCH":"120003000016","LEAID":"1200030","NAME":"HAWTHORNE MIDDLE/HIGH SCHOOL","STATE":"FL","CITY":"HAWTHORNE","ZIP":"32640","CNTY":"12001","NMCNTY":"Alachua County","LOCALE":"42","SCHOOLYEAR":"2024-2025"}},{"type":"Feature","geometry":{"type":"Point","coordinates":[-82.354243,29.697014]},"properties":{"NCESSCH":"120003000017","LEAID":"1200030","NAME":"C. W. NORTON ELEMENTARY SCHOOL","STATE":"FL","CITY":"GAINESVILLE","ZIP":"32605","CNTY":"12001","NMCNTY":"Alachua County","LOCALE":"12","SCHOOLYEAR":"2024-2025"}},{"type":"Feature","geometry":{"type":"Point","coordinates":[-82.49327,29.805627]},"properties":{"NCESSCH":"120003000018","LEAID":"1200030","NAME":"A. L. MEBANE MIDDLE SCHOOL","STATE":"FL","CITY":"ALACHUA","ZIP":"32615","CNTY":"12001","NMCNTY":"Alachua County","LOCALE":"42","SCHOOLYEAR":"2024-2025"}},{"type":"Feature","geometry":{"type":"Point","coordinates":[-82.615482,29.642607]},"properties":{"NCESSCH":"120003000019","LEAID":"1200030","NAME":"NEWBERRY HIGH SCHOOL","STATE":"FL","CITY":"NEWBERRY","ZIP":"32669","CNTY":"12001","NMCNTY":"Alachua County","LOCALE":"42","SCHOOLYEAR":"2024-2025"}},{"type":"Feature","geometry":{"type":"Point","coordinates":[-82.524128,29.806709]},"properties":{"NCESSCH":"120003000020","LEAID":"1200030","NAME":"SANTA FE HIGH SCHOOL","STATE":"FL","CITY":"ALACHUA","ZIP":"32615","CNTY":"12001","NMCNTY":"Alachua County","LOCALE":"42","SCHOOLYEAR":"2024-2025"}},{"type":"Feature","geometry":{"type":"Point","coordinates":[-82.091009,29.593818]},"properties":{"NCESSCH":"120003000021","LEAID":"1200030","NAME":"CHESTER SHELL ELEMENTARY SCHOOL","STATE":"FL","CITY":"HAWTHORNE","ZIP":"32640","CNTY":"12001","NMCNTY":"Alachua County","LOCALE":"42","SCHOOLYEAR":"2024-2025"}},{"type":"Feature","geometry":{"type":"Point","coordinates":[-82.471474,29.617126]},"properties":{"NCESSCH":"120003000023","LEAID":"1200030","NAME":"MYRA TERWILLIGER ELEMENTARY SCHOOL","STATE":"FL","CITY":"GAINESVILLE","ZIP":"32608","CNTY":"12001","NMCNTY":"Alachua County","LOCALE":"22","SCHOOLYEAR":"2024-2025"}},{"type":"Feature","geometry":{"type":"Point","coordinates":[-82.348193,29.609717]},"properties":{"NCESSCH":"120003000024","LEAID":"1200030","NAME":"IDYLWILD ELEMENTARY SCHOOL","STATE":"FL","CITY":"GAINESVILLE","ZIP":"32608","CNTY":"12001","NMCNTY":"Alachua County","LOCALE":"22","SCHOOLYEAR":"2024-2025"}},{"type":"Feature","geometry":{"type":"Point","coordinates":[-82.364814,29.682436]},"properties":{"NCESSCH":"120003000025","LEAID":"1200030","NAME":"GLEN SPRINGS ELEMENTARY SCHOOL","STATE":"FL","CITY":"GAINESVILLE","ZIP":"32605","CNTY":"12001","NMCNTY":"Alachua County","LOCALE":"12","SCHOOLYEAR":"2024-2025"}},{"type":"Feature","geometry":{"type":"Point","coordinates":[-82.306855,29.684391]},"properties":{"NCESSCH":"120003000026","LEAID":"1200030","NAME":"MARJORIE KINNAN RAWLINGS ELEMENTARY SCHOOL","STATE":"FL","CITY":"GAINESVILLE","ZIP":"32609","CNTY":"12001","NMCNTY":"Alachua County","LOCALE":"12","SCHOOLYEAR":"2024-2025"}},{"type":"Feature","geometry":{"type":"Point","coordinates":[-82.286925,29.655566]},"properties":{"NCESSCH":"120003000027","LEAID":"1200030","NAME":"PROFESSIONAL ACADEMY MAGNET AT LOFTEN HIGH SCHOOL","STATE":"FL","CITY":"GAINESVILLE","ZIP":"32641","CNTY":"12001","NMCNTY":"Alachua County","LOCALE":"12","SCHOOLYEAR":"2024-2025"}},{"type":"Feature","geometry":{"type":"Point","coordinates":[-82.268607,29.64017]},"properties":{"NCESSCH":"120003000028","LEAID":"1200030","NAME":"EASTSIDE HIGH SCHOOL","STATE":"FL","CITY":"GAINESVILLE","ZIP":"32641","CNTY":"12001","NMCNTY":"Alachua County","LOCALE":"22","SCHOOLYEAR":"2024-2025"}},{"type":"Feature","geometry":{"type":"Point","coordinates":[-82.402137,29.678599]},"properties":{"NCESSCH":"120003000029","LEAID":"1200030","NAME":"F. W. BUCHHOLZ HIGH SCHOOL","STATE":"FL","CITY":"GAINESVILLE","ZIP":"32606","CNTY":"12001","NMCNTY":"Alachua County","LOCALE":"22","SCHOOLYEAR":"2024-2025"}},{"type":"Feature","geometry":{"type":"Point","coordinates":[-82.441804,29.673241]},"properties":{"NCESSCH":"120003000032","LEAID":"1200030","NAME":"FORT CLARKE MIDDLE SCHOOL","STATE":"FL","CITY":"GAINESVILLE","ZIP":"32606","CNTY":"12001","NMCNTY":"Alachua County","LOCALE":"22","SCHOOLYEAR":"2024-2025"}},{"type":"Feature","geometry":{"type":"Point","coordinates":[-82.613745,29.637688]},"properties":{"NCESSCH":"120003000033","LEAID":"1200030","NAME":"NEWBERRY ELEMENTARY SCHOOL","STATE":"FL","CITY":"NEWBERRY","ZIP":"32669","CNTY":"12001","NMCNTY":"Alachua County","LOCALE":"42","SCHOOLYEAR":"2024-2025"}},{"type":"Feature","geometry":{"type":"Point","coordinates":[-82.492935,29.779417]},"properties":{"NCESSCH":"120003000034","LEAID":"1200030","NAME":"W. W. IRBY ELEMENTARY SCHOOL","STATE":"FL","CITY":"ALACHUA","ZIP":"32615","CNTY":"12001","NMCNTY":"Alachua County","LOCALE":"42","SCHOOLYEAR":"2024-2025"}},{"type":"Feature","geometry":{"type":"Point","coordinates":[-82.605243,29.64103]},"properties":{"NCESSCH":"120003000619","LEAID":"1200030","NAME":"OAK VIEW MIDDLE SCHOOL","STATE":"FL","CITY":"NEWBERRY","ZIP":"32669","CNTY":"12001","NMCNTY":"Alachua County","LOCALE":"42","SCHOOLYEAR":"2024-2025"}},{"type":"Feature","geometry":{"type":"Point","coordinates":[-82.420591,29.611341]},"properties":{"NCESSCH":"120003002465","LEAID":"1200030","NAME":"KIMBALL WILES ELEMENTARY SCHOOL","STATE":"FL","CITY":"GAINESVILLE","ZIP":"32608","CNTY":"12001","NMCNTY":"Alachua County","LOCALE":"22","SCHOOLYEAR":"2024-2025"}},{"type":"Feature","geometry":{"type":"Point","coordinates":[-82.387317,29.707956]},"properties":{"NCESSCH":"120003002466","LEAID":"1200030","NAME":"WILLIAM S. TALBOT ELEM SCHOOL","STATE":"FL","CITY":"GAINESVILLE","ZIP":"32653","CNTY":"12001","NMCNTY":"Alachua County","LOCALE":"12","SCHOOLYEAR":"2024-2025"}},{"type":"Feature","geometry":{"type":"Point","coordinates":[-82.440753,29.67139]},"properties":{"NCESSCH":"120003002588","LEAID":"1200030","NAME":"HIDDEN OAK ELEMENTARY SCHOOL","STATE":"FL","CITY":"GAINESVILLE","ZIP":"32606","CNTY":"12001","NMCNTY":"Alachua County","LOCALE":"22","SCHOOLYEAR":"2024-2025"}},{"type":"Feature","geometry":{"type":"Point","coordinates":[-82.307168,29.685862]},"properties":{"NCESSCH":"120003002975","LEAID":"1200030","NAME":"FEARNSIDE FAMILY SERVICES CENTER","STATE":"FL","CITY":"GAINESVILLE","ZIP":"32609","CNTY":"12001","NMCNTY":"Alachua County","LOCALE":"12","SCHOOLYEAR":"2024-2025"}},{"type":"Feature","geometry":{"type":"Point","coordinates":[-82.420546,29.607385]},"properties":{"NCESSCH":"120003003022","LEAID":"1200030","NAME":"KANAPAHA MIDDLE SCHOOL","STATE":"FL","CITY":"GAINESVILLE","ZIP":"32608","CNTY":"12001","NMCNTY":"Alachua County","LOCALE":"22","SCHOOLYEAR":"2024-2025"}},{"type":"Feature","geometry":{"type":"Point","coordinates":[-82.30057,29.649671]},"properties":{"NCESSCH":"120003003141","LEAID":"1200030","NAME":"HOSPITAL HOMEBOUND","STATE":"FL","CITY":"GAINESVILLE","ZIP":"32641","CNTY":"12001","NMCNTY":"Alachua County","LOCALE":"12","SCHOOLYEAR":"2024-2025"}},{"type":"Feature","geometry":{"type":"Point","coordinates":[-82.4217,29.612]},"properties":{"NCESSCH":"120003003143","LEAID":"1200030","NAME":"WILES HEAD START","STATE":"FL","CITY":"GAINESVILLE","ZIP":"32608","CNTY":"12001","NMCNTY":"Alachua County","LOCALE":"22","SCHOOLYEAR":"2024-2025"}},{"type":"Feature","geometry":{"type":"Point","coordinates":[-82.306643,29.689922]},"properties":{"NCESSCH":"120003003144","LEAID":"1200030","NAME":"THE ONE ROOM SCHOOL HOUSE PROJECT","STATE":"FL","CITY":"GAINESVILLE","ZIP":"32609","CNTY":"12001","NMCNTY":"Alachua County","LOCALE":"12","SCHOOLYEAR":"2024-2025"}},{"type":"Feature","geometry":{"type":"Point","coordinates":[-82.28984,29.504872]},"properties":{"NCESSCH":"120003003145","LEAID":"1200030","NAME":"MICANOPY AREA COOPERATIVE SCHOOL INC.","STATE":"FL","CITY":"MICANOPY","ZIP":"32667","CNTY":"12001","NMCNTY":"Alachua County","LOCALE":"42","SCHOOLYEAR":"2024-2025"}},{"type":"Feature","geometry":{"type":"Point","coordinates":[-82.413606,29.599875]},"properties":{"NCESSCH":"120003003282","LEAID":"1200030","NAME":"AMIKIDS","STATE":"FL","CITY":"GAINESVILLE","ZIP":"32608","CNTY":"12001","NMCNTY":"Alachua County","LOCALE":"22","SCHOOLYEAR":"2024-2025"}},{"type":"Feature","geometry":{"type":"Point","coordinates":[-82.31305,29.648694]},"properties":{"NCESSCH":"120003003283","LEAID":"1200030","NAME":"PACE","STATE":"FL","CITY":"GAINESVILLE","ZIP":"32601","CNTY":"12001","NMCNTY":"Alachua County","LOCALE":"12","SCHOOLYEAR":"2024-2025"}},{"type":"Feature","geometry":{"type":"Point","coordinates":[-82.315368,29.633714]},"properties":{"NCESSCH":"120003003285","LEAID":"1200030","NAME":"CARING & SHARING LEARNING SCHOOL","STATE":"FL","CITY":"GAINESVILLE","ZIP":"32641","CNTY":"12001","NMCNTY":"Alachua County","LOCALE":"41","SCHOOLYEAR":"2024-2025"}},{"type":"Feature","geometry":{"type":"Point","coordinates":[-82.444594,29.628534]},"properties":{"NCESSCH":"120003003530","LEAID":"1200030","NAME":"LAWTON M. CHILES ELEMENTARY SCHOOL","STATE":"FL","CITY":"GAINESVILLE","ZIP":"32608","CNTY":"12001","NMCNTY":"Alachua County","LOCALE":"22","SCHOOLYEAR":"2024-2025"}},{"type":"Feature","geometry":{"type":"Point","coordinates":[-82.406323,29.607273]},"properties":{"NCESSCH":"120003003532","LEAID":"1200030","NAME":"THE EINSTEIN SCHOOL INC.","STATE":"FL","CITY":"GAINESVILLE","ZIP":"32608","CNTY":"12001","NMCNTY":"Alachua County","LOCALE":"22","SCHOOLYEAR":"2024-2025"}},{"type":"Feature","geometry":{"type":"Point","coordinates":[-82.3417,29.603]},"properties":{"NCESSCH":"120003003533","LEAID":"1200030","NAME":"EXPRESSIONS LEARNING ARTS ACADEMY","STATE":"FL","CITY":"GAINESVILLE","ZIP":"32608","CNTY":"12001","NMCNTY":"Alachua County","LOCALE":"41","SCHOOLYEAR":"2024-2025"}},{"type":"Feature","geometry":{"type":"Point","coordinates":[-82.46459,29.813764]},"properties":{"NCESSCH":"120003003534","LEAID":"1200030","NAME":"ALACHUA LEARNING ACADEMY ELEMENTARY","STATE":"FL","CITY":"ALACHUA","ZIP":"32615","CNTY":"12001","NMCNTY":"Alachua County","LOCALE":"42","SCHOOLYEAR":"2024-2025"}},{"type":"Feature","geometry":{"type":"Point","coordinates":[-82.286593,29.509111]},"properties":{"NCESSCH":"120003003811","LEAID":"1200030","NAME":"MICANOPY ACADEMY","STATE":"FL","CITY":"MICANOPY","ZIP":"32667","CNTY":"12001","NMCNTY":"Alachua County","LOCALE":"42","SCHOOLYEAR":"2024-2025"}},{"type":"Feature","geometry":{"type":"Point","coordinates":[-82.486586,29.654422]},"properties":{"NCESSCH":"120003003981","LEAID":"1200030","NAME":"HEALTHY LEARNING ACADEMY CHARTER SCHOOL","STATE":"FL","CITY":"NEWBERRY","ZIP":"32669","CNTY":"12001","NMCNTY":"Alachua County","LOCALE":"22","SCHOOLYEAR":"2024-2025"}},{"type":"Feature","geometry":{"type":"Point","coordinates":[-82.589814,29.834211]},"properties":{"NCESSCH":"120003003989","LEAID":"1200030","NAME":"HIGH SPRINGS COMMUNITY SCHOOL","STATE":"FL","CITY":"HIGH SPRINGS","ZIP":"32643","CNTY":"12001","NMCNTY":"Alachua County","LOCALE":"42","SCHOOLYEAR":"2024-2025"}},{"type":"Feature","geometry":{"type":"Point","coordinates":[-82.417818,29.662472]},"properties":{"NCESSCH":"120003004047","LEAID":"1200030","NAME":"SIATECH MYCROSCHOOL INC.","STATE":"FL","CITY":"GAINESVILLE","ZIP":"32605","CNTY":"12001","NMCNTY":"Alachua County","LOCALE":"22","SCHOOLYEAR":"2024-2025"}},{"type":"Feature","geometry":{"type":"Point","coordinates":[-82.279673,29.678219]},"properties":{"NCESSCH":"120003007045","LEAID":"1200030","NAME":"ALACHUA COUNTY JAIL","STATE":"FL","CITY":"GAINESVILLE","ZIP":"32609","CNTY":"12001","NMCNTY":"Alachua County","LOCALE":"41","SCHOOLYEAR":"2024-2025"}},{"type":"Feature","geometry":{"type":"Point","coordinates":[-82.288789,29.658565]},"properties":{"NCESSCH":"120003007696","LEAID":"1200030","NAME":"ALACHUA VIRTUAL INSTRUCTION PROGRAM","STATE":"FL","CITY":"GAINESVILLE","ZIP":"32641","CNTY":"12001","NMCNTY":"Alachua County","LOCALE":"12","SCHOOLYEAR":"2024-2025"}},{"type":"Feature","geometry":{"type":"Point","coordinates":[-82.335369,29.658082]},"properties":{"NCESSCH":"120003007945","LEAID":"1200030","NAME":"ALACHUA ESCHOOL (VIRTUAL FRANCHISE)","STATE":"FL","CITY":"GAINESVILLE","ZIP":"32601","CNTY":"12001","NMCNTY":"Alachua County","LOCALE":"12","SCHOOLYEAR":"2024-2025"}},{"type":"Feature","geometry":{"type":"Point","coordinates":[-82.312797,29.667393]},"properties":{"NCESSCH":"120003007948","LEAID":"1200030","NAME":"NORTH CENTRAL FLORIDA PUBLIC CHARTER SCHOOL","STATE":"FL","CITY":"GAINESVILLE","ZIP":"32601","CNTY":"12001","NMCNTY":"Alachua County","LOCALE":"12","SCHOOLYEAR":"2024-2025"}},{"type":"Feature","geometry":{"type":"Point","coordinates":[-82.46459,29.813764]},"properties":{"NCESSCH":"120003007954","LEAID":"1200030","NAME":"ALACHUA LEARNING ACADEMY MIDDLE","STATE":"FL","CITY":"ALACHUA","ZIP":"32615","CNTY":"12001","NMCNTY":"Alachua County","LOCALE":"42","SCHOOLYEAR":"2024-2025"}},{"type":"Feature","geometry":{"type":"Point","coordinates":[-82.462168,29.687893]},"properties":{"NCESSCH":"120003008203","LEAID":"1200030","NAME":"MEADOWBROOK ELEMENTARY SCHOOL","STATE":"FL","CITY":"GAINESVILLE","ZIP":"32606","CNTY":"12001","NMCNTY":"Alachua County","LOCALE":"22","SCHOOLYEAR":"2024-2025"}},{"type":"Feature","geometry":{"type":"Point","coordinates":[-82.335369,29.658082]},"properties":{"NCESSCH":"120003008285","LEAID":"1200030","NAME":"ALACHUA VIRTUAL INSTRUCTION PROGRAM (DISTRICT PROVIDED)","STATE":"FL","CITY":"GAINESVILLE","ZIP":"32601","CNTY":"12001","NMCNTY":"Alachua County","LOCALE":"12","SCHOOLYEAR":"2024-2025"}},{"type":"Feature","geometry":{"type":"Point","coordinates":[-82.308376,29.6733]},"properties":{"NCESSCH":"120003008358","LEAID":"1200030","NAME":"BOULWARE SPRINGS CHARTER","STATE":"FL","CITY":"GAINESVILLE","ZIP":"32609","CNTY":"12001","NMCNTY":"Alachua County","LOCALE":"12","SCHOOLYEAR":"2024-2025"}},{"type":"Feature","geometry":{"type":"Point","coordinates":[-82.298034,29.659802]},"properties":{"NCESSCH":"120003008485","LEAID":"1200030","NAME":"EARLY LEARNING ACADEMY AT DUVAL","STATE":"FL","CITY":"GAINESVILLE","ZIP":"32641","CNTY":"12001","NMCNTY":"Alachua County","LOCALE":"12","SCHOOLYEAR":"2024-2025"}},{"type":"Feature","geometry":{"type":"Point","coordinates":[-82.314253,29.668018]},"properties":{"NCESSCH":"120003008516","LEAID":"1200030","NAME":"RESILIENCE CHARTER SCHOOL INC","STATE":"FL","CITY":"GAINESVILLE","ZIP":"32609","CNTY":"12001","NMCNTY":"Alachua County","LOCALE":"12","SCHOOLYEAR":"2024-2025"}},{"type":"Feature","geometry":{"type":"Point","coordinates":[-82.434024,29.680505]},"properties":{"NCESSCH":"120003008900","LEAID":"1200030","NAME":"SANTA FE COLLEGE HIGH SCHOOL DUAL ENROLLMENT","STATE":"FL","CITY":"GAINESVILLE","ZIP":"32606","CNTY":"12001","NMCNTY":"Alachua County","LOCALE":"22","SCHOOLYEAR":"2024-2025"}},{"type":"Feature","geometry":{"type":"Point","coordinates":[-82.271741,29.67875]},"properties":{"NCESSCH":"120003010619","LEAID":"1200030","NAME":"CHALLENGE AT ALACHUA ACADEMY","STATE":"FL","CITY":"GAINESVILLE","ZIP":"32609","CNTY":"12001","NMCNTY":"Alachua County","LOCALE":"41","SCHOOLYEAR":"2024-2025"}},{"type":"Feature","geometry":{"type":"Point","coordinates":[-82.271741,29.67875]},"properties":{"NCESSCH":"120003010620","LEAID":"1200030","NAME":"ALACHUA REGIONAL JUVENILE DETENTION CENTER","STATE":"FL","CITY":"GAINESVILLE","ZIP":"32609","CNTY":"12001","NMCNTY":"Alachua County","LOCALE":"41","SCHOOLYEAR":"2024-2025"}},{"type":"Feature","geometry":{"type":"Point","coordinates":[-82.288789,29.658565]},"properties":{"NCESSCH":"120003010721","LEAID":"1200030","NAME":"SCHOLARS FOR SUCCESS","STATE":"FL","CITY":"GAINESVILLE","ZIP":"32641","CNTY":"12001","NMCNTY":"Alachua County","LOCALE":"12","SCHOOLYEAR":"2024-2025"}},{"type":"Feature","geometry":{"type":"Point","coordinates":[-82.434024,29.680505]},"properties":{"NCESSCH":"120003010722","LEAID":"1200030","NAME":"SANTA FE COLLEGE ACADEMY OF SCIENCE AND TECHNOLOGY","STATE":"FL","CITY":"GAINSVILLE","ZIP":"32606","CNTY":"12001","NMCNTY":"Alachua County","LOCALE":"22","SCHOOLYEAR":"2024-2025"}},{"type":"Feature","geometry":{"type":"Point","coordinates":[-82.169488,29.791832]},"properties":{"NCESSCH":"120003010723","LEAID":"1200030","NAME":"CONSTELLATION CHARTER SCHOOL OF GAINESVILLE","STATE":"FL","CITY":"WALDO","ZIP":"32694","CNTY":"12001","NMCNTY":"Alachua County","LOCALE":"42","SCHOOLYEAR":"2024-2025"}},{"type":"Feature","geometry":{"type":"Point","coordinates":[-82.434024,29.680505]},"properties":{"NCESSCH":"120003010725","LEAID":"1200030","NAME":"SANTA FE COLLEGE ACADEMY OF SCIENCE AND TECHNOLOGY9924","STATE":"FL","CITY":"GAINESVILLE","ZIP":"32606","CNTY":"12001","NMCNTY":"Alachua County","LOCALE":"22","SCHOOLYEAR":"2024-2025"}},{"type":"Feature","geometry":{"type":"Point","coordinates":[-82.154398,30.282224]},"properties":{"NCESSCH":"120006000035","LEAID":"1200060","NAME":"BAKER COUNTY SENIOR HIGH SCHOOL","STATE":"FL","CITY":"GLEN ST MARY","ZIP":"32040","CNTY":"12003","NMCNTY":"Baker County","LOCALE":"32","SCHOOLYEAR":"2024-2025"}},{"type":"Feature","geometry":{"type":"Point","coordinates":[-82.131153,30.297973]},"properties":{"NCESSCH":"120006000036","LEAID":"1200060","NAME":"MACCLENNY ELEMENTARY SCHOOL","STATE":"FL","CITY":"MACCLENNY","ZIP":"32063","CNTY":"12003","NMCNTY":"Baker County","LOCALE":"32","SCHOOLYEAR":"2024-2025"}},{"type":"Feature","geometry":{"type":"Point","coordinates":[-82.119014,30.275223]},"properties":{"NCESSCH":"120006000037","LEAID":"1200060","NAME":"BAKER COUNTY MIDDLE SCHOOL","STATE":"FL","CITY":"MACCLENNY","ZIP":"32063","CNTY":"12003","NMCNTY":"Baker County","LOCALE":"32","SCHOOLYEAR":"2024-2025"}},{"type":"Feature","geometry":{"type":"Point","coordinates":[-82.158114,30.281062]},"properties":{"NCESSCH":"120006000038","LEAID":"1200060","NAME":"WESTSIDE ELEMENTARY SCHOOL","STATE":"FL","CITY":"GLEN ST MARY","ZIP":"32040","CNTY":"12003","NMCNTY":"Baker County","LOCALE":"32","SCHOOLYEAR":"2024-2025"}},{"type":"Feature","geometry":{"type":"Point","coordinates":[-82.127652,30.276777]},"properties":{"NCESSCH":"120006002647","LEAID":"1200060","NAME":"J FRANKLYN KELLER INTERMEDIATE SCHOOL","STATE":"FL","CITY":"MACCLENNY","ZIP":"32063","CNTY":"12003","NMCNTY":"Baker County","LOCALE":"32","SCHOOLYEAR":"2024-2025"}},{"type":"Feature","geometry":{"type":"Point","coordinates":[-82.116623,30.277118]},"properties":{"NCESSCH":"120006005427","LEAID":"1200060","NAME":"PREK/KINDERGARTEN CENTER","STATE":"FL","CITY":"MACCLENNY","ZIP":"32063","CNTY":"12003","NMCNTY":"Baker County","LOCALE":"32","SCHOOLYEAR":"2024-2025"}},{"type":"Feature","geometry":{"type":"Point","coordinates":[-82.118319,30.276913]},"properties":{"NCESSCH":"120006007718","LEAID":"1200060","NAME":"BAKER VIRTUAL INSTRUCTION PROGRAM","STATE":"FL","CITY":"MACCLENNY","ZIP":"32063","CNTY":"12003","NMCNTY":"Baker County","LOCALE":"32","SCHOOLYEAR":"2024-2025"}},{"type":"Feature","geometry":{"type":"Point","coordinates":[-82.118319,30.276913]},"properties":{"NCESSCH":"120006007873","LEAID":"1200060","NAME":"BAKER COUNTY VIRTUAL FRANCHISE","STATE":"FL","CITY":"MACCLENNY","ZIP":"32063","CNTY":"12003","NMCNTY":"Baker County","LOCALE":"32","SCHOOLYEAR":"2024-2025"}},{"type":"Feature","geometry":{"type":"Point","coordinates":[-82.118319,30.276913]},"properties":{"NCESSCH":"120006007975","LEAID":"1200060","NAME":"BAKER VIRTUAL INSTRUCTION PROGRAM (DISTRICT PROVIDED)","STATE":"FL","CITY":"MACCLENNY","ZIP":"32063","CNTY":"12003","NMCNTY":"Baker County","LOCALE":"32","SCHOOLYEAR":"2024-2025"}},{"type":"Feature","geometry":{"type":"Point","coordinates":[-82.142853,30.237601]},"properties":{"NCESSCH":"120006010621","LEAID":"1200060","NAME":"LEGACY ELEMENTARY SCHOOL","STATE":"FL","CITY":"MACCLENNY","ZIP":"32063","CNTY":"12003","NMCNTY":"Baker County","LOCALE":"41","SCHOOLYEAR":"2024-2025"}},{"type":"Feature","geometry":{"type":"Point","coordinates":[-81.686686,30.411444]},"properties":{"NCESSCH":"120008410710","LEAID":"1200084","NAME":"IDEA BASSETT","STATE":"FL","CITY":"JACKSONVILLE","ZIP":"32208","CNTY":"12031","NMCNTY":"Duval County","LOCALE":"11","SCHOOLYEAR":"2024-2025"}},{"type":"Feature","geometry":{"type":"Point","coordinates":[-81.603764,30.346552]},"properties":{"NCESSCH":"120008410711","LEAID":"1200084","NAME":"IDEA RIVER BLUFF","STATE":"FL","CITY":"JACKSONVILLE","ZIP":"32211","CNTY":"12031","NMCNTY":"Duval County","LOCALE":"11","SCHOOLYEAR":"2024-2025"}},{"type":"Feature","geometry":{"type":"Point","coordinates":[-82.453491,28.053513]},"properties":{"NCESSCH":"120008410712","LEAID":"1200084","NAME":"IDEA VICTORY","STATE":"FL","CITY":"TAMPA","ZIP":"33612","CNTY":"12057","NMCNTY":"Hillsborough County","LOCALE":"11","SCHOOLYEAR":"2024-2025"}},{"type":"Feature","geometry":{"type":"Point","coordinates":[-82.399227,27.96403]},"properties":{"NCESSCH":"120008410714","LEAID":"1200084","NAME":"IDEA HOPE","STATE":"FL","CITY":"TAMPA","ZIP":"33619","CNTY":"12057","NMCNTY":"Hillsborough County","LOCALE":"11","SCHOOLYEAR":"2024-2025"}},{"type":"Feature","geometry":{"type":"Point","coordinates":[-81.741525,30.253267]},"properties":{"NCESSCH":"120008410897","LEAID":"1200084","NAME":"IDEA COMPASS","STATE":"FL","CITY":"JACKSONVILLE","ZIP":"32210","CNTY":"12031","NMCNTY":"Duval County","LOCALE":"11","SCHOOLYEAR":"2024-2025"}},{"type":"Feature","geometry":{"type":"Point","coordinates":[-81.978489,28.067463]},"properties":{"NCESSCH":"120008410898","LEAID":"1200084","NAME":"IDEA LAKELAND","STATE":"FL","CITY":"LAKELAND","ZIP":"33805","CNTY":"12105","NMCNTY":"Polk County","LOCALE":"12","SCHOOLYEAR":"2024-2025"}},{"type":"Feature","geometry":{"type":"Point","coordinates":[-85.65866,30.170673]},"properties":{"NCESSCH":"120009000039","LEAID":"1200090","NAME":"BAY HIGH SCHOOL","STATE":"FL","CITY":"PANAMA CITY","ZIP":"32401","CNTY":"12005","NMCNTY":"Bay County","LOCALE":"13","SCHOOLYEAR":"2024-2025"}},{"type":"Feature","geometry":{"type":"Point","coordinates":[-85.836975,30.199348]},"properties":{"NCESSCH":"120009000040","LEAID":"1200090","NAME":"HUTCHISON BEACH ELEMENTARY SCHOOL","STATE":"FL","CITY":"PANAMA CITY BEACH","ZIP":"32407","CNTY":"12005","NMCNTY":"Bay County","LOCALE":"13","SCHOOLYEAR":"2024-2025"}},{"type":"Feature","geometry":{"type":"Point","coordinates":[-85.62191,30.173935]},"properties":{"NCESSCH":"120009000041","LEAID":"1200090","NAME":"CEDAR GROVE ELEMENTARY SCHOOL","STATE":"FL","CITY":"PANAMA CITY","ZIP":"32405","CNTY":"12005","NMCNTY":"Bay County","LOCALE":"22","SCHOOLYEAR":"2024-2025"}},{"type":"Feature","geometry":{"type":"Point","coordinates":[-85.56894,30.153844]},"properties":{"NCESSCH":"120009000042","LEAID":"1200090","NAME":"CALLAWAY ELEMENTARY SCHOOL","STATE":"FL","CITY":"PANAMA CITY","ZIP":"32404","CNTY":"12005","NMCNTY":"Bay County","LOCALE":"22","SCHOOLYEAR":"2024-2025"}},{"type":"Feature","geometry":{"type":"Point","coordinates":[-85.645231,30.146558]},"properties":{"NCESSCH":"120009000043","LEAID":"1200090","NAME":"MERRIAM CHERRY STREET ELEMENTARY","STATE":"FL","CITY":"PANAMA CITY","ZIP":"32401","CNTY":"12005","NMCNTY":"Bay County","LOCALE":"13","SCHOOLYEAR":"2024-2025"}},{"type":"Feature","geometry":{"type":"Point","coordinates":[-85.707052,30.18334]},"properties":{"NCESSCH":"120009000045","LEAID":"1200090","NAME":"LUCILLE MOORE ELEMENTARY SCHOOL","STATE":"FL","CITY":"PANAMA CITY","ZIP":"32405","CNTY":"12005","NMCNTY":"Bay County","LOCALE":"13","SCHOOLYEAR":"2024-2025"}},{"type":"Feature","geometry":{"type":"Point","coordinates":[-85.629027,30.202967]},"properties":{"NCESSCH":"120009000047","LEAID":"1200090","NAME":"HILAND PARK ELEMENTARY SCHOOL","STATE":"FL","CITY":"PANAMA CITY","ZIP":"32405","CNTY":"12005","NMCNTY":"Bay County","LOCALE":"22","SCHOOLYEAR":"2024-2025"}},{"type":"Feature","geometry":{"type":"Point","coordinates":[-85.668082,30.168762]},"properties":{"NCESSCH":"120009000048","LEAID":"1200090","NAME":"JINKS MIDDLE SCHOOL","STATE":"FL","CITY":"PANAMA CITY","ZIP":"32401","CNTY":"12005","NMCNTY":"Bay County","LOCALE":"13","SCHOOLYEAR":"2024-2025"}},{"type":"Feature","geometry":{"type":"Point","coordinates":[-85.6518,30.244303]},"properties":{"NCESSCH":"120009000049","LEAID":"1200090","NAME":"LYNN HAVEN ELEMENTARY SCHOOL","STATE":"FL","CITY":"LYNN HAVEN","ZIP":"32444","CNTY":"12005","NMCNTY":"Bay County","LOCALE":"22","SCHOOLYEAR":"2024-2025"}},{"type":"Feature","geometry":{"type":"Point","coordinates":[-85.600667,30.135626]},"properties":{"NCESSCH":"120009000052","LEAID":"1200090","NAME":"PARKER ELEMENTARY SCHOOL","STATE":"FL","CITY":"PANAMA CITY","ZIP":"32404","CNTY":"12005","NMCNTY":"Bay County","LOCALE":"22","SCHOOLYEAR":"2024-2025"}},{"type":"Feature","geometry":{"type":"Point","coordinates":[-85.641633,30.288527]},"properties":{"NCESSCH":"120009000053","LEAID":"1200090","NAME":"SOUTHPORT ELEMENTARY SCHOOL","STATE":"FL","CITY":"SOUTHPORT","ZIP":"32409","CNTY":"12005","NMCNTY":"Bay County","LOCALE":"22","SCHOOLYEAR":"2024-2025"}},{"type":"Feature","geometry":{"type":"Point","coordinates":[-85.691287,30.170723]},"properties":{"NCESSCH":"120009000055","LEAID":"1200090","NAME":"ST. ANDREW SCHOOL AT OAKLAND TERRACE","STATE":"FL","CITY":"PANAMA CITY","ZIP":"32401","CNTY":"12005","NMCNTY":"Bay County","LOCALE":"13","SCHOOLYEAR":"2024-2025"}},{"type":"Feature","geometry":{"type":"Point","coordinates":[-85.440805,30.365955]},"properties":{"NCESSCH":"120009000056","LEAID":"1200090","NAME":"WALLER ELEMENTARY SCHOOL","STATE":"FL","CITY":"YOUNGSTOWN","ZIP":"32466","CNTY":"12005","NMCNTY":"Bay County","LOCALE":"42","SCHOOLYEAR":"2024-2025"}},{"type":"Feature","geometry":{"type":"Point","coordinates":[-85.564132,30.241915]},"properties":{"NCESSCH":"120009000059","LEAID":"1200090","NAME":"TOMMY SMITH ELEMENTARY SCHOOL","STATE":"FL","CITY":"PANAMA CITY","ZIP":"32404","CNTY":"12005","NMCNTY":"Bay County","LOCALE":"22","SCHOOLYEAR":"2024-2025"}},{"type":"Feature","geometry":{"type":"Point","coordinates":[-85.656005,30.228427]},"properties":{"NCESSCH":"120009000063","LEAID":"1200090","NAME":"MOWAT MIDDLE SCHOOL","STATE":"FL","CITY":"LYNN HAVEN","ZIP":"32444","CNTY":"12005","NMCNTY":"Bay County","LOCALE":"22","SCHOOLYEAR":"2024-2025"}},{"type":"Feature","geometry":{"type":"Point","coordinates":[-85.614743,30.166115]},"properties":{"NCESSCH":"120009000064","LEAID":"1200090","NAME":"RUTHERFORD HIGH SCHOOL","STATE":"FL","CITY":"PANAMA CITY","ZIP":"32401","CNTY":"12005","NMCNTY":"Bay County","LOCALE":"22","SCHOOLYEAR":"2024-2025"}},{"type":"Feature","geometry":{"type":"Point","coordinates":[-85.677323,30.185328]},"properties":{"NCESSCH":"120009000065","LEAID":"1200090","NAME":"NORTHSIDE ELEMENTARY SCHOOL","STATE":"FL","CITY":"PANAMA CITY","ZIP":"32405","CNTY":"12005","NMCNTY":"Bay County","LOCALE":"13","SCHOOLYEAR":"2024-2025"}},{"type":"Feature","geometry":{"type":"Point","coordinates":[-85.643784,30.21021]},"properties":{"NCESSCH":"120009000067","LEAID":"1200090","NAME":"A. CRAWFORD MOSLEY HIGH SCHOOL","STATE":"FL","CITY":"LYNN HAVEN","ZIP":"32444","CNTY":"12005","NMCNTY":"Bay County","LOCALE":"22","SCHOOLYEAR":"2024-2025"}},{"type":"Feature","geometry":{"type":"Point","coordinates":[-85.609259,30.083174]},"properties":{"NCESSCH":"120009000068","LEAID":"1200090","NAME":"TYNDALL ACADEMY","STATE":"FL","CITY":"TYNDALL AFB","ZIP":"32403","CNTY":"12005","NMCNTY":"Bay County","LOCALE":"22","SCHOOLYEAR":"2024-2025"}},{"type":"Feature","geometry":{"type":"Point","coordinates":[-85.676048,30.172577]},"properties":{"NCESSCH":"120009002034","LEAID":"1200090","NAME":"EXCEPTIONAL STUDENT EDUCATION","STATE":"FL","CITY":"PANAMA CITY","ZIP":"32401","CNTY":"12005","NMCNTY":"Bay County","LOCALE":"13","SCHOOLYEAR":"2024-2025"}},{"type":"Feature","geometry":{"type":"Point","coordinates":[-85.625626,30.149873]},"properties":{"NCESSCH":"120009002037","LEAID":"1200090","NAME":"MARGARET K. LEWIS IN MILLVILLE","STATE":"FL","CITY":"PANAMA CITY","ZIP":"32401","CNTY":"12005","NMCNTY":"Bay County","LOCALE":"13","SCHOOLYEAR":"2024-2025"}},{"type":"Feature","geometry":{"type":"Point","coordinates":[-85.562359,30.242019]},"properties":{"NCESSCH":"120009002589","LEAID":"1200090","NAME":"MERRITT BROWN MIDDLE SCHOOL","STATE":"FL","CITY":"PANAMA CITY","ZIP":"32404","CNTY":"12005","NMCNTY":"Bay County","LOCALE":"22","SCHOOLYEAR":"2024-2025"}},{"type":"Feature","geometry":{"type":"Point","coordinates":[-85.85217,30.208787]},"properties":{"NCESSCH":"120009002665","LEAID":"1200090","NAME":"SURFSIDE MIDDLE SCHOOL","STATE":"FL","CITY":"PANAMA CITY BEACH","ZIP":"32413","CNTY":"12005","NMCNTY":"Bay County","LOCALE":"13","SCHOOLYEAR":"2024-2025"}},{"type":"Feature","geometry":{"type":"Point","coordinates":[-85.764264,30.17006]},"properties":{"NCESSCH":"120009002976","LEAID":"1200090","NAME":"PATRONIS ELEMENTARY SCHOOL","STATE":"FL","CITY":"PANAMA CITY BEACH","ZIP":"32408","CNTY":"12005","NMCNTY":"Bay County","LOCALE":"22","SCHOOLYEAR":"2024-2025"}},{"type":"Feature","geometry":{"type":"Point","coordinates":[-85.645172,30.207301]},"properties":{"NCESSCH":"120009003147","LEAID":"1200090","NAME":"NEW HORIZONS LEARNING CENTER","STATE":"FL","CITY":"PANAMA CITY","ZIP":"32405","CNTY":"12005","NMCNTY":"Bay County","LOCALE":"22","SCHOOLYEAR":"2024-2025"}},{"type":"Feature","geometry":{"type":"Point","coordinates":[-85.65467,30.167378]},"properties":{"NCESSCH":"120009003289","LEAID":"1200090","NAME":"BAY REGIONAL JUVENILE DETENTION CENTER","STATE":"FL","CITY":"PANAMA CITY","ZIP":"32401","CNTY":"12005","NMCNTY":"Bay County","LOCALE":"13","SCHOOLYEAR":"2024-2025"}},{"type":"Feature","geometry":{"type":"Point","coordinates":[-85.62725,30.213155]},"properties":{"NCESSCH":"120009003676","LEAID":"1200090","NAME":"BAY HAVEN CHARTER ACADEMY","STATE":"FL","CITY":"PANAMA CITY","ZIP":"32405","CNTY":"12005","NMCNTY":"Bay County","LOCALE":"22","SCHOOLYEAR":"2024-2025"}},{"type":"Feature","geometry":{"type":"Point","coordinates":[-85.685826,30.394342]},"properties":{"NCESSCH":"120009004304","LEAID":"1200090","NAME":"DEANE BOZEMAN SCHOOL","STATE":"FL","CITY":"PANAMA CITY","ZIP":"32409","CNTY":"12005","NMCNTY":"Bay County","LOCALE":"42","SCHOOLYEAR":"2024-2025"}},{"type":"Feature","geometry":{"type":"Point","coordinates":[-85.8128,30.204689]},"properties":{"NCESSCH":"120009004305","LEAID":"1200090","NAME":"J.R. ARNOLD HIGH SCHOOL","STATE":"FL","CITY":"PANAMA CITY BEACH","ZIP":"32407","CNTY":"12005","NMCNTY":"Bay County","LOCALE":"13","SCHOOLYEAR":"2024-2025"}},{"type":"Feature","geometry":{"type":"Point","coordinates":[-85.62725,30.213155]},"properties":{"NCESSCH":"120009005429","LEAID":"1200090","NAME":"BAY HAVEN CHARTER MIDDLE SCHOOL","STATE":"FL","CITY":"PANAMA CITY","ZIP":"32405","CNTY":"12005","NMCNTY":"Bay County","LOCALE":"22","SCHOOLYEAR":"2024-2025"}},{"type":"Feature","geometry":{"type":"Point","coordinates":[-85.658541,30.168575]},"properties":{"NCESSCH":"120009005431","LEAID":"1200090","NAME":"CHAUTAUQUA CHARTER SCHOOL","STATE":"FL","CITY":"PANAMA CITY","ZIP":"32401","CNTY":"12005","NMCNTY":"Bay County","LOCALE":"13","SCHOOLYEAR":"2024-2025"}},{"type":"Feature","geometry":{"type":"Point","coordinates":[-85.674677,30.16947]},"properties":{"NCESSCH":"120009007472","LEAID":"1200090","NAME":"PALM BAY PREPARATORY ACADEMY 6-12","STATE":"FL","CITY":"PANAMA CITY","ZIP":"32401","CNTY":"12005","NMCNTY":"Bay County","LOCALE":"13","SCHOOLYEAR":"2024-2025"}},{"type":"Feature","geometry":{"type":"Point","coordinates":[-85.807902,30.202885]},"properties":{"NCESSCH":"120009007518","LEAID":"1200090","NAME":"BREAKFAST POINT ACADEMY","STATE":"FL","CITY":"PANAMA CITY BEACH","ZIP":"32407","CNTY":"12005","NMCNTY":"Bay County","LOCALE":"13","SCHOOLYEAR":"2024-2025"}},{"type":"Feature","geometry":{"type":"Point","coordinates":[-85.592065,30.257697]},"properties":{"NCESSCH":"120009007649","LEAID":"1200090","NAME":"DEER POINT ELEMENTARY SCHOOL","STATE":"FL","CITY":"PANAMA CITY","ZIP":"32404","CNTY":"12005","NMCNTY":"Bay County","LOCALE":"41","SCHOOLYEAR":"2024-2025"}},{"type":"Feature","geometry":{"type":"Point","coordinates":[-85.640881,30.16607]},"properties":{"NCESSCH":"120009007763","LEAID":"1200090","NAME":"ROSENWALD HIGH SCHOOL","STATE":"FL","CITY":"PANAMA CITY","ZIP":"32401","CNTY":"12005","NMCNTY":"Bay County","LOCALE":"13","SCHOOLYEAR":"2024-2025"}},{"type":"Feature","geometry":{"type":"Point","coordinates":[-85.676048,30.172577]},"properties":{"NCESSCH":"120009007771","LEAID":"1200090","NAME":"BAY VIRTUAL INSTRUCTION PROGRAM","STATE":"FL","CITY":"PANAMA CITY","ZIP":"32401","CNTY":"12005","NMCNTY":"Bay County","LOCALE":"13","SCHOOLYEAR":"2024-2025"}},{"type":"Feature","geometry":{"type":"Point","coordinates":[-85.595998,30.235251]},"properties":{"NCESSCH":"120009007791","LEAID":"1200090","NAME":"NORTH BAY HAVEN CHARTER ACADEMY MIDDLE SCHOOL","STATE":"FL","CITY":"PANAMA CITY","ZIP":"32404","CNTY":"12005","NMCNTY":"Bay County","LOCALE":"22","SCHOOLYEAR":"2024-2025"}},{"type":"Feature","geometry":{"type":"Point","coordinates":[-85.676048,30.172577]},"properties":{"NCESSCH":"120009007830","LEAID":"1200090","NAME":"BAY VIRTUAL FRANCHISE","STATE":"FL","CITY":"PANAMA CITY","ZIP":"32401","CNTY":"12005","NMCNTY":"Bay County","LOCALE":"13","SCHOOLYEAR":"2024-2025"}},{"type":"Feature","geometry":{"type":"Point","coordinates":[-85.595998,30.235251]},"properties":{"NCESSCH":"120009007896","LEAID":"1200090","NAME":"NORTH BAY HAVEN CHARTER ACADEMY ELEMENTARY SCHOOL","STATE":"FL","CITY":"PANAMA CITY","ZIP":"32404","CNTY":"12005","NMCNTY":"Bay County","LOCALE":"22","SCHOOLYEAR":"2024-2025"}},{"type":"Feature","geometry":{"type":"Point","coordinates":[-85.595998,30.235251]},"properties":{"NCESSCH":"120009007903","LEAID":"1200090","NAME":"NORTH BAY HAVEN CAREER ACADEMY","STATE":"FL","CITY":"PANAMA CITY","ZIP":"32404","CNTY":"12005","NMCNTY":"Bay County","LOCALE":"22","SCHOOLYEAR":"2024-2025"}},{"type":"Feature","geometry":{"type":"Point","coordinates":[-85.691517,30.176858]},"properties":{"NCESSCH":"120009008094","LEAID":"1200090","NAME":"RISING LEADERS ACADEMY","STATE":"FL","CITY":"PANAMA CITY","ZIP":"32405","CNTY":"12005","NMCNTY":"Bay County","LOCALE":"13","SCHOOLYEAR":"2024-2025"}},{"type":"Feature","geometry":{"type":"Point","coordinates":[-85.682965,30.207352]},"properties":{"NCESSCH":"120009008103","LEAID":"1200090","NAME":"UNIVERSITY ACADEMY SABL INC","STATE":"FL","CITY":"PANAMA CITY","ZIP":"32405","CNTY":"12005","NMCNTY":"Bay County","LOCALE":"13","SCHOOLYEAR":"2024-2025"}},{"type":"Feature","geometry":{"type":"Point","coordinates":[-85.858831,30.28883]},"properties":{"NCESSCH":"120009008453","LEAID":"1200090","NAME":"WEST BAY ELEMENTARY SCHOOL","STATE":"FL","CITY":"PANAMA CITY BEACH","ZIP":"32413","CNTY":"12005","NMCNTY":"Bay County","LOCALE":"41","SCHOOLYEAR":"2024-2025"}},{"type":"Feature","geometry":{"type":"Point","coordinates":[-85.680762,30.179513]},"properties":{"NCESSCH":"120009008471","LEAID":"1200090","NAME":"CENTRAL HIGH SCHOOL","STATE":"FL","CITY":"PANAMA CITY","ZIP":"32405","CNTY":"12005","NMCNTY":"Bay County","LOCALE":"13","SCHOOLYEAR":"2024-2025"}},{"type":"Feature","geometry":{"type":"Point","coordinates":[-85.674677,30.16947]},"properties":{"NCESSCH":"120009008597","LEAID":"1200090","NAME":"PALM BAY ELEMENTARY SCHOOL","STATE":"FL","CITY":"PANAMA CITY","ZIP":"32401","CNTY":"12005","NMCNTY":"Bay County","LOCALE":"13","SCHOOLYEAR":"2024-2025"}},{"type":"Feature","geometry":{"type":"Point","coordinates":[-85.676048,30.172577]},"properties":{"NCESSCH":"120009008742","LEAID":"1200090","NAME":"BAY VIRTUAL INSTRUCTION PROGRAM (DISTRICT PROVIDED)","STATE":"FL","CITY":"PANAMA CITY","ZIP":"32401","CNTY":"12005","NMCNTY":"Bay County","LOCALE":"13","SCHOOLYEAR":"2024-2025"}},{"type":"Feature","geometry":{"type":"Point","coordinates":[-85.661001,30.15191]},"properties":{"NCESSCH":"120009008901","LEAID":"1200090","NAME":"AMIKIDS MARITIME ACADEMY","STATE":"FL","CITY":"PANAMA CITY","ZIP":"32401","CNTY":"12005","NMCNTY":"Bay County","LOCALE":"13","SCHOOLYEAR":"2024-2025"}},{"type":"Feature","geometry":{"type":"Point","coordinates":[-85.771212,30.195552]},"properties":{"NCESSCH":"120009008970","LEAID":"1200090","NAME":"A. GARY WALSINGHAM ACADEMY","STATE":"FL","CITY":"PANAMA CITY BEACH","ZIP":"32407","CNTY":"12005","NMCNTY":"Bay County","LOCALE":"22","SCHOOLYEAR":"2024-2025"}},{"type":"Feature","geometry":{"type":"Point","coordinates":[-85.638303,30.166578]},"properties":{"NCESSCH":"120009010622","LEAID":"1200090","NAME":"OSCAR PATTERSON ACADEMY","STATE":"FL","CITY":"PANAMA CITY","ZIP":"32401","CNTY":"12005","NMCNTY":"Bay County","LOCALE":"13","SCHOOLYEAR":"2024-2025"}},{"type":"Feature","geometry":{"type":"Point","coordinates":[-82.110255,29.949513]},"properties":{"NCESSCH":"120012000070","LEAID":"1200120","NAME":"BRADFORD HIGH SCHOOL","STATE":"FL","CITY":"STARKE","ZIP":"32091","CNTY":"12007","NMCNTY":"Bradford County","LOCALE":"32","SCHOOLYEAR":"2024-2025"}},{"type":"Feature","geometry":{"type":"Point","coordinates":[-82.122593,29.951888]},"properties":{"NCESSCH":"120012000071","LEAID":"1200120","NAME":"STARKE ELEMENTARY SCHOOL","STATE":"FL","CITY":"STARKE","ZIP":"32091","CNTY":"12007","NMCNTY":"Bradford County","LOCALE":"32","SCHOOLYEAR":"2024-2025"}},{"type":"Feature","geometry":{"type":"Point","coordinates":[-82.110465,29.926573]},"properties":{"NCESSCH":"120012000072","LEAID":"1200120","NAME":"BRADFORD ELEMENTARY SCHOOL","STATE":"FL","CITY":"STARKE","ZIP":"32091","CNTY":"12007","NMCNTY":"Bradford County","LOCALE":"41","SCHOOLYEAR":"2024-2025"}},{"type":"Feature","geometry":{"type":"Point","coordinates":[-82.072048,30.046252]},"properties":{"NCESSCH":"120012000073","LEAID":"1200120","NAME":"LAWTEY ELEMENTARY SCHOOL","STATE":"FL","CITY":"LAWTEY","ZIP":"32058","CNTY":"12007","NMCNTY":"Bradford County","LOCALE":"42","SCHOOLYEAR":"2024-2025"}},{"type":"Feature","geometry":{"type":"Point","coordinates":[-82.117154,29.952437]},"properties":{"NCESSCH":"120012000075","LEAID":"1200120","NAME":"NORTH FLORIDA TECHNICAL COLLEGE","STATE":"FL","CITY":"STARKE","ZIP":"32091","CNTY":"12007","NMCNTY":"Bradford County","LOCALE":"32","SCHOOLYEAR":"2024-2025"}},{"type":"Feature","geometry":{"type":"Point","coordinates":[-82.116682,29.951263]},"properties":{"NCESSCH":"120012000076","LEAID":"1200120","NAME":"BRADFORD MIDDLE SCHOOL","STATE":"FL","CITY":"STARKE","ZIP":"32091","CNTY":"12007","NMCNTY":"Bradford County","LOCALE":"32","SCHOOLYEAR":"2024-2025"}},{"type":"Feature","geometry":{"type":"Point","coordinates":[-82.112663,29.951584]},"properties":{"NCESSCH":"120012003677","LEAID":"1200120","NAME":"RAINBOW CENTER","STATE":"FL","CITY":"STARKE","ZIP":"32091","CNTY":"12007","NMCNTY":"Bradford County","LOCALE":"32","SCHOOLYEAR":"2024-2025"}},{"type":"Feature","geometry":{"type":"Point","coordinates":[-82.112663,29.951584]},"properties":{"NCESSCH":"120012007697","LEAID":"1200120","NAME":"BRADFORD VIRTUAL INSTRUCTION PROGRAM","STATE":"FL","CITY":"STARKE","ZIP":"32091","CNTY":"12007","NMCNTY":"Bradford County","LOCALE":"32","SCHOOLYEAR":"2024-2025"}},{"type":"Feature","geometry":{"type":"Point","coordinates":[-82.112663,29.951584]},"properties":{"NCESSCH":"120012007861","LEAID":"1200120","NAME":"BRADFORD VIRTUAL FRANCHISE WITH FLVS","STATE":"FL","CITY":"STARKE","ZIP":"32091","CNTY":"12007","NMCNTY":"Bradford County","LOCALE":"32","SCHOOLYEAR":"2024-2025"}},{"type":"Feature","geometry":{"type":"Point","coordinates":[-82.112663,29.951584]},"properties":{"NCESSCH":"120012008001","LEAID":"1200120","NAME":"BRADFORD VIRTUAL INSTRUCTION PROGRAM (DISTRICT PROVIDED)","STATE":"FL","CITY":"STARKE","ZIP":"32091","CNTY":"12007","NMCNTY":"Bradford County","LOCALE":"32","SCHOOLYEAR":"2024-2025"}},{"type":"Feature","geometry":{"type":"Point","coordinates":[-82.329326,29.889604]},"properties":{"NCESSCH":"120012010728","LEAID":"1200120","NAME":"BROOKER COMMUNITY SCHOOL INC","STATE":"FL","CITY":"BROOKER","ZIP":"32622","CNTY":"12007","NMCNTY":"Bradford County","LOCALE":"42","SCHOOLYEAR":"2024-2025"}},{"type":"Feature","geometry":{"type":"Point","coordinates":[-80.784376,28.449365]},"properties":{"NCESSCH":"120015000062","LEAID":"1200150","NAME":"BREVARD COUNTY JUVENILE DETENTION CENTER","STATE":"FL","CITY":"COCOA","ZIP":"32927","CNTY":"12009","NMCNTY":"Brevard County","LOCALE":"21","SCHOOLYEAR":"2024-2025"}},{"type":"Feature","geometry":{"type":"Point","coordinates":[-80.805755,28.592874]},"properties":{"NCESSCH":"120015000078","LEAID":"1200150","NAME":"TITUSVILLE HIGH SCHOOL","STATE":"FL","CITY":"TITUSVILLE","ZIP":"32780","CNTY":"12009","NMCNTY":"Brevard County","LOCALE":"13","SCHOOLYEAR":"2024-2025"}},{"type":"Feature","geometry":{"type":"Point","coordinates":[-80.851398,28.636349]},"properties":{"NCESSCH":"120015000079","LEAID":"1200150","NAME":"OAK PARK ELEMENTARY SCHOOL","STATE":"FL","CITY":"TITUSVILLE","ZIP":"32796","CNTY":"12009","NMCNTY":"Brevard County","LOCALE":"13","SCHOOLYEAR":"2024-2025"}},{"type":"Feature","geometry":{"type":"Point","coordinates":[-80.849403,28.636231]},"properties":{"NCESSCH":"120015000080","LEAID":"1200150","NAME":"JAMES MADISON MIDDLE SCHOOL","STATE":"FL","CITY":"TITUSVILLE","ZIP":"32796","CNTY":"12009","NMCNTY":"Brevard County","LOCALE":"13","SCHOOLYEAR":"2024-2025"}},{"type":"Feature","geometry":{"type":"Point","coordinates":[-80.843583,28.580558]},"properties":{"NCESSCH":"120015000081","LEAID":"1200150","NAME":"APOLLO ELEMENTARY SCHOOL","STATE":"FL","CITY":"TITUSVILLE","ZIP":"32780","CNTY":"12009","NMCNTY":"Brevard County","LOCALE":"41","SCHOOLYEAR":"2024-2025"}},{"type":"Feature","geometry":{"type":"Point","coordinates":[-80.811169,28.565755]},"properties":{"NCESSCH":"120015000083","LEAID":"1200150","NAME":"COQUINA ELEMENTARY SCHOOL","STATE":"FL","CITY":"TITUSVILLE","ZIP":"32780","CNTY":"12009","NMCNTY":"Brevard County","LOCALE":"13","SCHOOLYEAR":"2024-2025"}},{"type":"Feature","geometry":{"type":"Point","coordinates":[-80.847044,28.667782]},"properties":{"NCESSCH":"120015000084","LEAID":"1200150","NAME":"MIMS ELEMENTARY SCHOOL","STATE":"FL","CITY":"MIMS","ZIP":"32754","CNTY":"12009","NMCNTY":"Brevard County","LOCALE":"23","SCHOOLYEAR":"2024-2025"}},{"type":"Feature","geometry":{"type":"Point","coordinates":[-80.818977,28.569388]},"properties":{"NCESSCH":"120015000086","LEAID":"1200150","NAME":"ANDREW JACKSON MIDDLE SCHOOL","STATE":"FL","CITY":"TITUSVILLE","ZIP":"32780","CNTY":"12009","NMCNTY":"Brevard County","LOCALE":"13","SCHOOLYEAR":"2024-2025"}},{"type":"Feature","geometry":{"type":"Point","coordinates":[-80.812387,28.542073]},"properties":{"NCESSCH":"120015000087","LEAID":"1200150","NAME":"IMPERIAL ESTATES ELEMENTARY SCHOOL","STATE":"FL","CITY":"TITUSVILLE","ZIP":"32780","CNTY":"12009","NMCNTY":"Brevard County","LOCALE":"13","SCHOOLYEAR":"2024-2025"}},{"type":"Feature","geometry":{"type":"Point","coordinates":[-80.851168,28.625265]},"properties":{"NCESSCH":"120015000088","LEAID":"1200150","NAME":"ASTRONAUT HIGH SCHOOL","STATE":"FL","CITY":"TITUSVILLE","ZIP":"32796","CNTY":"12009","NMCNTY":"Brevard County","LOCALE":"13","SCHOOLYEAR":"2024-2025"}},{"type":"Feature","geometry":{"type":"Point","coordinates":[-80.857958,28.702219]},"properties":{"NCESSCH":"120015000089","LEAID":"1200150","NAME":"PINEWOOD ELEMENTARY SCHOOL","STATE":"FL","CITY":"MIMS","ZIP":"32754","CNTY":"12009","NMCNTY":"Brevard County","LOCALE":"23","SCHOOLYEAR":"2024-2025"}},{"type":"Feature","geometry":{"type":"Point","coordinates":[-80.722921,28.339829]},"properties":{"NCESSCH":"120015000090","LEAID":"1200150","NAME":"ROCKLEDGE SENIOR HIGH SCHOOL","STATE":"FL","CITY":"ROCKLEDGE","ZIP":"32955","CNTY":"12009","NMCNTY":"Brevard County","LOCALE":"21","SCHOOLYEAR":"2024-2025"}},{"type":"Feature","geometry":{"type":"Point","coordinates":[-80.678951,28.214362]},"properties":{"NCESSCH":"120015000091","LEAID":"1200150","NAME":"SUNTREE ELEMENTARY SCHOOL","STATE":"FL","CITY":"MELBOURNE","ZIP":"32940","CNTY":"12009","NMCNTY":"Brevard County","LOCALE":"21","SCHOOLYEAR":"2024-2025"}},{"type":"Feature","geometry":{"type":"Point","coordinates":[-80.750095,28.382968]},"properties":{"NCESSCH":"120015000093","LEAID":"1200150","NAME":"CAMBRIDGE ELEMENTARY MAGNET SCHOOL","STATE":"FL","CITY":"COCOA","ZIP":"32922","CNTY":"12009","NMCNTY":"Brevard County","LOCALE":"21","SCHOOLYEAR":"2024-2025"}},{"type":"Feature","geometry":{"type":"Point","coordinates":[-80.748006,28.368402]},"properties":{"NCESSCH":"120015000094","LEAID":"1200150","NAME":"ENDEAVOUR ELEMENTARY SCHOOL","STATE":"FL","CITY":"COCOA","ZIP":"32922","CNTY":"12009","NMCNTY":"Brevard County","LOCALE":"21","SCHOOLYEAR":"2024-2025"}},{"type":"Feature","geometry":{"type":"Point","coordinates":[-80.741121,28.3375]},"properties":{"NCESSCH":"120015000095","LEAID":"1200150","NAME":"GOLFVIEW ELEMENTARY MAGNET SCHOOL","STATE":"FL","CITY":"ROCKLEDGE","ZIP":"32955","CNTY":"12009","NMCNTY":"Brevard County","LOCALE":"21","SCHOOLYEAR":"2024-2025"}},{"type":"Feature","geometry":{"type":"Point","coordinates":[-80.737249,28.348298]},"properties":{"NCESSCH":"120015000096","LEAID":"1200150","NAME":"RONALD MCNAIR MAGNET MIDDLE SCHOOL","STATE":"FL","CITY":"ROCKLEDGE","ZIP":"32955","CNTY":"12009","NMCNTY":"Brevard County","LOCALE":"21","SCHOOLYEAR":"2024-2025"}},{"type":"Feature","geometry":{"type":"Point","coordinates":[-80.760202,28.438287]},"properties":{"NCESSCH":"120015000097","LEAID":"1200150","NAME":"FAIRGLEN ELEMENTARY SCHOOL","STATE":"FL","CITY":"COCOA","ZIP":"32927","CNTY":"12009","NMCNTY":"Brevard County","LOCALE":"21","SCHOOLYEAR":"2024-2025"}},{"type":"Feature","geometry":{"type":"Point","coordinates":[-80.741725,28.325239]},"properties":{"NCESSCH":"120015000098","LEAID":"1200150","NAME":"JOHN F. KENNEDY MIDDLE SCHOOL","STATE":"FL","CITY":"ROCKLEDGE","ZIP":"32955","CNTY":"12009","NMCNTY":"Brevard County","LOCALE":"21","SCHOOLYEAR":"2024-2025"}},{"type":"Feature","geometry":{"type":"Point","coordinates":[-80.769079,28.383223]},"properties":{"NCESSCH":"120015000100","LEAID":"1200150","NAME":"COCOA HIGH SCHOOL","STATE":"FL","CITY":"COCOA","ZIP":"32926","CNTY":"12009","NMCNTY":"Brevard County","LOCALE":"21","SCHOOLYEAR":"2024-2025"}},{"type":"Feature","geometry":{"type":"Point","coordinates":[-80.770562,28.37047]},"properties":{"NCESSCH":"120015000101","LEAID":"1200150","NAME":"SATURN ELEMENTARY SCHOOL","STATE":"FL","CITY":"COCOA","ZIP":"32926","CNTY":"12009","NMCNTY":"Brevard County","LOCALE":"21","SCHOOLYEAR":"2024-2025"}},{"type":"Feature","geometry":{"type":"Point","coordinates":[-80.744149,28.309243]},"properties":{"NCESSCH":"120015000102","LEAID":"1200150","NAME":"HANS CHRISTIAN ANDERSEN ELEMENTARY SCHOOL","STATE":"FL","CITY":"ROCKLEDGE","ZIP":"32955","CNTY":"12009","NMCNTY":"Brevard County","LOCALE":"21","SCHOOLYEAR":"2024-2025"}},{"type":"Feature","geometry":{"type":"Point","coordinates":[-80.619923,28.090249]},"properties":{"NCESSCH":"120015000103","LEAID":"1200150","NAME":"MELBOURNE SENIOR HIGH SCHOOL","STATE":"FL","CITY":"MELBOURNE","ZIP":"32901","CNTY":"12009","NMCNTY":"Brevard County","LOCALE":"13","SCHOOLYEAR":"2024-2025"}},{"type":"Feature","geometry":{"type":"Point","coordinates":[-80.618021,28.048512]},"properties":{"NCESSCH":"120015000104","LEAID":"1200150","NAME":"PALM BAY MAGNET SENIOR HIGH SCHOOL","STATE":"FL","CITY":"MELBOURNE","ZIP":"32901","CNTY":"12009","NMCNTY":"Brevard County","LOCALE":"13","SCHOOLYEAR":"2024-2025"}},{"type":"Feature","geometry":{"type":"Point","coordinates":[-80.669192,28.062052]},"properties":{"NCESSCH":"120015000105","LEAID":"1200150","NAME":"MEADOWLANE PRIMARY ELEMENTARY SCHOOL","STATE":"FL","CITY":"WEST MELBOURNE","ZIP":"32904","CNTY":"12009","NMCNTY":"Brevard County","LOCALE":"21","SCHOOLYEAR":"2024-2025"}},{"type":"Feature","geometry":{"type":"Point","coordinates":[-80.62963,28.063755]},"properties":{"NCESSCH":"120015000106","LEAID":"1200150","NAME":"UNIVERSITY PARK ELEMENTARY SCHOOL","STATE":"FL","CITY":"MELBOURNE","ZIP":"32901","CNTY":"12009","NMCNTY":"Brevard County","LOCALE":"13","SCHOOLYEAR":"2024-2025"}},{"type":"Feature","geometry":{"type":"Point","coordinates":[-80.60361,28.062975]},"properties":{"NCESSCH":"120015000107","LEAID":"1200150","NAME":"STONE MAGNET MIDDLE SCHOOL","STATE":"FL","CITY":"MELBOURNE","ZIP":"32901","CNTY":"12009","NMCNTY":"Brevard County","LOCALE":"13","SCHOOLYEAR":"2024-2025"}},{"type":"Feature","geometry":{"type":"Point","coordinates":[-80.590917,28.028645]},"properties":{"NCESSCH":"120015000108","LEAID":"1200150","NAME":"PALM BAY ELEMENTARY SCHOOL","STATE":"FL","CITY":"PALM BAY","ZIP":"32905","CNTY":"12009","NMCNTY":"Brevard County","LOCALE":"12","SCHOOLYEAR":"2024-2025"}},{"type":"Feature","geometry":{"type":"Point","coordinates":[-80.647637,28.130382]},"properties":{"NCESSCH":"120015000109","LEAID":"1200150","NAME":"EAU GALLIE HIGH SCHOOL","STATE":"FL","CITY":"MELBOURNE","ZIP":"32935","CNTY":"12009","NMCNTY":"Brevard County","LOCALE":"13","SCHOOLYEAR":"2024-2025"}},{"type":"Feature","geometry":{"type":"Point","coordinates":[-80.664003,28.062478]},"properties":{"NCESSCH":"120015000110","LEAID":"1200150","NAME":"CENTRAL MIDDLE SCHOOL","STATE":"FL","CITY":"WEST MELBOURNE","ZIP":"32904","CNTY":"12009","NMCNTY":"Brevard County","LOCALE":"21","SCHOOLYEAR":"2024-2025"}},{"type":"Feature","geometry":{"type":"Point","coordinates":[-80.653902,28.142244]},"properties":{"NCESSCH":"120015000111","LEAID":"1200150","NAME":"LYNDON B. JOHNSON MIDDLE SCHOOL","STATE":"FL","CITY":"MELBOURNE","ZIP":"32935","CNTY":"12009","NMCNTY":"Brevard County","LOCALE":"13","SCHOOLYEAR":"2024-2025"}},{"type":"Feature","geometry":{"type":"Point","coordinates":[-80.664267,28.170966]},"properties":{"NCESSCH":"120015000112","LEAID":"1200150","NAME":"SHERWOOD ELEMENTARY SCHOOL","STATE":"FL","CITY":"MELBOURNE","ZIP":"32935","CNTY":"12009","NMCNTY":"Brevard County","LOCALE":"13","SCHOOLYEAR":"2024-2025"}},{"type":"Feature","geometry":{"type":"Point","coordinates":[-80.641647,28.121045]},"properties":{"NCESSCH":"120015000113","LEAID":"1200150","NAME":"HARBOR CITY ELEMENTARY SCHOOL","STATE":"FL","CITY":"MELBOURNE","ZIP":"32935","CNTY":"12009","NMCNTY":"Brevard County","LOCALE":"13","SCHOOLYEAR":"2024-2025"}},{"type":"Feature","geometry":{"type":"Point","coordinates":[-80.670882,28.13066]},"properties":{"NCESSCH":"120015000114","LEAID":"1200150","NAME":"SABAL ELEMENTARY SCHOOL","STATE":"FL","CITY":"MELBOURNE","ZIP":"32935","CNTY":"12009","NMCNTY":"Brevard County","LOCALE":"13","SCHOOLYEAR":"2024-2025"}},{"type":"Feature","geometry":{"type":"Point","coordinates":[-80.654118,28.129981]},"properties":{"NCESSCH":"120015000116","LEAID":"1200150","NAME":"CROTON ELEMENTARY SCHOOL","STATE":"FL","CITY":"MELBOURNE","ZIP":"32935","CNTY":"12009","NMCNTY":"Brevard County","LOCALE":"13","SCHOOLYEAR":"2024-2025"}},{"type":"Feature","geometry":{"type":"Point","coordinates":[-80.664043,28.117217]},"properties":{"NCESSCH":"120015000117","LEAID":"1200150","NAME":"ROY ALLEN ELEMENTARY SCHOOL","STATE":"FL","CITY":"MELBOURNE","ZIP":"32935","CNTY":"12009","NMCNTY":"Brevard County","LOCALE":"13","SCHOOLYEAR":"2024-2025"}},{"type":"Feature","geometry":{"type":"Point","coordinates":[-80.699224,28.377482]},"properties":{"NCESSCH":"120015000118","LEAID":"1200150","NAME":"MERRITT ISLAND HIGH SCHOOL","STATE":"FL","CITY":"MERRITT ISLAND","ZIP":"32953","CNTY":"12009","NMCNTY":"Brevard County","LOCALE":"21","SCHOOLYEAR":"2024-2025"}},{"type":"Feature","geometry":{"type":"Point","coordinates":[-80.696671,28.362591]},"properties":{"NCESSCH":"120015000119","LEAID":"1200150","NAME":"EDGEWOOD JR/SR HIGH SCHOOL","STATE":"FL","CITY":"MERRITT ISLAND","ZIP":"32953","CNTY":"12009","NMCNTY":"Brevard County","LOCALE":"21","SCHOOLYEAR":"2024-2025"}},{"type":"Feature","geometry":{"type":"Point","coordinates":[-80.702856,28.36201]},"properties":{"NCESSCH":"120015000120","LEAID":"1200150","NAME":"MILA ELEMENTARY SCHOOL","STATE":"FL","CITY":"MERRITT ISLAND","ZIP":"32953","CNTY":"12009","NMCNTY":"Brevard County","LOCALE":"21","SCHOOLYEAR":"2024-2025"}},{"type":"Feature","geometry":{"type":"Point","coordinates":[-80.695926,28.341396]},"properties":{"NCESSCH":"120015000121","LEAID":"1200150","NAME":"TROPICAL ELEMENTARY SCHOOL","STATE":"FL","CITY":"MERRITT ISLAND","ZIP":"32952","CNTY":"12009","NMCNTY":"Brevard County","LOCALE":"21","SCHOOLYEAR":"2024-2025"}},{"type":"Feature","geometry":{"type":"Point","coordinates":[-80.669757,28.377956]},"properties":{"NCESSCH":"120015000122","LEAID":"1200150","NAME":"AUDUBON ELEMENTARY SCHOOL","STATE":"FL","CITY":"MERRITT ISLAND","ZIP":"32952","CNTY":"12009","NMCNTY":"Brevard County","LOCALE":"21","SCHOOLYEAR":"2024-2025"}},{"type":"Feature","geometry":{"type":"Point","coordinates":[-80.687181,28.334607]},"properties":{"NCESSCH":"120015000125","LEAID":"1200150","NAME":"THOMAS JEFFERSON MIDDLE SCHOOL","STATE":"FL","CITY":"MERRITT ISLAND","ZIP":"32952","CNTY":"12009","NMCNTY":"Brevard County","LOCALE":"21","SCHOOLYEAR":"2024-2025"}},{"type":"Feature","geometry":{"type":"Point","coordinates":[-80.699328,28.394285]},"properties":{"NCESSCH":"120015000126","LEAID":"1200150","NAME":"LEWIS CARROLL ELEMENTARY SCHOOL","STATE":"FL","CITY":"MERRITT ISLAND","ZIP":"32953","CNTY":"12009","NMCNTY":"Brevard County","LOCALE":"21","SCHOOLYEAR":"2024-2025"}},{"type":"Feature","geometry":{"type":"Point","coordinates":[-80.630611,28.3177]},"properties":{"NCESSCH":"120015000127","LEAID":"1200150","NAME":"COCOA BEACH JUNIOR/SENIOR HIGH SCHOOL","STATE":"FL","CITY":"COCOA BEACH","ZIP":"32931","CNTY":"12009","NMCNTY":"Brevard County","LOCALE":"21","SCHOOLYEAR":"2024-2025"}},{"type":"Feature","geometry":{"type":"Point","coordinates":[-80.627281,28.317505]},"properties":{"NCESSCH":"120015000128","LEAID":"1200150","NAME":"THEODORE ROOSEVELT ELEMENTARY SCHOOL","STATE":"FL","CITY":"COCOA BEACH","ZIP":"32931","CNTY":"12009","NMCNTY":"Brevard County","LOCALE":"21","SCHOOLYEAR":"2024-2025"}},{"type":"Feature","geometry":{"type":"Point","coordinates":[-80.59905,28.392717]},"properties":{"NCESSCH":"120015000130","LEAID":"1200150","NAME":"CAPE VIEW ELEMENTARY SCHOOL","STATE":"FL","CITY":"CAPE CANAVERAL","ZIP":"32920","CNTY":"12009","NMCNTY":"Brevard County","LOCALE":"21","SCHOOLYEAR":"2024-2025"}},{"type":"Feature","geometry":{"type":"Point","coordinates":[-80.597358,28.18631]},"properties":{"NCESSCH":"120015000131","LEAID":"1200150","NAME":"SATELLITE SENIOR HIGH SCHOOL","STATE":"FL","CITY":"SATELLITE BEACH","ZIP":"32937","CNTY":"12009","NMCNTY":"Brevard County","LOCALE":"21","SCHOOLYEAR":"2024-2025"}},{"type":"Feature","geometry":{"type":"Point","coordinates":[-80.596956,28.183998]},"properties":{"NCESSCH":"120015000132","LEAID":"1200150","NAME":"DELAURA MIDDLE SCHOOL","STATE":"FL","CITY":"SATELLITE BEACH","ZIP":"32937","CNTY":"12009","NMCNTY":"Brevard County","LOCALE":"21","SCHOOLYEAR":"2024-2025"}},{"type":"Feature","geometry":{"type":"Point","coordinates":[-80.602224,28.18631]},"properties":{"NCESSCH":"120015000133","LEAID":"1200150","NAME":"SPESSARD L. HOLLAND ELEMENTARY SCHOOL","STATE":"FL","CITY":"SATELLITE BEACH","ZIP":"32937","CNTY":"12009","NMCNTY":"Brevard County","LOCALE":"21","SCHOOLYEAR":"2024-2025"}},{"type":"Feature","geometry":{"type":"Point","coordinates":[-80.604238,28.202793]},"properties":{"NCESSCH":"120015000134","LEAID":"1200150","NAME":"SEA PARK ELEMENTARY SCHOOL","STATE":"FL","CITY":"SATELLITE BEACH","ZIP":"32937","CNTY":"12009","NMCNTY":"Brevard County","LOCALE":"21","SCHOOLYEAR":"2024-2025"}},{"type":"Feature","geometry":{"type":"Point","coordinates":[-80.602313,28.171461]},"properties":{"NCESSCH":"120015000135","LEAID":"1200150","NAME":"SURFSIDE ELEMENTARY SCHOOL","STATE":"FL","CITY":"SATELLITE BEACH","ZIP":"32937","CNTY":"12009","NMCNTY":"Brevard County","LOCALE":"21","SCHOOLYEAR":"2024-2025"}},{"type":"Feature","geometry":{"type":"Point","coordinates":[-80.592401,28.149755]},"properties":{"NCESSCH":"120015000136","LEAID":"1200150","NAME":"OCEAN BREEZE ELEMENTARY SCHOOL","STATE":"FL","CITY":"INDIAN HARBOUR BEACH","ZIP":"32937","CNTY":"12009","NMCNTY":"Brevard County","LOCALE":"21","SCHOOLYEAR":"2024-2025"}},{"type":"Feature","geometry":{"type":"Point","coordinates":[-80.573451,28.100602]},"properties":{"NCESSCH":"120015000137","LEAID":"1200150","NAME":"INDIALANTIC ELEMENTARY SCHOOL","STATE":"FL","CITY":"INDIALANTIC","ZIP":"32903","CNTY":"12009","NMCNTY":"Brevard County","LOCALE":"21","SCHOOLYEAR":"2024-2025"}},{"type":"Feature","geometry":{"type":"Point","coordinates":[-80.574768,28.101693]},"properties":{"NCESSCH":"120015000138","LEAID":"1200150","NAME":"HERBERT C. HOOVER MIDDLE SCHOOL","STATE":"FL","CITY":"INDIALANTIC","ZIP":"32903","CNTY":"12009","NMCNTY":"Brevard County","LOCALE":"21","SCHOOLYEAR":"2024-2025"}},{"type":"Feature","geometry":{"type":"Point","coordinates":[-80.555496,28.054306]},"properties":{"NCESSCH":"120015000139","LEAID":"1200150","NAME":"GEMINI ELEMENTARY SCHOOL","STATE":"FL","CITY":"MELBOURNE BEACH","ZIP":"32951","CNTY":"12009","NMCNTY":"Brevard County","LOCALE":"21","SCHOOLYEAR":"2024-2025"}},{"type":"Feature","geometry":{"type":"Point","coordinates":[-80.645425,28.141192]},"properties":{"NCESSCH":"120015000140","LEAID":"1200150","NAME":"DR. W.J. CREEL ELEMENTARY SCHOOL","STATE":"FL","CITY":"MELBOURNE","ZIP":"32935","CNTY":"12009","NMCNTY":"Brevard County","LOCALE":"13","SCHOOLYEAR":"2024-2025"}},{"type":"Feature","geometry":{"type":"Point","coordinates":[-80.825531,28.479798]},"properties":{"NCESSCH":"120015002036","LEAID":"1200150","NAME":"ENTERPRISE ELEMENTARY SCHOOL","STATE":"FL","CITY":"COCOA","ZIP":"32927","CNTY":"12009","NMCNTY":"Brevard County","LOCALE":"41","SCHOOLYEAR":"2024-2025"}},{"type":"Feature","geometry":{"type":"Point","coordinates":[-80.619673,28.00396]},"properties":{"NCESSCH":"120015002038","LEAID":"1200150","NAME":"PORT MALABAR ELEMENTARY SCHOOL","STATE":"FL","CITY":"PALM BAY","ZIP":"32907","CNTY":"12009","NMCNTY":"Brevard County","LOCALE":"12","SCHOOLYEAR":"2024-2025"}},{"type":"Feature","geometry":{"type":"Point","coordinates":[-80.707531,28.37899]},"properties":{"NCESSCH":"120015002052","LEAID":"1200150","NAME":"NORTH/CENTRAL AREA ALTERNATIVE LEARNING CENTER","STATE":"FL","CITY":"MERRITT ISLAND","ZIP":"32953","CNTY":"12009","NMCNTY":"Brevard County","LOCALE":"21","SCHOOLYEAR":"2024-2025"}},{"type":"Feature","geometry":{"type":"Point","coordinates":[-80.670817,28.142652]},"properties":{"NCESSCH":"120015002055","LEAID":"1200150","NAME":"SOUTH AREA ALTERNATIVE LEARNING CENTER","STATE":"FL","CITY":"MELBOURNE","ZIP":"32935","CNTY":"12009","NMCNTY":"Brevard County","LOCALE":"13","SCHOOLYEAR":"2024-2025"}},{"type":"Feature","geometry":{"type":"Point","coordinates":[-80.658793,28.025836]},"properties":{"NCESSCH":"120015002112","LEAID":"1200150","NAME":"LOCKMAR ELEMENTARY SCHOOL","STATE":"FL","CITY":"PALM BAY","ZIP":"32907","CNTY":"12009","NMCNTY":"Brevard County","LOCALE":"12","SCHOOLYEAR":"2024-2025"}},{"type":"Feature","geometry":{"type":"Point","coordinates":[-80.660537,27.988606]},"properties":{"NCESSCH":"120015002281","LEAID":"1200150","NAME":"JOHN F. TURNER SENIOR ELEMENTARY SCHOOL","STATE":"FL","CITY":"PALM BAY","ZIP":"32909","CNTY":"12009","NMCNTY":"Brevard County","LOCALE":"12","SCHOOLYEAR":"2024-2025"}},{"type":"Feature","geometry":{"type":"Point","coordinates":[-80.799999,28.466362]},"properties":{"NCESSCH":"120015002483","LEAID":"1200150","NAME":"CHALLENGER 7 ELEMENTARY SCHOOL","STATE":"FL","CITY":"COCOA","ZIP":"32927","CNTY":"12009","NMCNTY":"Brevard County","LOCALE":"21","SCHOOLYEAR":"2024-2025"}},{"type":"Feature","geometry":{"type":"Point","coordinates":[-80.638459,27.967763]},"properties":{"NCESSCH":"120015002484","LEAID":"1200150","NAME":"COLUMBIA ELEMENTARY SCHOOL","STATE":"FL","CITY":"PALM BAY","ZIP":"32909","CNTY":"12009","NMCNTY":"Brevard County","LOCALE":"12","SCHOOLYEAR":"2024-2025"}},{"type":"Feature","geometry":{"type":"Point","coordinates":[-80.674288,28.009527]},"properties":{"NCESSCH":"120015002485","LEAID":"1200150","NAME":"CHRISTA MCAULIFFE ELEMENTARY SCHOOL","STATE":"FL","CITY":"PALM BAY","ZIP":"32907","CNTY":"12009","NMCNTY":"Brevard County","LOCALE":"12","SCHOOLYEAR":"2024-2025"}},{"type":"Feature","geometry":{"type":"Point","coordinates":[-80.660462,27.990347]},"properties":{"NCESSCH":"120015002590","LEAID":"1200150","NAME":"SOUTHWEST MIDDLE SCHOOL","STATE":"FL","CITY":"PALM BAY","ZIP":"32909","CNTY":"12009","NMCNTY":"Brevard County","LOCALE":"12","SCHOOLYEAR":"2024-2025"}},{"type":"Feature","geometry":{"type":"Point","coordinates":[-80.718732,28.029255]},"properties":{"NCESSCH":"120015002591","LEAID":"1200150","NAME":"DISCOVERY ELEMENTARY SCHOOL","STATE":"FL","CITY":"PALM BAY","ZIP":"32907","CNTY":"12009","NMCNTY":"Brevard County","LOCALE":"12","SCHOOLYEAR":"2024-2025"}},{"type":"Feature","geometry":{"type":"Point","coordinates":[-80.795713,28.487379]},"properties":{"NCESSCH":"120015002662","LEAID":"1200150","NAME":"ATLANTIS ELEMENTARY SCHOOL","STATE":"FL","CITY":"COCOA","ZIP":"32927","CNTY":"12009","NMCNTY":"Brevard County","LOCALE":"21","SCHOOLYEAR":"2024-2025"}},{"type":"Feature","geometry":{"type":"Point","coordinates":[-80.643651,28.029299]},"properties":{"NCESSCH":"120015002698","LEAID":"1200150","NAME":"RIVIERA ELEMENTARY SCHOOL","STATE":"FL","CITY":"PALM BAY","ZIP":"32905","CNTY":"12009","NMCNTY":"Brevard County","LOCALE":"12","SCHOOLYEAR":"2024-2025"}},{"type":"Feature","geometry":{"type":"Point","coordinates":[-80.697685,27.986922]},"properties":{"NCESSCH":"120015002799","LEAID":"1200150","NAME":"JUPITER ELEMENTARY SCHOOL","STATE":"FL","CITY":"PALM BAY","ZIP":"32908","CNTY":"12009","NMCNTY":"Brevard County","LOCALE":"12","SCHOOLYEAR":"2024-2025"}},{"type":"Feature","geometry":{"type":"Point","coordinates":[-80.827903,28.477101]},"properties":{"NCESSCH":"120015002977","LEAID":"1200150","NAME":"SPACE COAST JUNIOR/SENIOR HIGH SCHOOL","STATE":"FL","CITY":"COCOA","ZIP":"32927","CNTY":"12009","NMCNTY":"Brevard County","LOCALE":"41","SCHOOLYEAR":"2024-2025"}},{"type":"Feature","geometry":{"type":"Point","coordinates":[-80.781812,28.448179]},"properties":{"NCESSCH":"120015003023","LEAID":"1200150","NAME":"BREVARD COUNTY JAIL COMPLEX","STATE":"FL","CITY":"COCOA","ZIP":"32927","CNTY":"12009","NMCNTY":"Brevard County","LOCALE":"21","SCHOOLYEAR":"2024-2025"}},{"type":"Feature","geometry":{"type":"Point","coordinates":[-80.736704,28.248696]},"properties":{"NCESSCH":"120015003024","LEAID":"1200150","NAME":"PRE-K ESE SERVICES","STATE":"FL","CITY":"VIERA","ZIP":"32940","CNTY":"12009","NMCNTY":"Brevard County","LOCALE":"21","SCHOOLYEAR":"2024-2025"}},{"type":"Feature","geometry":{"type":"Point","coordinates":[-80.713161,28.122847]},"properties":{"NCESSCH":"120015003025","LEAID":"1200150","NAME":"MELBOURNE CENTER FOR PERSONAL GROWTH","STATE":"FL","CITY":"MELBOURNE","ZIP":"32934","CNTY":"12009","NMCNTY":"Brevard County","LOCALE":"41","SCHOOLYEAR":"2024-2025"}},{"type":"Feature","geometry":{"type":"Point","coordinates":[-80.70741,28.234565]},"properties":{"NCESSCH":"120015003026","LEAID":"1200150","NAME":"DEVEREUX HOSPITAL","STATE":"FL","CITY":"VIERA","ZIP":"32940","CNTY":"12009","NMCNTY":"Brevard County","LOCALE":"21","SCHOOLYEAR":"2024-2025"}},{"type":"Feature","geometry":{"type":"Point","coordinates":[-80.67611,27.951062]},"properties":{"NCESSCH":"120015003293","LEAID":"1200150","NAME":"BAYSIDE HIGH SCHOOL","STATE":"FL","CITY":"PALM BAY","ZIP":"32908","CNTY":"12009","NMCNTY":"Brevard County","LOCALE":"12","SCHOOLYEAR":"2024-2025"}},{"type":"Feature","geometry":{"type":"Point","coordinates":[-80.67472,27.943878]},"properties":{"NCESSCH":"120015003294","LEAID":"1200150","NAME":"WESTSIDE ELEMENTARY SCHOOL","STATE":"FL","CITY":"PALM BAY","ZIP":"32908","CNTY":"12009","NMCNTY":"Brevard County","LOCALE":"12","SCHOOLYEAR":"2024-2025"}},{"type":"Feature","geometry":{"type":"Point","coordinates":[-80.674058,28.178702]},"properties":{"NCESSCH":"120015003295","LEAID":"1200150","NAME":"LONGLEAF ELEMENTARY SCHOOL","STATE":"FL","CITY":"MELBOURNE","ZIP":"32935","CNTY":"12009","NMCNTY":"Brevard County","LOCALE":"13","SCHOOLYEAR":"2024-2025"}},{"type":"Feature","geometry":{"type":"Point","coordinates":[-80.626781,28.107775]},"properties":{"NCESSCH":"120015003296","LEAID":"1200150","NAME":"WEST SHORE JUNIOR/SENIOR HIGH SCHOOL","STATE":"FL","CITY":"MELBOURNE","ZIP":"32935","CNTY":"12009","NMCNTY":"Brevard County","LOCALE":"13","SCHOOLYEAR":"2024-2025"}},{"type":"Feature","geometry":{"type":"Point","coordinates":[-80.610819,28.03421]},"properties":{"NCESSCH":"120015003297","LEAID":"1200150","NAME":"PALM BAY ACADEMY CHARTER SCHOOL","STATE":"FL","CITY":"PALM BAY","ZIP":"32905","CNTY":"12009","NMCNTY":"Brevard County","LOCALE":"12","SCHOOLYEAR":"2024-2025"}},{"type":"Feature","geometry":{"type":"Point","coordinates":[-80.716951,28.280252]},"properties":{"NCESSCH":"120015003538","LEAID":"1200150","NAME":"RALPH M WILLIAMS JUNIOR ELEMENTARY SCHOOL","STATE":"FL","CITY":"ROCKLEDGE","ZIP":"32955","CNTY":"12009","NMCNTY":"Brevard County","LOCALE":"21","SCHOOLYEAR":"2024-2025"}},{"type":"Feature","geometry":{"type":"Point","coordinates":[-80.6579,27.95394]},"properties":{"NCESSCH":"120015003540","LEAID":"1200150","NAME":"ODYSSEY CHARTER SCHOOL","STATE":"FL","CITY":"PALM BAY","ZIP":"32909","CNTY":"12009","NMCNTY":"Brevard County","LOCALE":"12","SCHOOLYEAR":"2024-2025"}},{"type":"Feature","geometry":{"type":"Point","coordinates":[-80.815204,28.519404]},"properties":{"NCESSCH":"120015003541","LEAID":"1200150","NAME":"SCULPTOR CHARTER SCHOOL","STATE":"FL","CITY":"TITUSVILLE","ZIP":"32780","CNTY":"12009","NMCNTY":"Brevard County","LOCALE":"41","SCHOOLYEAR":"2024-2025"}},{"type":"Feature","geometry":{"type":"Point","coordinates":[-80.672124,28.085952]},"properties":{"NCESSCH":"120015003680","LEAID":"1200150","NAME":"EDUCATIONAL HORIZONS CHARTER","STATE":"FL","CITY":"WEST MELBOURNE","ZIP":"32904","CNTY":"12009","NMCNTY":"Brevard County","LOCALE":"21","SCHOOLYEAR":"2024-2025"}},{"type":"Feature","geometry":{"type":"Point","coordinates":[-80.723909,28.221329]},"properties":{"NCESSCH":"120015003978","LEAID":"1200150","NAME":"QUEST ELEMENTARY SCHOOL","STATE":"FL","CITY":"MELBOURNE","ZIP":"32940","CNTY":"12009","NMCNTY":"Brevard County","LOCALE":"21","SCHOOLYEAR":"2024-2025"}},{"type":"Feature","geometry":{"type":"Point","coordinates":[-80.651368,28.041748]},"properties":{"NCESSCH":"120015003979","LEAID":"1200150","NAME":"IMAGINE SCHOOLS AT WEST MELBOURNE","STATE":"FL","CITY":"WEST MELBOURNE","ZIP":"32904","CNTY":"12009","NMCNTY":"Brevard County","LOCALE":"21","SCHOOLYEAR":"2024-2025"}},{"type":"Feature","geometry":{"type":"Point","coordinates":[-80.707531,28.37899]},"properties":{"NCESSCH":"120015004059","LEAID":"1200150","NAME":"GARDENDALE SEPARATE DAY SCHOOL","STATE":"FL","CITY":"MERRITT ISLAND","ZIP":"32953","CNTY":"12009","NMCNTY":"Brevard County","LOCALE":"21","SCHOOLYEAR":"2024-2025"}},{"type":"Feature","geometry":{"type":"Point","coordinates":[-80.744515,28.263143]},"properties":{"NCESSCH":"120015004061","LEAID":"1200150","NAME":"MANATEE ELEMENTARY SCHOOL","STATE":"FL","CITY":"VIERA","ZIP":"32940","CNTY":"12009","NMCNTY":"Brevard County","LOCALE":"21","SCHOOLYEAR":"2024-2025"}},{"type":"Feature","geometry":{"type":"Point","coordinates":[-80.735941,28.252377]},"properties":{"NCESSCH":"120015004244","LEAID":"1200150","NAME":"VIERA HIGH SCHOOL","STATE":"FL","CITY":"VIERA","ZIP":"32940","CNTY":"12009","NMCNTY":"Brevard County","LOCALE":"21","SCHOOLYEAR":"2024-2025"}},{"type":"Feature","geometry":{"type":"Point","coordinates":[-80.625496,27.909085]},"properties":{"NCESSCH":"120015004246","LEAID":"1200150","NAME":"SUNRISE ELEMENTARY SCHOOL","STATE":"FL","CITY":"PALM BAY","ZIP":"32909","CNTY":"12009","NMCNTY":"Brevard County","LOCALE":"41","SCHOOLYEAR":"2024-2025"}},{"type":"Feature","geometry":{"type":"Point","coordinates":[-80.669972,28.073894]},"properties":{"NCESSCH":"120015004308","LEAID":"1200150","NAME":"W. MELBOURNE ELEMENTARY SCHOOL FOR SCIENCE","STATE":"FL","CITY":"WEST MELBOURNE","ZIP":"32904","CNTY":"12009","NMCNTY":"Brevard County","LOCALE":"21","SCHOOLYEAR":"2024-2025"}},{"type":"Feature","geometry":{"type":"Point","coordinates":[-80.670927,28.398871]},"properties":{"NCESSCH":"120015004310","LEAID":"1200150","NAME":"ROBERT L. STEVENSON ELEMENTARY SCHOOL","STATE":"FL","CITY":"MERRITT ISLAND","ZIP":"32952","CNTY":"12009","NMCNTY":"Brevard County","LOCALE":"21","SCHOOLYEAR":"2024-2025"}},{"type":"Feature","geometry":{"type":"Point","coordinates":[-80.612836,28.310715]},"properties":{"NCESSCH":"120015004311","LEAID":"1200150","NAME":"FREEDOM 7 ELEMENTARY SCHOOL OF INTERNATIONAL STUDIES","STATE":"FL","CITY":"COCOA BEACH","ZIP":"32931","CNTY":"12009","NMCNTY":"Brevard County","LOCALE":"21","SCHOOLYEAR":"2024-2025"}},{"type":"Feature","geometry":{"type":"Point","coordinates":[-80.622009,27.967577]},"properties":{"NCESSCH":"120015004313","LEAID":"1200150","NAME":"ROYAL PALM CHARTER SCHOOL","STATE":"FL","CITY":"PALM BAY","ZIP":"32909","CNTY":"12009","NMCNTY":"Brevard County","LOCALE":"41","SCHOOLYEAR":"2024-2025"}},{"type":"Feature","geometry":{"type":"Point","coordinates":[-80.756005,28.375862]},"properties":{"NCESSCH":"120015005441","LEAID":"1200150","NAME":"BREVARD VIRTUAL FRANCHISE","STATE":"FL","CITY":"COCOA","ZIP":"32922","CNTY":"12009","NMCNTY":"Brevard County","LOCALE":"21","SCHOOLYEAR":"2024-2025"}},{"type":"Feature","geometry":{"type":"Point","coordinates":[-80.667323,28.061921]},"properties":{"NCESSCH":"120015007391","LEAID":"1200150","NAME":"MEADOWLANE INTERMEDIATE ELEMENTARY SCHOOL","STATE":"FL","CITY":"WEST MELBOURNE","ZIP":"32904","CNTY":"12009","NMCNTY":"Brevard County","LOCALE":"21","SCHOOLYEAR":"2024-2025"}},{"type":"Feature","geometry":{"type":"Point","coordinates":[-80.743735,28.00209]},"properties":{"NCESSCH":"120015007530","LEAID":"1200150","NAME":"HERITAGE HIGH SCHOOL","STATE":"FL","CITY":"PALM BAY","ZIP":"32907","CNTY":"12009","NMCNTY":"Brevard County","LOCALE":"12","SCHOOLYEAR":"2024-2025"}},{"type":"Feature","geometry":{"type":"Point","coordinates":[-80.62309,28.360055]},"properties":{"NCESSCH":"120015007957","LEAID":"1200150","NAME":"PROJECT SEARCH","STATE":"FL","CITY":"COCOA BEACH","ZIP":"32931","CNTY":"12009","NMCNTY":"Brevard County","LOCALE":"41","SCHOOLYEAR":"2024-2025"}},{"type":"Feature","geometry":{"type":"Point","coordinates":[-80.619696,28.094337]},"properties":{"NCESSCH":"120015008133","LEAID":"1200150","NAME":"RIVERSIDE CHARTER HIGH SCHOOL","STATE":"FL","CITY":"MELBOURNE","ZIP":"32901","CNTY":"12009","NMCNTY":"Brevard County","LOCALE":"13","SCHOOLYEAR":"2024-2025"}},{"type":"Feature","geometry":{"type":"Point","coordinates":[-80.739404,28.35102]},"properties":{"NCESSCH":"120015008175","LEAID":"1200150","NAME":"EMMA JEWEL CHARTER ACADEMY","STATE":"FL","CITY":"COCOA","ZIP":"32922","CNTY":"12009","NMCNTY":"Brevard County","LOCALE":"21","SCHOOLYEAR":"2024-2025"}},{"type":"Feature","geometry":{"type":"Point","coordinates":[-80.632339,27.949746]},"properties":{"NCESSCH":"120015008230","LEAID":"1200150","NAME":"ODYSSEY PREPARATORY CHARTER ACADEMY","STATE":"FL","CITY":"PALM BAY","ZIP":"32909","CNTY":"12009","NMCNTY":"Brevard County","LOCALE":"12","SCHOOLYEAR":"2024-2025"}},{"type":"Feature","geometry":{"type":"Point","coordinates":[-80.740703,28.249608]},"properties":{"NCESSCH":"120015008240","LEAID":"1200150","NAME":"VIERA CHARTER SCHOOL","STATE":"FL","CITY":"VIERA","ZIP":"32940","CNTY":"12009","NMCNTY":"Brevard County","LOCALE":"21","SCHOOLYEAR":"2024-2025"}},{"type":"Feature","geometry":{"type":"Point","coordinates":[-80.675447,28.004371]},"properties":{"NCESSCH":"120015008446","LEAID":"1200150","NAME":"PINEAPPLE COVE CLASSICAL ACADEMY","STATE":"FL","CITY":"PALM BAY","ZIP":"32907","CNTY":"12009","NMCNTY":"Brevard County","LOCALE":"12","SCHOOLYEAR":"2024-2025"}},{"type":"Feature","geometry":{"type":"Point","coordinates":[-80.736704,28.248696]},"properties":{"NCESSCH":"120015008505","LEAID":"1200150","NAME":"CONTRACTED RESIDENTIAL SERVICES","STATE":"FL","CITY":"VIERA","ZIP":"32940","CNTY":"12009","NMCNTY":"Brevard County","LOCALE":"21","SCHOOLYEAR":"2024-2025"}},{"type":"Feature","geometry":{"type":"Point","coordinates":[-80.693813,28.04432]},"properties":{"NCESSCH":"120015008612","LEAID":"1200150","NAME":"PINEAPPLE COVE CLASSICAL ACADEMY AT WEST MELBOURNE","STATE":"FL","CITY":"WEST MELBOURNE","ZIP":"32904","CNTY":"12009","NMCNTY":"Brevard County","LOCALE":"21","SCHOOLYEAR":"2024-2025"}},{"type":"Feature","geometry":{"type":"Point","coordinates":[-80.853712,28.614635]},"properties":{"NCESSCH":"120015008651","LEAID":"1200150","NAME":"SOUTH LAKE ELEMENTARY","STATE":"FL","CITY":"TITUSVILLE","ZIP":"32796","CNTY":"12009","NMCNTY":"Brevard County","LOCALE":"13","SCHOOLYEAR":"2024-2025"}},{"type":"Feature","geometry":{"type":"Point","coordinates":[-80.73414,28.225087]},"properties":{"NCESSCH":"120015008790","LEAID":"1200150","NAME":"PINECREST ACADEMY SPACE COAST","STATE":"FL","CITY":"VIERA","ZIP":"32940","CNTY":"12009","NMCNTY":"Brevard County","LOCALE":"21","SCHOOLYEAR":"2024-2025"}},{"type":"Feature","geometry":{"type":"Point","coordinates":[-80.736604,28.211233]},"properties":{"NCESSCH":"120015008800","LEAID":"1200150","NAME":"VIERA ELEMENTARY SCHOOL","STATE":"FL","CITY":"VIERA","ZIP":"32940","CNTY":"12009","NMCNTY":"Brevard County","LOCALE":"21","SCHOOLYEAR":"2024-2025"}},{"type":"Feature","geometry":{"type":"Point","coordinates":[-80.66007,28.018565]},"properties":{"NCESSCH":"120015008971","LEAID":"1200150","NAME":"PINEAPPLE COVE CLASSICAL ACADEMY AT LOCKMAR","STATE":"FL","CITY":"PALM BAY","ZIP":"32907","CNTY":"12009","NMCNTY":"Brevard County","LOCALE":"12","SCHOOLYEAR":"2024-2025"}},{"type":"Feature","geometry":{"type":"Point","coordinates":[-80.736586,28.25519]},"properties":{"NCESSCH":"120015010624","LEAID":"1200150","NAME":"VIERA MIDDLE SCHOOL","STATE":"FL","CITY":"VIERA","ZIP":"32940","CNTY":"12009","NMCNTY":"Brevard County","LOCALE":"21","SCHOOLYEAR":"2024-2025"}},{"type":"Feature","geometry":{"type":"Point","coordinates":[-80.094723,26.32003]},"properties":{"NCESSCH":"120018000141","LEAID":"1200180","NAME":"DEERFIELD BEACH ELEMENTARY SCHOOL","STATE":"FL","CITY":"DEERFIELD BEACH","ZIP":"33441","CNTY":"12011","NMCNTY":"Broward County","LOCALE":"13","SCHOOLYEAR":"2024-2025"}},{"type":"Feature","geometry":{"type":"Point","coordinates":[-80.119945,26.236161]},"properties":{"NCESSCH":"120018000142","LEAID":"1200180","NAME":"POMPANO BEACH MIDDLE SCHOOL","STATE":"FL","CITY":"POMPANO BEACH","ZIP":"33060","CNTY":"12011","NMCNTY":"Broward County","LOCALE":"12","SCHOOLYEAR":"2024-2025"}},{"type":"Feature","geometry":{"type":"Point","coordinates":[-80.135048,26.167872]},"properties":{"NCESSCH":"120018000143","LEAID":"1200180","NAME":"OAKLAND PARK ELEMENTARY SCHOOL","STATE":"FL","CITY":"OAKLAND PARK","ZIP":"33334","CNTY":"12011","NMCNTY":"Broward County","LOCALE":"21","SCHOOLYEAR":"2024-2025"}},{"type":"Feature","geometry":{"type":"Point","coordinates":[-80.142656,26.137946]},"properties":{"NCESSCH":"120018000144","LEAID":"1200180","NAME":"NORTH SIDE ELEMENTARY SCHOOL","STATE":"FL","CITY":"FORT LAUDERDALE","ZIP":"33304","CNTY":"12011","NMCNTY":"Broward County","LOCALE":"12","SCHOOLYEAR":"2024-2025"}},{"type":"Feature","geometry":{"type":"Point","coordinates":[-80.274531,26.187567]},"properties":{"NCESSCH":"120018000145","LEAID":"1200180","NAME":"WESTPINE MIDDLE SCHOOL","STATE":"FL","CITY":"SUNRISE","ZIP":"33351","CNTY":"12011","NMCNTY":"Broward County","LOCALE":"13","SCHOOLYEAR":"2024-2025"}},{"type":"Feature","geometry":{"type":"Point","coordinates":[-80.282611,26.166749]},"properties":{"NCESSCH":"120018000146","LEAID":"1200180","NAME":"WELLEBY ELEMENTARY SCHOOL","STATE":"FL","CITY":"SUNRISE","ZIP":"33351","CNTY":"12011","NMCNTY":"Broward County","LOCALE":"13","SCHOOLYEAR":"2024-2025"}},{"type":"Feature","geometry":{"type":"Point","coordinates":[-80.142291,26.046793]},"properties":{"NCESSCH":"120018000147","LEAID":"1200180","NAME":"DANIA ELEMENTARY SCHOOL","STATE":"FL","CITY":"DANIA BEACH","ZIP":"33004","CNTY":"12011","NMCNTY":"Broward County","LOCALE":"21","SCHOOLYEAR":"2024-2025"}},{"type":"Feature","geometry":{"type":"Point","coordinates":[-80.179801,26.026166]},"properties":{"NCESSCH":"120018000148","LEAID":"1200180","NAME":"HOLLYWOOD HILLS ELEMENTARY SCHOOL","STATE":"FL","CITY":"HOLLYWOOD","ZIP":"33021","CNTY":"12011","NMCNTY":"Broward County","LOCALE":"21","SCHOOLYEAR":"2024-2025"}},{"type":"Feature","geometry":{"type":"Point","coordinates":[-80.141885,26.007438]},"properties":{"NCESSCH":"120018000149","LEAID":"1200180","NAME":"HOLLYWOOD CENTRAL ELEMENTARY SCHOOL","STATE":"FL","CITY":"HOLLYWOOD","ZIP":"33020","CNTY":"12011","NMCNTY":"Broward County","LOCALE":"21","SCHOOLYEAR":"2024-2025"}},{"type":"Feature","geometry":{"type":"Point","coordinates":[-80.162632,25.980717]},"properties":{"NCESSCH":"120018000150","LEAID":"1200180","NAME":"GULFSTREAM ACADEMY OF HALLANDALE BEACH","STATE":"FL","CITY":"HALLANDALE BEACH","ZIP":"33009","CNTY":"12011","NMCNTY":"Broward County","LOCALE":"21","SCHOOLYEAR":"2024-2025"}},{"type":"Feature","geometry":{"type":"Point","coordinates":[-80.176259,26.108978]},"properties":{"NCESSCH":"120018000151","LEAID":"1200180","NAME":"RIVERLAND ELEMENTARY SCHOOL","STATE":"FL","CITY":"FORT LAUDERDALE","ZIP":"33312","CNTY":"12011","NMCNTY":"Broward County","LOCALE":"12","SCHOOLYEAR":"2024-2025"}},{"type":"Feature","geometry":{"type":"Point","coordinates":[-80.214763,26.011395]},"properties":{"NCESSCH":"120018000152","LEAID":"1200180","NAME":"WEST HOLLYWOOD ELEMENTARY SCHOOL","STATE":"FL","CITY":"HOLLYWOOD","ZIP":"33024","CNTY":"12011","NMCNTY":"Broward County","LOCALE":"21","SCHOOLYEAR":"2024-2025"}},{"type":"Feature","geometry":{"type":"Point","coordinates":[-80.142293,26.029191]},"properties":{"NCESSCH":"120018000153","LEAID":"1200180","NAME":"SOUTH BROWARD HIGH SCHOOL","STATE":"FL","CITY":"HOLLYWOOD","ZIP":"33020","CNTY":"12011","NMCNTY":"Broward County","LOCALE":"21","SCHOOLYEAR":"2024-2025"}},{"type":"Feature","geometry":{"type":"Point","coordinates":[-80.292403,26.03264]},"properties":{"NCESSCH":"120018000154","LEAID":"1200180","NAME":"EMBASSY CREEK ELEMENTARY SCHOOL","STATE":"FL","CITY":"COOPER CITY","ZIP":"33026","CNTY":"12011","NMCNTY":"Broward County","LOCALE":"21","SCHOOLYEAR":"2024-2025"}},{"type":"Feature","geometry":{"type":"Point","coordinates":[-80.143129,26.15882]},"properties":{"NCESSCH":"120018000155","LEAID":"1200180","NAME":"WILTON MANORS ELEMENTARY SCHOOL","STATE":"FL","CITY":"WILTON MANORS","ZIP":"33305","CNTY":"12011","NMCNTY":"Broward County","LOCALE":"21","SCHOOLYEAR":"2024-2025"}},{"type":"Feature","geometry":{"type":"Point","coordinates":[-80.123513,26.145158]},"properties":{"NCESSCH":"120018000156","LEAID":"1200180","NAME":"BENNETT ELEMENTARY SCHOOL","STATE":"FL","CITY":"FORT LAUDERDALE","ZIP":"33304","CNTY":"12011","NMCNTY":"Broward County","LOCALE":"12","SCHOOLYEAR":"2024-2025"}},{"type":"Feature","geometry":{"type":"Point","coordinates":[-80.16597,26.11204]},"properties":{"NCESSCH":"120018000157","LEAID":"1200180","NAME":"STRANAHAN HIGH SCHOOL","STATE":"FL","CITY":"FORT LAUDERDALE","ZIP":"33312","CNTY":"12011","NMCNTY":"Broward County","LOCALE":"12","SCHOOLYEAR":"2024-2025"}},{"type":"Feature","geometry":{"type":"Point","coordinates":[-80.14614,26.09855]},"properties":{"NCESSCH":"120018000158","LEAID":"1200180","NAME":"CROISSANT PARK ELEMENTARY SCHOOL","STATE":"FL","CITY":"FORT LAUDERDALE","ZIP":"33315","CNTY":"12011","NMCNTY":"Broward County","LOCALE":"12","SCHOOLYEAR":"2024-2025"}},{"type":"Feature","geometry":{"type":"Point","coordinates":[-80.160831,26.000979]},"properties":{"NCESSCH":"120018000159","LEAID":"1200180","NAME":"COLBERT ELEMENTARY SCHOOL","STATE":"FL","CITY":"HOLLYWOOD","ZIP":"33020","CNTY":"12011","NMCNTY":"Broward County","LOCALE":"21","SCHOOLYEAR":"2024-2025"}},{"type":"Feature","geometry":{"type":"Point","coordinates":[-80.216996,26.011431]},"properties":{"NCESSCH":"120018000160","LEAID":"1200180","NAME":"MCARTHUR HIGH SCHOOL","STATE":"FL","CITY":"HOLLYWOOD","ZIP":"33024","CNTY":"12011","NMCNTY":"Broward County","LOCALE":"21","SCHOOLYEAR":"2024-2025"}},{"type":"Feature","geometry":{"type":"Point","coordinates":[-80.12301,26.143773]},"properties":{"NCESSCH":"120018000161","LEAID":"1200180","NAME":"SUNRISE MIDDLE SCHOOL","STATE":"FL","CITY":"FORT LAUDERDALE","ZIP":"33304","CNTY":"12011","NMCNTY":"Broward County","LOCALE":"12","SCHOOLYEAR":"2024-2025"}},{"type":"Feature","geometry":{"type":"Point","coordinates":[-80.173374,26.140262]},"properties":{"NCESSCH":"120018000162","LEAID":"1200180","NAME":"DILLARD ELEMENTARY SCHOOL","STATE":"FL","CITY":"FORT LAUDERDALE","ZIP":"33311","CNTY":"12011","NMCNTY":"Broward County","LOCALE":"12","SCHOOLYEAR":"2024-2025"}},{"type":"Feature","geometry":{"type":"Point","coordinates":[-80.155586,26.126485]},"properties":{"NCESSCH":"120018000164","LEAID":"1200180","NAME":"WALKER ELEMENTARY SCHOOL","STATE":"FL","CITY":"FORT LAUDERDALE","ZIP":"33311","CNTY":"12011","NMCNTY":"Broward County","LOCALE":"12","SCHOOLYEAR":"2024-2025"}},{"type":"Feature","geometry":{"type":"Point","coordinates":[-80.150753,26.056276]},"properties":{"NCESSCH":"120018000165","LEAID":"1200180","NAME":"COLLINS ELEMENTARY SCHOOL","STATE":"FL","CITY":"DANIA BEACH","ZIP":"33004","CNTY":"12011","NMCNTY":"Broward County","LOCALE":"21","SCHOOLYEAR":"2024-2025"}},{"type":"Feature","geometry":{"type":"Point","coordinates":[-80.154564,26.04526]},"properties":{"NCESSCH":"120018000166","LEAID":"1200180","NAME":"MARY M BETHUNE ELEMENTARY SCHOOL","STATE":"FL","CITY":"HOLLYWOOD","ZIP":"33020","CNTY":"12011","NMCNTY":"Broward County","LOCALE":"21","SCHOOLYEAR":"2024-2025"}},{"type":"Feature","geometry":{"type":"Point","coordinates":[-80.153083,26.043232]},"properties":{"NCESSCH":"120018000167","LEAID":"1200180","NAME":"ATTUCKS MIDDLE SCHOOL","STATE":"FL","CITY":"HOLLYWOOD","ZIP":"33020","CNTY":"12011","NMCNTY":"Broward County","LOCALE":"21","SCHOOLYEAR":"2024-2025"}},{"type":"Feature","geometry":{"type":"Point","coordinates":[-80.132424,26.242138]},"properties":{"NCESSCH":"120018000168","LEAID":"1200180","NAME":"BLANCHE ELY HIGH SCHOOL","STATE":"FL","CITY":"POMPANO BEACH","ZIP":"33060","CNTY":"12011","NMCNTY":"Broward County","LOCALE":"12","SCHOOLYEAR":"2024-2025"}},{"type":"Feature","geometry":{"type":"Point","coordinates":[-80.175875,26.139607]},"properties":{"NCESSCH":"120018000169","LEAID":"1200180","NAME":"DILLARD 6-12","STATE":"FL","CITY":"FORT LAUDERDALE","ZIP":"33311","CNTY":"12011","NMCNTY":"Broward County","LOCALE":"12","SCHOOLYEAR":"2024-2025"}},{"type":"Feature","geometry":{"type":"Point","coordinates":[-80.106739,26.309316]},"properties":{"NCESSCH":"120018000170","LEAID":"1200180","NAME":"DEERFIELD PARK ELEMENTARY SCHOOL","STATE":"FL","CITY":"DEERFIELD BEACH","ZIP":"33441","CNTY":"12011","NMCNTY":"Broward County","LOCALE":"13","SCHOOLYEAR":"2024-2025"}},{"type":"Feature","geometry":{"type":"Point","coordinates":[-80.161943,25.993476]},"properties":{"NCESSCH":"120018000171","LEAID":"1200180","NAME":"HALLANDALE HIGH SCHOOL","STATE":"FL","CITY":"HALLANDALE BEACH","ZIP":"33009","CNTY":"12011","NMCNTY":"Broward County","LOCALE":"21","SCHOOLYEAR":"2024-2025"}},{"type":"Feature","geometry":{"type":"Point","coordinates":[-80.162577,26.02446]},"properties":{"NCESSCH":"120018000175","LEAID":"1200180","NAME":"OAKRIDGE ELEMENTARY SCHOOL","STATE":"FL","CITY":"HOLLYWOOD","ZIP":"33020","CNTY":"12011","NMCNTY":"Broward County","LOCALE":"21","SCHOOLYEAR":"2024-2025"}},{"type":"Feature","geometry":{"type":"Point","coordinates":[-80.137873,26.036357]},"properties":{"NCESSCH":"120018000176","LEAID":"1200180","NAME":"OLSEN MIDDLE SCHOOL","STATE":"FL","CITY":"DANIA BEACH","ZIP":"33004","CNTY":"12011","NMCNTY":"Broward County","LOCALE":"21","SCHOOLYEAR":"2024-2025"}},{"type":"Feature","geometry":{"type":"Point","coordinates":[-80.161379,25.996894]},"properties":{"NCESSCH":"120018000177","LEAID":"1200180","NAME":"MCNICOL MIDDLE SCHOOL","STATE":"FL","CITY":"HOLLYWOOD","ZIP":"33020","CNTY":"12011","NMCNTY":"Broward County","LOCALE":"21","SCHOOLYEAR":"2024-2025"}},{"type":"Feature","geometry":{"type":"Point","coordinates":[-80.133438,26.102218]},"properties":{"NCESSCH":"120018000178","LEAID":"1200180","NAME":"HARBORDALE ELEMENTARY SCHOOL","STATE":"FL","CITY":"FORT LAUDERDALE","ZIP":"33316","CNTY":"12011","NMCNTY":"Broward County","LOCALE":"12","SCHOOLYEAR":"2024-2025"}},{"type":"Feature","geometry":{"type":"Point","coordinates":[-80.195398,26.125455]},"properties":{"NCESSCH":"120018000179","LEAID":"1200180","NAME":"BROWARD ESTATES ELEMENTARY SCHOOL","STATE":"FL","CITY":"LAUDERHILL","ZIP":"33311","CNTY":"12011","NMCNTY":"Broward County","LOCALE":"21","SCHOOLYEAR":"2024-2025"}},{"type":"Feature","geometry":{"type":"Point","coordinates":[-80.195584,25.978194]},"properties":{"NCESSCH":"120018000180","LEAID":"1200180","NAME":"WATKINS ELEMENTARY SCHOOL","STATE":"FL","CITY":"PEMBROKE PARK","ZIP":"33023","CNTY":"12011","NMCNTY":"Broward County","LOCALE":"21","SCHOOLYEAR":"2024-2025"}},{"type":"Feature","geometry":{"type":"Point","coordinates":[-80.141667,26.197191]},"properties":{"NCESSCH":"120018000181","LEAID":"1200180","NAME":"NORTH ANDREWS GARDENS ELEMENTARY SCHOOL","STATE":"FL","CITY":"OAKLAND PARK","ZIP":"33334","CNTY":"12011","NMCNTY":"Broward County","LOCALE":"21","SCHOOLYEAR":"2024-2025"}},{"type":"Feature","geometry":{"type":"Point","coordinates":[-80.224726,25.988508]},"properties":{"NCESSCH":"120018000182","LEAID":"1200180","NAME":"MIRAMAR ELEMENTARY SCHOOL","STATE":"FL","CITY":"MIRAMAR","ZIP":"33023","CNTY":"12011","NMCNTY":"Broward County","LOCALE":"21","SCHOOLYEAR":"2024-2025"}},{"type":"Feature","geometry":{"type":"Point","coordinates":[-80.238864,26.136691]},"properties":{"NCESSCH":"120018000183","LEAID":"1200180","NAME":"PLANTATION MIDDLE SCHOOL","STATE":"FL","CITY":"PLANTATION","ZIP":"33313","CNTY":"12011","NMCNTY":"Broward County","LOCALE":"21","SCHOOLYEAR":"2024-2025"}},{"type":"Feature","geometry":{"type":"Point","coordinates":[-80.101043,26.28031]},"properties":{"NCESSCH":"120018000184","LEAID":"1200180","NAME":"NORCREST ELEMENTARY SCHOOL","STATE":"FL","CITY":"POMPANO BEACH","ZIP":"33064","CNTY":"12011","NMCNTY":"Broward County","LOCALE":"12","SCHOOLYEAR":"2024-2025"}},{"type":"Feature","geometry":{"type":"Point","coordinates":[-80.124132,26.281216]},"properties":{"NCESSCH":"120018000185","LEAID":"1200180","NAME":"TEDDER ELEMENTARY SCHOOL","STATE":"FL","CITY":"POMPANO BEACH","ZIP":"33064","CNTY":"12011","NMCNTY":"Broward County","LOCALE":"13","SCHOOLYEAR":"2024-2025"}},{"type":"Feature","geometry":{"type":"Point","coordinates":[-80.210872,26.236499]},"properties":{"NCESSCH":"120018000186","LEAID":"1200180","NAME":"MARGATE MIDDLE SCHOOL","STATE":"FL","CITY":"MARGATE","ZIP":"33063","CNTY":"12011","NMCNTY":"Broward County","LOCALE":"21","SCHOOLYEAR":"2024-2025"}},{"type":"Feature","geometry":{"type":"Point","coordinates":[-80.162785,26.2409]},"properties":{"NCESSCH":"120018000187","LEAID":"1200180","NAME":"CHARLES DREW ELEMENTARY SCHOOL","STATE":"FL","CITY":"POMPANO BEACH","ZIP":"33069","CNTY":"12011","NMCNTY":"Broward County","LOCALE":"12","SCHOOLYEAR":"2024-2025"}},{"type":"Feature","geometry":{"type":"Point","coordinates":[-80.147606,26.089748]},"properties":{"NCESSCH":"120018000188","LEAID":"1200180","NAME":"SEAGULL SCHOOL","STATE":"FL","CITY":"FORT LAUDERDALE","ZIP":"33315","CNTY":"12011","NMCNTY":"Broward County","LOCALE":"12","SCHOOLYEAR":"2024-2025"}},{"type":"Feature","geometry":{"type":"Point","coordinates":[-80.159918,26.135839]},"properties":{"NCESSCH":"120018000189","LEAID":"1200180","NAME":"SUNLAND PARK ACADEMY","STATE":"FL","CITY":"FORT LAUDERDALE","ZIP":"33311","CNTY":"12011","NMCNTY":"Broward County","LOCALE":"12","SCHOOLYEAR":"2024-2025"}},{"type":"Feature","geometry":{"type":"Point","coordinates":[-80.190035,26.139966]},"properties":{"NCESSCH":"120018000190","LEAID":"1200180","NAME":"LARKDALE ELEMENTARY SCHOOL","STATE":"FL","CITY":"LAUDERHILL","ZIP":"33311","CNTY":"12011","NMCNTY":"Broward County","LOCALE":"21","SCHOOLYEAR":"2024-2025"}},{"type":"Feature","geometry":{"type":"Point","coordinates":[-80.182138,26.111381]},"properties":{"NCESSCH":"120018000191","LEAID":"1200180","NAME":"WESTWOOD HEIGHTS ELEMENTARY SCHOOL","STATE":"FL","CITY":"FORT LAUDERDALE","ZIP":"33312","CNTY":"12011","NMCNTY":"Broward County","LOCALE":"12","SCHOOLYEAR":"2024-2025"}},{"type":"Feature","geometry":{"type":"Point","coordinates":[-80.117082,26.141254]},"properties":{"NCESSCH":"120018000192","LEAID":"1200180","NAME":"BAYVIEW ELEMENTARY SCHOOL","STATE":"FL","CITY":"FORT LAUDERDALE","ZIP":"33304","CNTY":"12011","NMCNTY":"Broward County","LOCALE":"12","SCHOOLYEAR":"2024-2025"}},{"type":"Feature","geometry":{"type":"Point","coordinates":[-80.301631,26.001536]},"properties":{"NCESSCH":"120018000193","LEAID":"1200180","NAME":"PALM COVE ELEMENTARY SCHOOL","STATE":"FL","CITY":"PEMBROKE PINES","ZIP":"33025","CNTY":"12011","NMCNTY":"Broward County","LOCALE":"21","SCHOOLYEAR":"2024-2025"}},{"type":"Feature","geometry":{"type":"Point","coordinates":[-80.31881,26.132553]},"properties":{"NCESSCH":"120018000194","LEAID":"1200180","NAME":"SAWGRASS ELEMENTARY SCHOOL","STATE":"FL","CITY":"SUNRISE","ZIP":"33325","CNTY":"12011","NMCNTY":"Broward County","LOCALE":"13","SCHOOLYEAR":"2024-2025"}},{"type":"Feature","geometry":{"type":"Point","coordinates":[-80.200146,26.044886]},"properties":{"NCESSCH":"120018000196","LEAID":"1200180","NAME":"STIRLING ELEMENTARY SCHOOL","STATE":"FL","CITY":"HOLLYWOOD","ZIP":"33021","CNTY":"12011","NMCNTY":"Broward County","LOCALE":"21","SCHOOLYEAR":"2024-2025"}},{"type":"Feature","geometry":{"type":"Point","coordinates":[-80.196695,26.126994]},"properties":{"NCESSCH":"120018000197","LEAID":"1200180","NAME":"PARKWAY MIDDLE SCHOOL","STATE":"FL","CITY":"LAUDERHILL","ZIP":"33311","CNTY":"12011","NMCNTY":"Broward County","LOCALE":"21","SCHOOLYEAR":"2024-2025"}},{"type":"Feature","geometry":{"type":"Point","coordinates":[-80.187832,26.003771]},"properties":{"NCESSCH":"120018000198","LEAID":"1200180","NAME":"ORANGE BROOK ELEMENTARY SCHOOL","STATE":"FL","CITY":"HOLLYWOOD","ZIP":"33021","CNTY":"12011","NMCNTY":"Broward County","LOCALE":"21","SCHOOLYEAR":"2024-2025"}},{"type":"Feature","geometry":{"type":"Point","coordinates":[-80.227288,26.03463]},"properties":{"NCESSCH":"120018000199","LEAID":"1200180","NAME":"DRIFTWOOD ELEMENTARY SCHOOL","STATE":"FL","CITY":"HOLLYWOOD","ZIP":"33024","CNTY":"12011","NMCNTY":"Broward County","LOCALE":"21","SCHOOLYEAR":"2024-2025"}},{"type":"Feature","geometry":{"type":"Point","coordinates":[-80.235088,26.103451]},"properties":{"NCESSCH":"120018000200","LEAID":"1200180","NAME":"TROPICAL ELEMENTARY SCHOOL","STATE":"FL","CITY":"PLANTATION","ZIP":"33317","CNTY":"12011","NMCNTY":"Broward County","LOCALE":"21","SCHOOLYEAR":"2024-2025"}},{"type":"Feature","geometry":{"type":"Point","coordinates":[-80.108333,26.238215]},"properties":{"NCESSCH":"120018000201","LEAID":"1200180","NAME":"POMPANO BEACH ELEMENTARY SCHOOL","STATE":"FL","CITY":"POMPANO BEACH","ZIP":"33060","CNTY":"12011","NMCNTY":"Broward County","LOCALE":"12","SCHOOLYEAR":"2024-2025"}},{"type":"Feature","geometry":{"type":"Point","coordinates":[-80.210487,26.096377]},"properties":{"NCESSCH":"120018000202","LEAID":"1200180","NAME":"MEADOWBROOK ELEMENTARY SCHOOL","STATE":"FL","CITY":"FORT LAUDERDALE","ZIP":"33317","CNTY":"12011","NMCNTY":"Broward County","LOCALE":"21","SCHOOLYEAR":"2024-2025"}},{"type":"Feature","geometry":{"type":"Point","coordinates":[-80.206601,26.204854]},"properties":{"NCESSCH":"120018000204","LEAID":"1200180","NAME":"BROADVIEW ELEMENTARY SCHOOL","STATE":"FL","CITY":"NORTH LAUDERDALE","ZIP":"33068","CNTY":"12011","NMCNTY":"Broward County","LOCALE":"21","SCHOOLYEAR":"2024-2025"}},{"type":"Feature","geometry":{"type":"Point","coordinates":[-80.192078,25.979056]},"properties":{"NCESSCH":"120018000205","LEAID":"1200180","NAME":"LAKE FOREST ELEMENTARY SCHOOL","STATE":"FL","CITY":"PEMBROKE PARK","ZIP":"33023","CNTY":"12011","NMCNTY":"Broward County","LOCALE":"21","SCHOOLYEAR":"2024-2025"}},{"type":"Feature","geometry":{"type":"Point","coordinates":[-80.108915,26.214126]},"properties":{"NCESSCH":"120018000206","LEAID":"1200180","NAME":"MCNAB ELEMENTARY SCHOOL","STATE":"FL","CITY":"POMPANO BEACH","ZIP":"33060","CNTY":"12011","NMCNTY":"Broward County","LOCALE":"12","SCHOOLYEAR":"2024-2025"}},{"type":"Feature","geometry":{"type":"Point","coordinates":[-80.129063,26.190852]},"properties":{"NCESSCH":"120018000207","LEAID":"1200180","NAME":"FLORANADA ELEMENTARY SCHOOL","STATE":"FL","CITY":"FORT LAUDERDALE","ZIP":"33334","CNTY":"12011","NMCNTY":"Broward County","LOCALE":"12","SCHOOLYEAR":"2024-2025"}},{"type":"Feature","geometry":{"type":"Point","coordinates":[-80.228932,26.034683]},"properties":{"NCESSCH":"120018000208","LEAID":"1200180","NAME":"DRIFTWOOD MIDDLE SCHOOL","STATE":"FL","CITY":"HOLLYWOOD","ZIP":"33024","CNTY":"12011","NMCNTY":"Broward County","LOCALE":"21","SCHOOLYEAR":"2024-2025"}},{"type":"Feature","geometry":{"type":"Point","coordinates":[-80.12414,26.278597]},"properties":{"NCESSCH":"120018000209","LEAID":"1200180","NAME":"BRIGHT HORIZONS","STATE":"FL","CITY":"POMPANO BEACH","ZIP":"33064","CNTY":"12011","NMCNTY":"Broward County","LOCALE":"13","SCHOOLYEAR":"2024-2025"}},{"type":"Feature","geometry":{"type":"Point","coordinates":[-80.186351,26.090732]},"properties":{"NCESSCH":"120018000210","LEAID":"1200180","NAME":"NEW RIVER MIDDLE SCHOOL","STATE":"FL","CITY":"FORT LAUDERDALE","ZIP":"33312","CNTY":"12011","NMCNTY":"Broward County","LOCALE":"12","SCHOOLYEAR":"2024-2025"}},{"type":"Feature","geometry":{"type":"Point","coordinates":[-80.133031,26.248374]},"properties":{"NCESSCH":"120018000211","LEAID":"1200180","NAME":"SANDERS PARK ELEMENTARY SCHOOL","STATE":"FL","CITY":"POMPANO BEACH","ZIP":"33060","CNTY":"12011","NMCNTY":"Broward County","LOCALE":"12","SCHOOLYEAR":"2024-2025"}},{"type":"Feature","geometry":{"type":"Point","coordinates":[-80.113872,26.262996]},"properties":{"NCESSCH":"120018000212","LEAID":"1200180","NAME":"CRESTHAVEN ELEMENTARY SCHOOL","STATE":"FL","CITY":"POMPANO BEACH","ZIP":"33064","CNTY":"12011","NMCNTY":"Broward County","LOCALE":"12","SCHOOLYEAR":"2024-2025"}},{"type":"Feature","geometry":{"type":"Point","coordinates":[-80.097269,26.309083]},"properties":{"NCESSCH":"120018000213","LEAID":"1200180","NAME":"DEERFIELD BEACH MIDDLE SCHOOL","STATE":"FL","CITY":"DEERFIELD BEACH","ZIP":"33441","CNTY":"12011","NMCNTY":"Broward County","LOCALE":"13","SCHOOLYEAR":"2024-2025"}},{"type":"Feature","geometry":{"type":"Point","coordinates":[-80.192181,26.09535]},"properties":{"NCESSCH":"120018000214","LEAID":"1200180","NAME":"STEPHEN FOSTER ELEMENTARY SCHOOL","STATE":"FL","CITY":"FORT LAUDERDALE","ZIP":"33312","CNTY":"12011","NMCNTY":"Broward County","LOCALE":"12","SCHOOLYEAR":"2024-2025"}},{"type":"Feature","geometry":{"type":"Point","coordinates":[-80.239976,26.13455]},"properties":{"NCESSCH":"120018000215","LEAID":"1200180","NAME":"PETERS ELEMENTARY SCHOOL","STATE":"FL","CITY":"PLANTATION","ZIP":"33317","CNTY":"12011","NMCNTY":"Broward County","LOCALE":"21","SCHOOLYEAR":"2024-2025"}},{"type":"Feature","geometry":{"type":"Point","coordinates":[-80.205257,26.130972]},